{"version": 0.6, "generator": "Overpass API 0.7.62.8 e802775f", "osm3s": {"timestamp_osm_base": "2025-10-06T08:23:05Z", "copyright": "The data included in this document is from www.openstreetmap.org. The data is made available under ODbL."}, "elements": [{"type": "node", "id": 417927937, "lat": 50.8002735, "lon": 20.4616379, "tags": {"addr:city": "Ch\u0119ciny", "addr:housenumber": "28", "addr:postcode": "26-060", "addr:street": "Plac 2 Czerwca", "amenity": "pharmacy", "contact:mobile": "+48 608 521 510", "email": "roszkowskab@wp.pl", "healthcare": "pharmacy", "name": "Trzy Wie\u017ce", "opening_hours": "Mo-Fr 08:00-18:00; Sa 08:00-14:00", "phone": "+48 41 315 11 06", "ref:csioz": "1002285"}}, {"type": "node", "id": 706376309, "lat": 50.8857511, "lon": 20.6375431, "tags": {"amenity": "pharmacy", "dispensing": "yes", "healthcare": "pharmacy", "name": "\u015awiat Zdrowia", "opening_hours": "Mo-Fr 07:30-20:00; Sa 08:00-15:00", "ref:csioz": "1000367"}}, {"type": "node", "id": 1745282722, "lat": 50.5915229, "lon": 21.0017648, "tags": {"addr:city": "Szyd\u0142\u00f3w", "addr:housenumber": "1", "addr:street": "Osiedle W\u0142adys\u0142awa \u0141okietka", "amenity": "pharmacy", "dispensing": "yes", "fixme": "Lokalizacja do weryfikacji", "ref:csioz": "1000230"}}, {"type": "node", "id": 1929472757, "lat": 50.8819756, "lon": 20.6143578, "tags": {"addr:housenumber": "39", "addr:street": "Ho\u017ca", "amenity": "pharmacy", "check_date": "2023-01-05", "dispensing": "yes", "healthcare": "pharmacy", "name": "Pigularz", "opening_hours": "Mo-Fr 08:00-22:00; Sa 09:00-15:00; Su off", "payment:mastercard": "yes", "payment:visa": "yes", "phone": "+48 41 346 28 42", "ref:csioz": "1001618"}}, {"type": "node", "id": 2253006868, "lat": 50.8015287, "lon": 20.8070165, "tags": {"addr:city": "Daleszyce", "addr:housenumber": "6", "addr:postcode": "26-021", "addr:street": "Plac Stanis\u0142awa Staszica", "amenity": "pharmacy", "healthcare": "pharmacy", "name": "Od Pokole\u0144", "opening_hours": "Mo-Fr 08:00-18:00; Sa 08:00-14:00"}}, {"type": "node", "id": 2300001644, "lat": 50.8487455, "lon": 20.6268081, "tags": {"amenity": "pharmacy", "dispensing": "yes", "healthcare": "pharmacy", "name": "Apteka Omega", "opening_hours": "Mo-Fr 08:00-21:00; Sa 08:00-16:00", "ref:csioz": "1001660"}}, {"type": "node", "id": 2398108640, "lat": 50.8639412, "lon": 20.2005516}, {"type": "node", "id": 2398108642, "lat": 50.8639091, "lon": 20.2005072}, {"type": "node", "id": 2398108643, "lat": 50.863838, "lon": 20.2006425}, {"type": "node", "id": 2398108644, "lat": 50.8638635, "lon": 20.2007005}, {"type": "node", "id": 2440859004, "lat": 50.8545471, "lon": 20.5538746, "tags": {"addr:city": "Kielce", "addr:housenumber": "3", "addr:postcode": "25-818", "addr:street": "Fabryczna", "amenity": "pharmacy", "dispensing": "yes", "healthcare": "pharmacy", "name": "Apteka Bia\u0142ogon", "opening_hours": "Mo-Fr 08:00-19:00; Sa 08:00-15:00", "phone": "+48 41 346 44 55", "ref:csioz": "1001976"}}, {"type": "node", "id": 2752394932, "lat": 50.6409586, "lon": 20.3017673, "tags": {"amenity": "pharmacy"}}, {"type": "node", "id": 2753780448, "lat": 50.6398124, "lon": 20.304954, "tags": {"addr:city": "J\u0119drzej\u00f3w", "addr:housenumber": "20", "addr:postcode": "28-300", "addr:street": "Plac Tadeusza Ko\u015bciuszki", "amenity": "pharmacy", "healthcare": "pharmacy", "source:addr": "EMUiA (emuia.gugik.gov.pl)"}}, {"type": "node", "id": 2754199475, "lat": 50.6414186, "lon": 20.3013553, "tags": {"amenity": "pharmacy", "healthcare": "pharmacy"}}, {"type": "node", "id": 2756351422, "lat": 50.6425675, "lon": 20.3026901, "tags": {"amenity": "pharmacy"}}, {"type": "node", "id": 2756480965, "lat": 50.6456086, "lon": 20.2942544, "tags": {"amenity": "pharmacy"}}, {"type": "node", "id": 2756617322, "lat": 50.6473827, "lon": 20.3014315, "tags": {"amenity": "pharmacy"}}, {"type": "node", "id": 2760932105, "lat": 50.6420409, "lon": 20.286279, "tags": {"amenity": "pharmacy", "healthcare": "pharmacy"}}, {"type": "node", "id": 2760941642, "lat": 50.6416124, "lon": 20.2862092, "tags": {"amenity": "pharmacy", "healthcare": "pharmacy"}}, {"type": "node", "id": 2840548345, "lat": 50.8121847, "lon": 20.2637394}, {"type": "node", "id": 2920065779, "lat": 50.875462, "lon": 20.6064959, "tags": {"amenity": "pharmacy", "dispensing": "yes", "healthcare": "pharmacy", "name": "Gemini", "official_name": "Apteka Milenium", "opening_hours": "Mo-Fr 07:00-21:00; Sa 07:30-15:30", "ref:csioz": "1001525"}}, {"type": "node", "id": 2960223996, "lat": 50.8688189, "lon": 20.6197231}, {"type": "node", "id": 3461586667, "lat": 50.8655545, "lon": 20.6489694, "tags": {"amenity": "pharmacy", "dispensing": "yes", "healthcare": "pharmacy", "name": "Apteka Dr.Max+", "official_name": "Apteka Rodzinna", "opening_hours": "Mo-Fr 07:00-21:00; Sa 07:00-18:00", "ref:csioz": "1002909"}}, {"type": "node", "id": 3493628743, "lat": 50.8120104, "lon": 20.2634144}, {"type": "node", "id": 3575360972, "lat": 50.8638495, "lon": 20.2006835}, {"type": "node", "id": 3575361625, "lat": 50.8638564, "lon": 20.2006685}, {"type": "node", "id": 3577586424, "lat": 50.811829, "lon": 20.2635406}, {"type": "node", "id": 3577586434, "lat": 50.8118363, "lon": 20.2634206}, {"type": "node", "id": 3577587022, "lat": 50.8121737, "lon": 20.2638916}, {"type": "node", "id": 3577587333, "lat": 50.8120037, "lon": 20.2635624}, {"type": "node", "id": 3577587351, "lat": 50.8120901, "lon": 20.2637221, "tags": {"man_made": "surveillance", "surveillance:type": "camera"}}, {"type": "node", "id": 3577587353, "lat": 50.8120984, "lon": 20.2639873}, {"type": "node", "id": 3577587367, "lat": 50.812169, "lon": 20.2637366}, {"type": "node", "id": 3577587376, "lat": 50.8121985, "lon": 20.2640605}, {"type": "node", "id": 3577587439, "lat": 50.8120835, "lon": 20.2639672}, {"type": "node", "id": 3577587448, "lat": 50.8122199, "lon": 20.2639005}, {"type": "node", "id": 3578697864, "lat": 50.6382116, "lon": 20.3054628}, {"type": "node", "id": 3578697870, "lat": 50.6381316, "lon": 20.3055811}, {"type": "node", "id": 3578697885, "lat": 50.6381534, "lon": 20.3056135}, {"type": "node", "id": 3578698419, "lat": 50.6382405, "lon": 20.3056055}, {"type": "node", "id": 3585314736, "lat": 50.8629002, "lon": 20.6798812}, {"type": "node", "id": 3585314947, "lat": 50.8628097, "lon": 20.6800094}, {"type": "node", "id": 3585315354, "lat": 50.8628088, "lon": 20.6798825}, {"type": "node", "id": 3585315355, "lat": 50.8628088, "lon": 20.6798903}, {"type": "node", "id": 3585315356, "lat": 50.8628096, "lon": 20.6800533}, {"type": "node", "id": 3585960376, "lat": 50.8029833, "lon": 20.8055513}, {"type": "node", "id": 3585960441, "lat": 50.8028581, "lon": 20.8055389}, {"type": "node", "id": 3585960902, "lat": 50.8029303, "lon": 20.8056432}, {"type": "node", "id": 3586051189, "lat": 50.8506123, "lon": 20.822909}, {"type": "node", "id": 3586054087, "lat": 50.8507129, "lon": 20.82271}, {"type": "node", "id": 3589251650, "lat": 50.8482062, "lon": 20.6231739}, {"type": "node", "id": 3589271083, "lat": 50.8481619, "lon": 20.6231726}, {"type": "node", "id": 3589274667, "lat": 50.8482043, "lon": 20.6233261}, {"type": "node", "id": 3589276879, "lat": 50.8480964, "lon": 20.6231696}, {"type": "node", "id": 3589278052, "lat": 50.8480935, "lon": 20.6233496}, {"type": "node", "id": 3592112023, "lat": 50.779694, "lon": 20.6231116}, {"type": "node", "id": 3592124048, "lat": 50.7797319, "lon": 20.6229372}, {"type": "node", "id": 3592124049, "lat": 50.779774, "lon": 20.6232966}, {"type": "node", "id": 3592124517, "lat": 50.779705, "lon": 20.6231175}, {"type": "node", "id": 3592124717, "lat": 50.7797043, "lon": 20.623064}, {"type": "node", "id": 3592124719, "lat": 50.7798389, "lon": 20.6229952}, {"type": "node", "id": 3592125012, "lat": 50.7797153, "lon": 20.6230699}, {"type": "node", "id": 3592125105, "lat": 50.7796662, "lon": 20.6232386}, {"type": "node", "id": 3642681106, "lat": 50.875519, "lon": 20.6076461, "tags": {"amenity": "pharmacy", "brand": "Dr. Max", "brand:wikidata": "Q56317371", "dispensing": "yes", "healthcare": "pharmacy", "name": "Dr. Max", "opening_hours": "Mo-Fr 07:00-21:00; Sa 07:00-19:00"}}, {"type": "node", "id": 3734602425, "lat": 50.8859206, "lon": 20.6567247}, {"type": "node", "id": 3823434930, "lat": 50.8731925, "lon": 20.6388683, "tags": {"amenity": "pharmacy", "dispensing": "yes", "healthcare": "pharmacy", "name": "Ca\u0142odobowa", "official_name": "Apteka Od Pokole\u0144 - Ca\u0142odobowa", "opening_hours": "24/7", "operator": "Apteka Od Pokole\u0144", "phone": "+48 41 344 93 78", "ref:csioz": "1001501", "website": "https://kielce-apteka.pl/"}}, {"type": "node", "id": 3823434931, "lat": 50.8647578, "lon": 20.6380992, "tags": {"amenity": "pharmacy", "brand": "Dbam o Zdrowie", "brand:wikidata": "Q62563833", "dispensing": "yes", "healthcare": "pharmacy", "name": "Dbam o Zdrowie", "official_name": "Apteka Dbam O Zdrowie", "opening_hours": "Mo-Fr 08:00-20:00; Sa-Su 08:00-16:00", "operator": "Dbam o Zdrowie", "phone": "+48413442379", "ref:csioz": "1002193", "short_name": "DOZ", "website": "https://www.doz.pl/"}}, {"type": "node", "id": 3823434932, "lat": 50.868241, "lon": 20.6506746, "tags": {"amenity": "pharmacy", "brand": "Dbam o Zdrowie", "brand:wikidata": "Q62563833", "dispensing": "yes", "healthcare": "pharmacy", "name": "Dbam o Zdrowie", "official_name": "Apteka Dbam O Zdrowie", "opening_hours": "Mo-Fr 08:00-19:00, Sa 08:00-14:00", "operator": "Dbam o Zdrowie", "phone": "+48413425727", "ref:csioz": "1003096", "short_name": "DOZ", "website": "https://www.doz.pl/"}}, {"type": "node", "id": 3823434933, "lat": 50.8822957, "lon": 20.5837443, "tags": {"amenity": "pharmacy", "brand": "Dbam o Zdrowie", "brand:wikidata": "Q62563833", "dispensing": "yes", "healthcare": "pharmacy", "name": "Dbam o Zdrowie", "official_name": "Apteka Dbam O Zdrowie", "opening_hours": "Mo-Sa 09:00-21:00, Su 10:00-20:00", "operator": "Dbam o Zdrowie", "phone": "+48413699710", "ref:csioz": "1002808", "short_name": "DOZ", "website": "https://www.doz.pl/"}}, {"type": "node", "id": 3823434934, "lat": 50.8918185, "lon": 20.6474968, "tags": {"amenity": "pharmacy", "brand": "Dbam o Zdrowie", "brand:wikidata": "Q62563833", "dispensing": "yes", "name": "Dbam o Zdrowie", "official_name": "Apteka Dbam O Zdrowie", "opening_hours": "Mo-Fr 07:30-19:30, Sa 08:00-15:00", "operator": "Dbam o Zdrowie", "phone": "+48413319173", "ref:csioz": "1003025", "website": "https://www.doz.pl/"}}, {"type": "node", "id": 3823434935, "lat": 50.8751131, "lon": 20.6026575, "tags": {"addr:city": "Kielce", "addr:housenumber": "26", "addr:postcode": "25-736", "addr:street": "Grunwaldzka", "amenity": "pharmacy", "dispensing": "yes", "name": "Apteka Gemini", "opening_hours": "Mo-Su 07:00-23:00", "phone": "+48 41 347 95 59", "ref:csioz": "1184441", "website": "https://kielce-apteka.pl/"}}, {"type": "node", "id": 3823434936, "lat": 50.8634581, "lon": 20.6346387, "tags": {"amenity": "pharmacy", "dispensing": "yes", "healthcare": "pharmacy", "name": "Na \u017beromskiego", "official_name": "Apteka Od Pokole\u0144 Dr N. Farm. Marek J\u0119drzejczak", "opening_hours": "Mo-Fr 08:00-20:00, Sa 08:00-14:00", "operator": "Apteka Od Pokole\u0144", "phone": "+48413619059", "ref:csioz": "1001280", "website": "https://kielce-apteka.pl/"}}, {"type": "node", "id": 3823434937, "lat": 50.8960913, "lon": 20.6624276, "tags": {"amenity": "pharmacy", "dispensing": "yes", "healthcare": "pharmacy", "name": "Apteka \"Pasa\u017c Na Stoku\"", "official_name": "Apteka Gemini", "opening_hours": "Mo-Fr 07:00-21:00; Sa 08:00-18:00", "phone": "+48413322333", "ref:csioz": "1111955"}}, {"type": "node", "id": 3823434938, "lat": 50.8671019, "lon": 20.6419609, "tags": {"amenity": "pharmacy", "dispensing": "yes", "facebook": "https://www.facebook.com/AptekaDerlatka", "healthcare": "pharmacy", "name": "Apteka Derlatka", "opening_hours": "Mo-Fr 07:30-21:00; Sa 08:00-19:00; Su 08:00-15:00", "operator": "Apteka mgr E. Derlatka Sp\u00f3\u0142ka jawna", "phone": "+48 41 344 35 87", "ref:csioz": "1001756", "website": "http://www.aptekaderlatka.pl/"}}, {"type": "node", "id": 3823434940, "lat": 50.8688209, "lon": 20.6197164}, {"type": "node", "id": 3823437108, "lat": 50.8730663, "lon": 20.6240493, "tags": {"amenity": "pharmacy", "dispensing": "yes", "healthcare": "pharmacy", "name": "Cef@rm 36,6", "opening_hours": "Mo-Fr 08:00-19:00", "ref:csioz": "1000903"}}, {"type": "node", "id": 3823437138, "lat": 50.8745666, "lon": 20.6258801, "tags": {"amenity": "pharmacy", "dispensing": "yes", "healthcare": "pharmacy", "name": "Rondo", "opening_hours": "Mo-Su 07:00-22:00", "ref:csioz": "1001683"}}, {"type": "node", "id": 3823448970, "lat": 50.8629002, "lon": 20.6800516}, {"type": "node", "id": 3823454358, "lat": 50.9037579, "lon": 20.7272058, "tags": {"addr:housenumber": "4", "addr:postcode": "26-001", "addr:street": "Jana Paw\u0142a II", "amenity": "pharmacy", "name": "Apteka", "opening_hours": "Mo-Fr 08:00-18:30, Sa 08:00-13:00", "phone": "48413110924"}}, {"type": "node", "id": 3823545095, "lat": 50.8712222, "lon": 20.6514513, "tags": {"amenity": "pharmacy", "dispensing": "yes", "healthcare": "pharmacy", "name": "Apteka Aesculus", "opening_hours": "Mo-Fr 08:00-20:00; Sa 08:00-16:00", "operator": "Apteka Od Pokole\u0144", "phone": "48413692403", "ref:csioz": "1001828"}}, {"type": "node", "id": 3823545096, "lat": 50.8699238, "lon": 20.6507347, "tags": {"amenity": "pharmacy", "dispensing": "yes", "healthcare": "pharmacy", "name": "Na G\u00f3rce", "opening_hours": "Mo-Fr 08:00-20:00; Sa 08:00-15:30", "phone": "48413428974", "ref:csioz": "1002923"}}, {"type": "node", "id": 3825034623, "lat": 50.8128399, "lon": 20.6882551, "tags": {"addr:housenumber": "279a", "addr:place": "Suk\u00f3w", "addr:postcode": "25-507", "amenity": "pharmacy", "healthcare": "pharmacy", "name": "Apteka Centrum", "opening_hours": "Mo-Fr 08:00-20:00; Sa 08:00-14:00", "phone": "+48413417044"}}, {"type": "node", "id": 3842330156, "lat": 50.8669873, "lon": 20.6399312, "tags": {"addr:city": "Kielce", "addr:housenumber": "18A", "addr:postcode": "25-355", "addr:street": "Zag\u00f3rska", "amenity": "pharmacy", "brand": "Gemini", "brand:wikidata": "Q130243797", "dispensing": "yes", "healthcare": "pharmacy", "name": "Gemini", "opening_hours": "Mo-Fr 07:00-20:00; Sa 07:00-15:00", "ref:csioz": "1220635"}}, {"type": "node", "id": 4163928903, "lat": 50.8687744, "lon": 20.634252, "tags": {"amenity": "pharmacy", "dispensing": "yes", "healthcare": "pharmacy", "name": "Apteka Pod Zegarem", "opening_hours": "Mo-Fr 08:00-19:00; Sa 09:00-15:00", "phone": "+48 41 344 16 24", "ref:csioz": "1001889"}}, {"type": "node", "id": 4163931458, "lat": 50.8706868, "lon": 20.6361387, "tags": {"amenity": "pharmacy", "dispensing": "yes", "healthcare": "pharmacy", "name": "Apteka Remedium", "opening_hours": "Mo-Fr 07:00-20:00; Sa 08:00-15:00", "phone": "+48 41 344 35 05", "ref:csioz": "1000418"}}, {"type": "node", "id": 4214048696, "lat": 50.8856343, "lon": 20.6570831}, {"type": "node", "id": 4214152796, "lat": 50.8859618, "lon": 20.6566084}, {"type": "node", "id": 4214153002, "lat": 50.8859614, "lon": 20.6567232}, {"type": "node", "id": 4214153798, "lat": 50.8859196, "lon": 20.6570846}, {"type": "node", "id": 4214154089, "lat": 50.8856353, "lon": 20.6566067}, {"type": "node", "id": 4222634036, "lat": 50.8611599, "lon": 20.7488163}, {"type": "node", "id": 4222634547, "lat": 50.8609918, "lon": 20.7486954}, {"type": "node", "id": 4222634556, "lat": 50.8610318, "lon": 20.7485417}, {"type": "node", "id": 4222637496, "lat": 50.8609892, "lon": 20.7487055}, {"type": "node", "id": 4222637498, "lat": 50.8610209, "lon": 20.7485831}, {"type": "node", "id": 4271097194, "lat": 50.5216179, "lon": 20.5244651, "tags": {"addr:city": "Pi\u0144cz\u00f3w", "addr:housenumber": "3", "addr:postcode": "28-400", "addr:street": "3 Maja", "amenity": "pharmacy", "dispensing": "yes", "drive_through": "no", "name": "Codzienna", "opening_hours": "Mo-Su 8:00-21:00", "ref:csioz": "1002413", "wheelchair": "yes"}}, {"type": "node", "id": 4275408369, "lat": 50.8941764, "lon": 20.6453495, "tags": {"amenity": "pharmacy", "dispensing": "yes", "healthcare": "pharmacy", "name": "Apteka Uroczysko", "opening_hours": "Mo-Fr 07:30-20:00; Sa 08:00-16:00", "ref:csioz": "1182411"}}, {"type": "node", "id": 4277756053, "lat": 50.6184555, "lon": 20.7493106}, {"type": "node", "id": 4277756056, "lat": 50.6186128, "lon": 20.7493855}, {"type": "node", "id": 4277813359, "lat": 50.6185002, "lon": 20.7494658}, {"type": "node", "id": 4277813369, "lat": 50.618568, "lon": 20.7492303}, {"type": "node", "id": 4553110186, "lat": 50.8914139, "lon": 20.6483726, "tags": {"amenity": "pharmacy", "dispensing": "yes", "healthcare": "pharmacy", "name": "Apteka Derlatka", "official_name": "Apteka Mgr Derlatka", "opening_hours": "Mo-Fr 07:30-21:00; Sa 08:00-21:00; Su off", "phone": "+48 041 341 70 46", "ref:csioz": "1171765", "website": "http://www.aptekaderlatka.pl/"}}, {"type": "node", "id": 4604333329, "lat": 50.8743794, "lon": 20.622349, "tags": {"amenity": "pharmacy", "dispensing": "yes", "healthcare": "pharmacy", "name": "Plus", "official_name": "Apteka Plus", "opening_hours": "Mo-Fr 07:00-21:00; Sa 08:00-21:00; Su 10:00-21:00", "ref:csioz": "1002506"}}, {"type": "node", "id": 4840260323, "lat": 50.8824618, "lon": 20.4770807, "tags": {"amenity": "pharmacy", "name": "Apteka", "opening_hours": "24/7"}}, {"type": "node", "id": 5702272022, "lat": 50.8900005, "lon": 20.6660205, "tags": {"addr:city": "Kielce", "addr:housenumber": "67", "addr:postcode": "25-432", "addr:street": "Jana Nowaka-Jeziora\u0144skiego", "amenity": "pharmacy", "dispensing": "yes", "healthcare": "pharmacy", "name": "Nova", "opening_hours": "Mo-Fr 08:00-21:00; Sa 08:00-16:00", "ref:csioz": "1182797"}}, {"type": "node", "id": 5776833289, "lat": 50.7138248, "lon": 20.3817568, "tags": {"amenity": "pharmacy", "dispensing": "yes", "healthcare": "pharmacy", "name": "Punkt Apteczny"}}, {"type": "node", "id": 6166837586, "lat": 50.8799577, "lon": 20.6335954, "tags": {"addr:city": "Kielce", "addr:housenumber": "2", "addr:postcode": "25-520", "addr:street": "Targowa", "amenity": "pharmacy", "dispensing": "yes", "healthcare": "pharmacy", "name": "Na Targowej", "official_name": "Na Targowej", "opening_hours": "Mo-Sa 06:00-24:00; Su 07:00-23:00; PH 07:00-23:00", "ref:csioz": "1002824"}}, {"type": "node", "id": 6353364439, "lat": 50.8840247, "lon": 20.5830769, "tags": {"amenity": "pharmacy", "check_date": "2023-01-05", "dispensing": "yes", "email": "kielce2@plusapteka.pl", "healthcare": "pharmacy", "name": "Apteka Plus", "opening_hours": "Mo-Fr 07:30-21:00; Sa 08:00-18:00; Su 09:00-16:00", "payment:credit_cards": "yes", "payment:debit_cards": "yes", "phone": "+48 41 369 82 50", "ref:csioz": "1003420", "short_name": "Apteka na Kredowej", "source": "survey"}}, {"type": "node", "id": 6353448492, "lat": 50.8851573, "lon": 20.5804446, "tags": {"addr:housenumber": "5", "addr:street": "Kazimierza Kaznowskiego", "amenity": "pharmacy", "check_date": "2023-01-05", "dispensing": "yes", "healthcare": "pharmacy", "name": "Dom Zdrowia", "official_name": "Apteka Dom Zdrowia", "opening_hours": "Mo-Fr 08:00-20:00; Sa 08:00-15:00; Su off", "payment:cash": "yes", "payment:credit_cards": "yes", "payment:debit_cards": "yes", "phone": "+48 41 313 51 64", "ref:csioz": "1173661", "source": "survey"}}, {"type": "node", "id": 6375612360, "lat": 50.8710891, "lon": 20.6278304, "tags": {"addr:city": "Kielce", "addr:housenumber": "27", "addr:postcode": "25-007", "addr:street": "Henryka Sienkiewicza", "amenity": "pharmacy", "brand": "Ziko Apteka", "brand:wikidata": "Q63432892", "description": "Ziko Apteka zlokalizowana jest w Krakowie przy ulicy Henryka Sienkiewicza 27. Czynna jest przez 6 dni w tygodniu \u2013 od poniedzia\u0142ku do soboty.", "dispensing": "yes", "healthcare": "pharmacy", "name": "Ziko Apteka", "opening_hours": "Mo-Fr 08:00-20:00, Sa 09:00-16:00", "payment:cash": "yes", "payment:coins": "yes", "payment:mastercard": "yes", "payment:visa": "yes", "phone": "+48 12 687 57 47", "ref:csioz": "1219141", "short_name": "Ziko", "website": "https://www.ziko.pl/kielce-apteki-drogerie-ziko/sienkiewicza-27/"}}, {"type": "node", "id": 6499817587, "lat": 50.8694597, "lon": 20.6221236, "tags": {"addr:city": "Kielce", "addr:housenumber": "4B", "addr:postcode": "25-017", "addr:street": "Ignacego Paderewskiego", "amenity": "pharmacy", "dispensing": "yes", "healthcare": "pharmacy", "name": "Apteka Od Serca", "opening_hours": "Mo-Fr 07:30-20:00"}}, {"type": "node", "id": 6988025601, "lat": 50.8657854, "lon": 20.6412072, "tags": {"amenity": "pharmacy", "dispensing": "yes", "healthcare": "pharmacy", "name": "Niezapominajka", "official_name": "Niezapominajka Dla Ca\u0142ej Rodziny", "opening_hours": "Mo-Fr 07:30-20:00; Sa 07:30-16:00", "ref:csioz": "1215423"}}, {"type": "node", "id": 7152046702, "lat": 50.6381673, "lon": 20.3054352}, {"type": "node", "id": 7152046704, "lat": 50.6381655, "lon": 20.3054108}, {"type": "node", "id": 7152046706, "lat": 50.6381247, "lon": 20.3054256}, {"type": "node", "id": 7272748602, "lat": 50.8688438, "lon": 20.6197414}, {"type": "node", "id": 7272748606, "lat": 50.8688535, "lon": 20.6199354}, {"type": "node", "id": 7272748607, "lat": 50.8689059, "lon": 20.6199657}, {"type": "node", "id": 7272748608, "lat": 50.8689526, "lon": 20.6198602}, {"type": "node", "id": 7489850462, "lat": 50.9956752, "lon": 20.7965306, "tags": {"amenity": "pharmacy", "dispensing": "yes", "healthcare": "pharmacy"}}, {"type": "node", "id": 7603976528, "lat": 50.8694861, "lon": 20.6093431, "tags": {"amenity": "pharmacy", "dispensing": "yes", "email": "kielcesloneczna@plusapteka.pl", "name": "Apteka S\u0142oneczna", "opening_hours": "Mo-Fr 07:30-20:00; Sa 08:00-14:00", "phone": "+48 41 366 42 53", "ref:csioz": "1003457", "source": "survey", "website": "https://plusapteka.pl/apteka-kielce-sloneczna-24"}}, {"type": "node", "id": 7603995576, "lat": 50.8892579, "lon": 20.6112442, "tags": {"amenity": "pharmacy", "dispensing": "yes", "email": "1maja@plusapteka.pl", "name": "Apteka Plus", "operator": "Grupa Artmedik", "phone:mobile": "+48 572 116 182", "ref:csioz": "1224181", "website": "https://plusapteka.pl/apteka-kielce-1-maja-135"}}, {"type": "node", "id": 7804431097, "lat": 50.8872679, "lon": 20.6142315, "tags": {"addr:city": "Kielce", "addr:housenumber": "158", "addr:postcode": "25-614", "addr:street": "1 Maja", "amenity": "pharmacy", "dispensing": "yes", "drive_through": "no", "name": "Apteka Codzienna", "opening_hours": "Mo-Fr 08:00-20:00; Sa 08:00-15:00", "ref:csioz": "1198113"}}, {"type": "node", "id": 7837099379, "lat": 50.8739467, "lon": 20.6321796, "tags": {"addr:city": "Kielce", "addr:housenumber": "9/11", "addr:postcode": "25-512", "addr:street": "Warszawska", "amenity": "pharmacy", "brand": "Gemini", "brand:wikidata": "Q130243797", "dispensing": "yes", "healthcare": "pharmacy", "name": "Gemini", "opening_hours": "Mo-Fr 07:00-20:00; Sa 08:00-15:00", "phone": "+48 41 261 26 53", "ref:csioz": "1003559"}}, {"type": "node", "id": 8309194371, "lat": 50.8687333, "lon": 20.6140601, "tags": {"addr:city": "Kielce", "addr:housenumber": "20", "addr:postcode": "25-711", "addr:street": "Karcz\u00f3wkowska", "amenity": "pharmacy", "dispensing": "yes", "email": "aptekakarczowkowska@wp.pl", "healthcare": "pharmacy", "name": "Apteka mgr Derlatka", "opening_hours": "Mo-Fr 07:30-20:00; Sa 08:00-15:00", "operator": "Derlatka Sp.J.", "phone": "+48 41 368 35 79", "ref:csioz": "1003545"}}, {"type": "node", "id": 8316046250, "lat": 50.8698124, "lon": 20.6195078, "tags": {"amenity": "pharmacy", "dispensing": "yes", "healthcare": "pharmacy", "name": "Codzienna", "opening_hours": "Mo-Fr 07:30-20:00, Sa 08:00-15:00", "ref:csioz": "1002540", "website": "https://www.aptekacodzienna.pl/"}}, {"type": "node", "id": 8391151197, "lat": 50.8656513, "lon": 20.6168007, "tags": {"amenity": "pharmacy", "dispensing": "yes", "healthcare": "pharmacy", "name": "Apteka Alfa", "opening_hours": "Mo-Fr 08:00-20:00; Sa 09:00-16:00", "phone": "+48 41 313 12 80", "ref:csioz": "1111851"}}, {"type": "node", "id": 8391169143, "lat": 50.872213, "lon": 20.6188186, "tags": {"amenity": "pharmacy", "dispensing": "yes", "healthcare": "pharmacy", "name": "Apteka S\u0142oneczna", "opening_hours": "Mo-Fr 07:00-21:00; Sa 08:00-15:00", "ref:csioz": "1000439"}}, {"type": "node", "id": 8435713830, "lat": 50.8707026, "lon": 20.6299812, "tags": {"amenity": "pharmacy", "dispensing": "yes", "name": "cef@rm 36,6", "official_name": "Apteka Cef@Rm 36,6", "opening_hours": "Mo-Fr 08:00-19:00; Sa 08:00-15:00", "ref:csioz": "1000927"}}, {"type": "node", "id": 8450382714, "lat": 50.8640102, "lon": 20.6263483, "tags": {"addr:city": "Kielce", "addr:housenumber": "3", "addr:postcode": "25-029", "addr:street": "Krakowska", "amenity": "pharmacy", "dispensing": "yes", "healthcare": "pharmacy", "name": "Farm-Vit", "opening_hours": "Mo-Fr 07:30-20:00; Sa 08:00-14:00", "ref:csioz": "1001251"}}, {"type": "node", "id": 8450467580, "lat": 50.8658771, "lon": 20.6288082, "tags": {"amenity": "pharmacy", "dispensing": "yes", "healthcare": "pharmacy", "name": "Na Rogatce", "opening_hours": "Mo-Fr 07:30-22:00; Sa-Su 08:00-22:00", "ref:csioz": "1001921"}}, {"type": "node", "id": 8572603067, "lat": 50.8838282, "lon": 20.6447494, "tags": {"amenity": "pharmacy", "check_date:opening_hours": "2023-04-29", "dispensing": "yes", "name": "Na Bocianku", "official_name": "Apteka Na Bocianku - Apteki Polskie", "opening_hours": "Mo-Fr 07:30-20:00; Sa 08:00-15:00", "ref:csioz": "1003404"}}, {"type": "node", "id": 8589479822, "lat": 50.8516706, "lon": 20.6290388, "tags": {"addr:city": "Kielce", "addr:housenumber": "26", "addr:postcode": "25-150", "addr:street": "Barwinek", "amenity": "pharmacy", "dispensing": "yes", "healthcare": "pharmacy", "name": "Gemini", "official_name": "Apteka Na Barwinku", "opening_hours": "Mo-Fr 07:30-20:00; Sa 08:00-16:00", "ref:csioz": "1001238"}}, {"type": "node", "id": 8590084555, "lat": 50.8524201, "lon": 20.6301523, "tags": {"amenity": "pharmacy", "brand": "Dr. Max", "brand:wikidata": "Q56317371", "dispensing": "yes", "healthcare": "pharmacy", "name": "Dr. Max", "official_name": "Apteka Rodzinna", "opening_hours": "Mo-Fr 07:00-21:00; Sa 07:00-18:00", "ref:csioz": "1003823"}}, {"type": "node", "id": 8648663207, "lat": 50.6997083, "lon": 20.4531597}, {"type": "node", "id": 8648663208, "lat": 50.6996673, "lon": 20.4532919}, {"type": "node", "id": 8648663209, "lat": 50.6997492, "lon": 20.4533551}, {"type": "node", "id": 8648663210, "lat": 50.6997727, "lon": 20.4532791}, {"type": "node", "id": 8648663211, "lat": 50.6997904, "lon": 20.4532928}, {"type": "node", "id": 8648663212, "lat": 50.6998079, "lon": 20.4532366}, {"type": "node", "id": 8648663233, "lat": 50.6996739, "lon": 20.4532707}, {"type": "node", "id": 8648663282, "lat": 50.6997202, "lon": 20.4531689}, {"type": "node", "id": 8648663286, "lat": 50.6996907, "lon": 20.4532167}, {"type": "node", "id": 8665720282, "lat": 50.6997132, "lon": 20.4532486, "tags": {"amenity": "pharmacy", "dispensing": "yes", "healthcare": "pharmacy", "name": "Rh Plus w Rynku"}}, {"type": "node", "id": 8750853885, "lat": 50.8898432, "lon": 20.61238, "tags": {"amenity": "pharmacy", "dispensing": "yes", "name": "Prima", "official_name": "Apteka Prima", "opening_hours": "Mo-Fr 07:30-19:30; Sa 08:00-14:00", "ref:csioz": "1004376"}}, {"type": "node", "id": 8750853889, "lat": 50.8895846, "lon": 20.611448, "tags": {"amenity": "pharmacy", "dispensing": "yes", "name": "Apteka Herby", "opening_hours": "Mo-Sa 07:00-22:00; Su 10:00-18:00", "ref:csioz": "1001563"}}, {"type": "node", "id": 8758630217, "lat": 50.8864793, "lon": 20.6273417, "tags": {"amenity": "pharmacy", "check_date": "2025-03-21", "dispensing": "yes", "healthcare": "pharmacy", "name": "Plus", "official_name": "Apteka Plus", "opening_hours": "24/7", "ref:csioz": "1219598"}}, {"type": "node", "id": 8829803929, "lat": 50.8916621, "lon": 20.6379864, "tags": {"amenity": "pharmacy", "dispensing": "yes", "healthcare": "pharmacy", "name": "Nad Zalewem", "opening_hours": "Mo-Fr 08:00-20:00; Sa 08:00-15:00", "phone": "+48 41 303 51 11", "ref:csioz": "1230872"}}, {"type": "node", "id": 8837084003, "lat": 50.8687672, "lon": 20.6198403}, {"type": "node", "id": 8848682761, "lat": 50.6138717, "lon": 20.7435101, "tags": {"amenity": "pharmacy", "healthcare": "pharmacy", "name": "Centrum Zdrowia", "opening_hours": "Mo-Sa 07:30-21:00"}}, {"type": "node", "id": 8913219053, "lat": 50.7513779, "lon": 20.6177777, "tags": {"addr:city": "Morawica", "addr:housenumber": "36", "addr:postcode": "26-026", "addr:street": "Kielecka", "amenity": "pharmacy", "dispensing": "yes", "email": "aptekanadnida@wp.pl", "healthcare": "pharmacy", "name": "Nad Nid\u0105", "opening_hours": "Mo 08:00-19:00; Tu-Fr 08:00-18:00; Sa 08:00-13:00", "operator": "Podolscy Sp.J.", "phone": "+48 41 311 41 34", "ref:csioz": "1001762"}}, {"type": "node", "id": 8913219054, "lat": 50.749221, "lon": 20.6180996, "tags": {"addr:city": "Morawica", "addr:housenumber": "32", "addr:postcode": "26-026", "addr:street": "Kielecka", "amenity": "pharmacy", "dispensing": "yes", "email": "konrad.szczygielski@onet.pl", "healthcare": "pharmacy", "name": "Apteka Lek", "opening_hours": "Mo-Fr 08:00-20:00; Sa 08:00-15:00", "operator": "Apteka Lek Sp. z o.o.", "phone": "+48 41 277 16 56", "ref:csioz": "1209271"}}, {"type": "node", "id": 8913227242, "lat": 50.746935, "lon": 20.6181184, "tags": {"addr:city": "Morawica", "addr:housenumber": "1", "addr:postcode": "26-026", "addr:street": "Kielecka", "amenity": "pharmacy", "dispensing": "yes", "email": "natura.morawica1@o2.pl", "healthcare": "pharmacy", "name": "Natura", "opening_hours": "Mo-Fr 08:00-18:00; Sa 08:00-15:00", "phone": "+48 41 311 48 58", "ref:csioz": "1004601"}}, {"type": "node", "id": 8975055107, "lat": 50.8622009, "lon": 20.5841061, "tags": {"amenity": "pharmacy", "dispensing": "yes", "name": "DOZ", "official_name": "Doz Apteka. Dbam O Zdrowie \"Jantar\"", "ref:csioz": "1001549"}}, {"type": "node", "id": 9105925872, "lat": 50.875466, "lon": 20.6332938, "tags": {"addr:city": "Kielce", "addr:housenumber": "21", "addr:postcode": "25-512", "addr:street": "Warszawska", "amenity": "pharmacy", "dispensing": "yes", "healthcare": "pharmacy", "name": "Twoja Apteka", "opening_hours": "Mo-Fr 07:00-20:00; Sa 08:00-15:00", "ref:csioz": "1212778", "source": "UM Kielce"}}, {"type": "node", "id": 9203301295, "lat": 50.8731547, "lon": 20.5972566, "tags": {"addr:city": "Kielce", "addr:housenumber": "9", "addr:postcode": "25-734", "addr:street": "Prezydenta Stefana Artwi\u0144skiego", "amenity": "pharmacy", "dispensing": "yes", "healthcare": "pharmacy", "name": "Zdrowie", "opening_hours": "Mo-Fr 08:00-18:00; Sa 08:00-14:00", "ref:csioz": "1003281"}}, {"type": "node", "id": 9491485623, "lat": 50.8762559, "lon": 20.6371057, "tags": {"amenity": "pharmacy", "brand": "Super-Pharm", "brand:en": "Super-Pharm", "brand:he": "\u05e1\u05d5\u05e4\u05e8-\u05e4\u05d0\u05e8\u05dd", "brand:wikidata": "Q13220217", "brand:wikipedia": "en:Super-Pharm", "dispensing": "yes", "healthcare": "pharmacy", "name": "Super-Pharm", "name:ar": "\u0633\u0648\u0628\u064a\u0631 \u0641\u0627\u0631\u0645", "name:en": "Super-Pharm", "name:he": "\u05e1\u05d5\u05e4\u05e8-\u05e4\u05d0\u05e8\u05dd", "name:ru": "\u0421\u0443\u043f\u0435\u0440-\u0424\u0430\u0440\u043c", "ref:csioz": "1004250"}}, {"type": "node", "id": 9508917635, "lat": 50.8482037, "lon": 20.6233542}, {"type": "node", "id": 9508972153, "lat": 50.8479578, "lon": 20.6334098, "tags": {"amenity": "pharmacy", "dispensing": "yes", "healthcare": "pharmacy", "mobile": "+48 727 011 011", "name": "Codzienna", "opening_hours": "Mo-Fr 07:30-20:00; Sa 08:00-15:00", "ref:csioz": "1003160"}}, {"type": "node", "id": 9510868541, "lat": 50.8806067, "lon": 20.6348482, "tags": {"amenity": "pharmacy", "dispensing": "yes", "healthcare": "pharmacy", "mobile": "+48 797 313 113", "name": "Osobista", "official_name": "Apteka Nowa Farmacja Na Pocieszka", "opening_hours": "Mo-Fr 07:30-20:00; Sa 07:30-15:30", "ref:csioz": "1182900"}}, {"type": "node", "id": 9516961074, "lat": 50.882175, "lon": 20.6381775, "tags": {"amenity": "pharmacy", "dispensing": "yes", "name": "Codzienna", "opening_hours": "Mo-Fr 07:30-20:00; Sa 08:00-15:00", "ref:csioz": "1002437"}}, {"type": "node", "id": 9561424526, "lat": 50.8612027, "lon": 20.7486527}, {"type": "node", "id": 9561424528, "lat": 50.801718, "lon": 20.4635654, "tags": {"addr:city": "Ch\u0119ciny", "addr:housenumber": "3", "addr:postcode": "26-060", "addr:street": "Plac Stefana \u017beromskiego", "amenity": "pharmacy", "contact:mobile": "+48 606 309 889", "email": "apteka.ndr@gmail.com", "healthcare": "pharmacy", "name": "Na Dolnym Rynku", "opening_hours": "Mo-Fr 08:00-19:00; Sa 08:00-14:00", "ref:csioz": "1174941"}}, {"type": "node", "id": 9561424530, "lat": 50.8889909, "lon": 20.7812112, "tags": {"addr:city": "M\u0105chocice Kapitulne", "addr:housenumber": "11", "addr:postcode": "26-001", "addr:street": "Szkolna", "amenity": "pharmacy", "healthcare": "pharmacy", "name": "Dla Ciebie", "ref:csioz": "1191073"}}, {"type": "node", "id": 9561424532, "lat": 50.7607908, "lon": 20.5947887, "tags": {"addr:city": "Brzeziny", "addr:housenumber": "176 A", "addr:postcode": "26-026", "addr:street": "Ch\u0119ci\u0144ska", "amenity": "pharmacy", "name": "Apteka", "ref:csioz": "1184410"}}, {"type": "node", "id": 9561424534, "lat": 50.7535546, "lon": 20.4748467, "tags": {"addr:city": "Wolica", "addr:housenumber": "37", "addr:postcode": "26-060", "addr:street": "Szkolna", "amenity": "pharmacy", "name": "Apteka Wolica", "ref:csioz": "1111964"}}, {"type": "node", "id": 9561424535, "lat": 50.6150036, "lon": 20.752427, "tags": {"addr:city": "Chmielnik", "addr:city:simc": "0946906", "addr:housenumber": "1", "addr:postcode": "26-020", "addr:street": "Szyd\u0142owska", "amenity": "pharmacy", "healthcare": "pharmacy", "name": "Apteka Z Sercem", "ref:csioz": "1003521"}}, {"type": "node", "id": 9561424538, "lat": 50.8029111, "lon": 20.805447}, {"type": "node", "id": 9561424540, "lat": 50.6190975, "lon": 20.748551, "tags": {"amenity": "pharmacy", "healthcare": "pharmacy", "name": "Apteka z Sercem", "ref:csioz": "1002374"}}, {"type": "node", "id": 9561424541, "lat": 50.8809631, "lon": 20.4887008, "tags": {"addr:city": "Piekosz\u00f3w", "addr:housenumber": "79a", "addr:postcode": "26-065", "addr:street": "Czarnowska", "amenity": "pharmacy", "email": "piekoszow@plusapteka.pl", "healthcare": "pharmacy", "name": "Apteka Plus", "opening_hours": "Mo-Fr 08:00-16:00; Sa 09:00-12:00", "phone": "+48 41 306 31 10", "ref:csioz": "1001959"}}, {"type": "node", "id": 9561424544, "lat": 50.8009521, "lon": 20.4687341, "tags": {"addr:city": "Ch\u0119ciny", "addr:housenumber": "18", "addr:postcode": "26-060", "addr:street": "Kielecka", "amenity": "pharmacy", "email": "faktury.mandarynkacheciny@wp.pl", "healthcare": "pharmacy", "name": "Mandarynka", "opening_hours": "Mo-Fr 07:30-19:00; Sa 08:00-15:00", "operator": "Apollo-Med Sp. z o.o.", "phone": "+48 41 343 77 45", "ref:csioz": "1184883"}}, {"type": "node", "id": 9561424554, "lat": 50.7797334, "lon": 20.6230127, "tags": {"addr:city": "Bilcza", "addr:housenumber": "7B", "addr:postcode": "26-026", "addr:street": "Ksi\u0119dza \u015aciegiennego", "amenity": "pharmacy", "name": "Apteka Rodzinna W Bilczy", "ref:csioz": "1002445"}}, {"type": "node", "id": 9561424555, "lat": 50.8827885, "lon": 20.4630322, "tags": {"addr:city": "Piekosz\u00f3w", "addr:housenumber": "75", "addr:postcode": "26-065", "addr:street": "Cz\u0119stochowska", "amenity": "pharmacy", "email": "aptekavita@op.pl", "healthcare": "pharmacy", "name": "Vita", "opening_hours": "Mo-Fr 08:00-18:00", "phone": "+48 41 306 10 07", "ref:csioz": "1002261"}}, {"type": "node", "id": 9561424556, "lat": 50.6155707, "lon": 20.7503137, "tags": {"addr:city": "Chmielnik", "addr:city:simc": "0946906", "addr:housenumber": "5", "addr:postcode": "26-020", "addr:street": "1 Maja", "amenity": "pharmacy", "healthcare": "pharmacy", "name": "Apteka Codzienna", "ref:csioz": "1001743"}}, {"type": "node", "id": 9658197406, "lat": 50.8536859, "lon": 20.5632838, "tags": {"addr:city": "Kielce", "addr:housenumber": "293", "addr:postcode": "25-801", "addr:street": "Krakowska", "amenity": "pharmacy", "dispensing": "yes", "healthcare": "pharmacy", "name": "Na Krakowskiej", "opening_hours": "Mo-Sa 07:30-22:00", "phone": "+48 41 345 89 97", "ref:csioz": "1002650"}}, {"type": "node", "id": 9658197407, "lat": 50.894725, "lon": 20.662286, "tags": {"addr:city": "Kielce", "addr:housenumber": "72K", "addr:postcode": "25-437", "addr:street": "Orl\u0105t Lwowskich", "amenity": "pharmacy", "dispensing": "yes", "healthcare": "pharmacy", "name": "Twoja Apteka", "ref:csioz": "1002220"}}, {"type": "node", "id": 9658197409, "lat": 50.8718094, "lon": 20.6046627, "tags": {"amenity": "pharmacy", "dispensing": "yes", "healthcare": "pharmacy", "name": "Apteka Cef@Rm 36,6", "ref:csioz": "1000532"}}, {"type": "node", "id": 9658416850, "lat": 50.8723804, "lon": 20.6436289, "tags": {"addr:city": "Kielce", "addr:housenumber": "3", "addr:postcode": "25-322", "addr:street": "Romualda", "amenity": "pharmacy", "dispensing": "yes", "healthcare": "pharmacy", "name": "Apteka \"Codzienna\"", "opening_hours": "Mo-Fr 07:30-20:00; Sa 08:00-15:00", "ref:csioz": "1003473"}}, {"type": "node", "id": 9658416851, "lat": 50.8898616, "lon": 20.6479618, "tags": {"addr:city": "Kielce", "addr:housenumber": "154", "addr:postcode": "25-414", "addr:street": "Warszawska", "amenity": "pharmacy", "dispensing": "yes", "healthcare": "pharmacy", "name": "Farmacja", "opening_hours": "Mo-Fr 08:00-21:00; Sa 08:00-15:00", "phone": "+48 41 362 32 86", "ref:csioz": "1001558"}}, {"type": "node", "id": 9658416852, "lat": 50.8831273, "lon": 20.5941039, "tags": {"addr:housenumber": "7", "addr:street": "Jerzego Bogumi\u0142a Puscha", "amenity": "pharmacy", "check_date": "2024-08-06", "dispensing": "yes", "name": "Pod Wag\u0105", "opening_hours": "Mo-Fr 09:00-18:00", "phone": "+48 41 368 82 76", "ref:csioz": "1000133"}}, {"type": "node", "id": 9658416854, "lat": 50.8687031, "lon": 20.6018961, "tags": {"amenity": "pharmacy", "dispensing": "yes", "healthcare": "pharmacy", "name": "Twoja Apteka", "opening_hours": "Mo-Fr 07:30-19:00; Sa 08:00-14:00", "ref:csioz": "1176346"}}, {"type": "node", "id": 9658416855, "lat": 50.8720261, "lon": 20.6022189, "tags": {"addr:city": "Kielce", "addr:housenumber": "6", "addr:postcode": "25-734", "addr:street": "Prezydenta Stefana Artwi\u0144skiego", "amenity": "pharmacy", "dispensing": "yes", "healthcare": "pharmacy", "name": "Gemini", "opening_hours": "Mo-Fr 07:00-20:00"}}, {"type": "node", "id": 9658416856, "lat": 50.8597714, "lon": 20.6351421, "tags": {"amenity": "pharmacy", "dispensing": "yes", "healthcare": "pharmacy", "name": "Apteka Plus", "opening_hours": "Mo-Fr 07:00-20:00; Sa 08:00-15:00", "ref:csioz": "1111838"}}, {"type": "node", "id": 9658416857, "lat": 50.8794824, "lon": 20.6476914, "tags": {"amenity": "pharmacy", "brand": "Super-Pharm", "brand:en": "Super-Pharm", "brand:he": "\u05e1\u05d5\u05e4\u05e8-\u05e4\u05d0\u05e8\u05dd", "brand:wikidata": "Q13220217", "dispensing": "yes", "healthcare": "pharmacy", "level": "-1", "name": "Super-Pharm", "name:ar": "\u0633\u0648\u0628\u064a\u0631 \u0641\u0627\u0631\u0645", "name:en": "Super-Pharm", "name:he": "\u05e1\u05d5\u05e4\u05e8-\u05e4\u05d0\u05e8\u05dd", "name:ru": "\u0421\u0443\u043f\u0435\u0440-\u0424\u0430\u0440\u043c", "official_name": "Super-Pharm Apteka", "opening_hours": "Mo-Sa 09:00-21:00", "ref:csioz": "1004010"}}, {"type": "node", "id": 9658416858, "lat": 50.8906948, "lon": 20.6696649, "tags": {"amenity": "pharmacy", "dispensing": "yes", "healthcare": "pharmacy", "name": "Mandarynka", "opening_hours": "Mo-Fr 07:00-19:00; Sa 08:00-15:00", "ref:csioz": "1003628", "wheelchair": "yes"}}, {"type": "node", "id": 9658686632, "lat": 50.8966054, "lon": 20.6739228, "tags": {"amenity": "pharmacy", "dispensing": "yes", "healthcare": "pharmacy", "name": "Apteka Vanilia", "opening_hours": "Mo-Fr 08:00-19:00; Sa 08:00-14:00", "ref:csioz": "1186248"}}, {"type": "node", "id": 9658686633, "lat": 50.8790665, "lon": 20.5877007, "tags": {"addr:housenumber": "12", "addr:street": "Kr\u00f3la Kazimierza Wielkiego", "amenity": "pharmacy", "check_date": "2023-01-05", "dispensing": "yes", "email": "apteka_zapiecek@wp.pl", "name": "Malinka", "opening_hours": "Mo-Fr 07:30-20:00; Sa 08:00-15:00; Su off", "phone": "+48 41 368 06 84", "ref:csioz": "1171804"}}, {"type": "node", "id": 9658686635, "lat": 50.8782482, "lon": 20.60951, "tags": {"addr:housenumber": "14A", "addr:street": "Lecha", "amenity": "pharmacy", "check_date": "2023-01-05", "dispensing": "yes", "email": "kielce-lecha@apteka-sloneczna.com", "name": "Apteka Prima", "opening_hours": "Mo-Fr 07:00-21:00; Sa 08:00-15:00; Su off", "payment:mastercard": "yes", "payment:visa": "yes", "phone": "+48 41 345 07 02", "ref:csioz": "1004359"}}, {"type": "node", "id": 9658686637, "lat": 50.8622343, "lon": 20.5930871, "tags": {"addr:city": "Kielce", "addr:housenumber": "117A", "addr:postcode": "25-714", "addr:street": "Podklasztorna", "amenity": "pharmacy", "dispensing": "yes", "healthcare": "pharmacy", "name": "Zdrowie", "ref:csioz": "1003297"}}, {"type": "node", "id": 9658686638, "lat": 50.8865873, "lon": 20.6560685, "tags": {"addr:city": "Kielce", "addr:housenumber": "51c", "addr:postcode": "25-435", "addr:street": "Elizy Orzeszkowej", "amenity": "pharmacy", "dispensing": "yes", "healthcare": "pharmacy", "name": "Apteka Na Wzg\u00f3rzu", "official_name": "Apteka Codzienna", "opening_hours": "Mo-Fr 07:30-20:00; Sa 08:00-15:00", "ref:csioz": "1002349"}}, {"type": "node", "id": 9658734048, "lat": 50.8602978, "lon": 20.5902361, "tags": {"amenity": "pharmacy", "dispensing": "yes", "name": "Apteka Cef@Rm 36,6", "opening_hours": "Mo-Fr 07:30-19:00; Sa 08:00-14:00", "ref:csioz": "1003322"}}, {"type": "node", "id": 9658734049, "lat": 50.887288, "lon": 20.6674923, "tags": {"amenity": "pharmacy", "dispensing": "yes", "healthcare": "pharmacy", "name": "Dr Zdrowie", "opening_hours": "Mo-Su 09:00-21:00", "ref:csioz": "1216450"}}, {"type": "node", "id": 9677556684, "lat": 50.8004514, "lon": 20.4616951, "tags": {"addr:city": "Ch\u0119ciny", "addr:housenumber": "2", "addr:postcode": "26-060", "addr:street": "Ma\u0142ogoska", "amenity": "pharmacy", "contact:mobile": "+48 793 313 035", "healthcare": "pharmacy", "name": "Apteka Codzienna", "opening_hours": "Mo-Fr 08:00-18:00; Sa 08:00-14:00", "operator": "Apteka Kaweccy Sp.J.", "phone": "+48 41 315 12 14", "ref:csioz": "1000258"}}, {"type": "node", "id": 9683981901, "lat": 50.5186819, "lon": 20.528312, "tags": {"addr:city": "Pi\u0144cz\u00f3w", "addr:housenumber": "14", "addr:postcode": "28-400", "addr:street": "Klasztorna", "amenity": "pharmacy", "dispensing": "yes", "email": "apteka.magnolia@o2.pl", "healthcare": "pharmacy", "name": "Magnolia", "opening_hours": "Mo-Sa 07:30-21:00", "phone": "+48 41 357 43 40", "ref:csioz": "1003978"}}, {"type": "node", "id": 9741782779, "lat": 50.4953949, "lon": 20.4641915, "tags": {"addr:housenumber": "286", "addr:place": "Micha\u0142\u00f3w", "addr:postcode": "28-400", "amenity": "pharmacy", "dispensing": "yes", "healthcare": "pharmacy", "name": "Punkt Apteczny Pod Anio\u0142ami", "ref:csioz": "1231134"}}, {"type": "node", "id": 9741786828, "lat": 50.5197732, "lon": 20.525951, "tags": {"addr:city": "Pi\u0144cz\u00f3w", "addr:housenumber": "3", "addr:street": "Plac Wolno\u015bci", "amenity": "pharmacy", "dispensing": "yes", "name": "Na Rynku", "opening_hours": "Mo-Fr 08:00-18:00; Sa 08:00-15:00", "ref:csioz": "1214784"}}, {"type": "node", "id": 9741786830, "lat": 50.5148761, "lon": 20.5408019, "tags": {"addr:city": "Pi\u0144cz\u00f3w", "addr:housenumber": "8", "addr:street": "Siedem \u0179r\u00f3de\u0142", "amenity": "pharmacy", "dispensing": "yes", "fixme": "Lokalizacja do weryfikacji", "name": "Na Grodzisku", "ref:csioz": "1118267"}}, {"type": "node", "id": 9741786831, "lat": 50.606926, "lon": 20.5732418, "tags": {"addr:city": "Kije", "addr:housenumber": "14", "addr:street": "Szkolna", "amenity": "pharmacy", "dispensing": "yes", "name": "Punkt Apteczny Kije", "ref:csioz": "1117080"}}, {"type": "node", "id": 9741786832, "lat": 50.5208004, "lon": 20.5265656, "tags": {"addr:city": "Pi\u0144cz\u00f3w", "addr:housenumber": "25", "addr:street": "Plac Wolno\u015bci", "amenity": "pharmacy", "dispensing": "yes", "ref:csioz": "1002579"}}, {"type": "node", "id": 9741786833, "lat": 50.5212896, "lon": 20.5234299, "tags": {"addr:city": "Pi\u0144cz\u00f3w", "addr:housenumber": "2", "addr:street": "Adolfa Dygasi\u0144skiego", "amenity": "pharmacy", "dispensing": "yes", "ref:csioz": "1000274"}}, {"type": "node", "id": 10011704373, "lat": 50.8688685, "lon": 20.6199441}, {"type": "node", "id": 10207066682, "lat": 50.80295, "lon": 20.8055032}, {"type": "node", "id": 10593843419, "lat": 50.6381403, "lon": 20.3054135}, {"type": "node", "id": 10593843420, "lat": 50.6381405, "lon": 20.3054243}, {"type": "node", "id": 10593843421, "lat": 50.6382096, "lon": 20.3054296}, {"type": "node", "id": 10593843422, "lat": 50.638235, "lon": 20.3054597}, {"type": "node", "id": 10797775735, "lat": 50.8241384, "lon": 20.5276142, "tags": {"amenity": "pharmacy", "name": "+", "opening_hours": "Mo-Fr 07:30-20:00; Sa 08:00-16:00; Su 09:00-16:00"}}, {"type": "node", "id": 11114766074, "lat": 50.6475543, "lon": 20.285095, "tags": {"amenity": "pharmacy", "healthcare": "pharmacy", "name": "Apteka Gemini"}}, {"type": "node", "id": 11191587671, "lat": 50.8120896, "lon": 20.2637405}, {"type": "node", "id": 11191587672, "lat": 50.8120906, "lon": 20.2639768, "tags": {"entrance": "main"}}, {"type": "node", "id": 11198285768, "lat": 50.8118356, "lon": 20.2634325}, {"type": "node", "id": 11198285771, "lat": 50.8118312, "lon": 20.2635048}, {"type": "node", "id": 11631463938, "lat": 50.9312924, "lon": 20.5671429, "tags": {"amenity": "pharmacy", "healthcare": "pharmacy"}}, {"type": "node", "id": 12003293924, "lat": 50.8506995, "lon": 20.8229235}, {"type": "node", "id": 12003293925, "lat": 50.8505976, "lon": 20.8226879}, {"type": "node", "id": 12003293926, "lat": 50.8505842, "lon": 20.8228479}, {"type": "node", "id": 12003293927, "lat": 50.8506146, "lon": 20.8228564}, {"type": "node", "id": 12052675569, "lat": 50.5913071, "lon": 21.0015697, "tags": {"amenity": "pharmacy", "opening_hours": "Mo-Fr 08:00-18:00; Sa 08:00-13:00"}}, {"type": "node", "id": 12230059492, "lat": 50.6440513, "lon": 20.3030301, "tags": {"amenity": "pharmacy", "healthcare": "pharmacy"}}, {"type": "node", "id": 12450757363, "lat": 50.8832077, "lon": 20.4626751, "tags": {"amenity": "pharmacy", "healthcare": "pharmacy", "opening_hours": "Mo-Fr 08:00-18:00"}}, {"type": "way", "id": 231418702, "nodes": [2398108640, 2398108642, 2398108643, 3575361625, 3575360972, 2398108644, 2398108640], "tags": {"amenity": "pharmacy", "building": "yes"}}, {"type": "way", "id": 270367496, "nodes": [10593843422, 3578697864, 10593843421, 7152046702, 7152046704, 10593843419, 10593843420, 7152046706, 3578697870, 3578697885, 3578698419, 10593843422], "tags": {"addr:city": "J\u0119drzej\u00f3w", "addr:housenumber": "8a", "addr:postcode": "28-300", "addr:street": "Bartosza G\u0142owackiego", "amenity": "pharmacy", "building": "yes", "dispensing": "yes", "healthcare": "pharmacy", "source:addr": "EMUiA (emuia.gugik.gov.pl)"}}, {"type": "way", "id": 324047375, "nodes": [3734602425, 4214153002, 4214152796, 4214154089, 4214048696, 4214153798, 3734602425], "tags": {"addr:city": "Kielce", "addr:housenumber": "52", "addr:postcode": "25-435", "addr:street": "Elizy Orzeszkowej", "amenity": "pharmacy", "building": "yes", "dispensing": "yes", "healthcare": "pharmacy", "name": "Apteka Dr. Max", "opening_hours": "Mo-Fr 07:00-21:00; Sa 08:00-18:00", "phone": "48413327235", "ref:csioz": "1003105", "source": "UM Kielce"}}, {"type": "way", "id": 351961387, "nodes": [3493628743, 3577586434, 11198285768, 11198285771, 3577586424, 3577587333, 3493628743], "tags": {"addr:city": "Ma\u0142ogoszcz", "addr:city:simc": "0249343", "addr:housenumber": "1", "addr:postcode": "28-366", "addr:street": "Kapitana Stanis\u0142awa Jaszowskiego", "addr:street:sym_ul": "07370", "amenity": "pharmacy", "building": "yes", "healthcare": "pharmacy", "name": "Zdrowie", "source:addr": "emuia.gugik.gov.pl"}}, {"type": "way", "id": 351963026, "nodes": [2840548345, 3577587367, 3577587351, 11191587671, 3577587439, 11191587672, 3577587353, 3577587376, 3577587448, 3577587022, 2840548345], "tags": {"addr:city": "Ma\u0142ogoszcz", "addr:housenumber": "2", "addr:postcode": "28-366", "addr:street": "Kapitana Stanis\u0142awa Jaszowskiego", "amenity": "pharmacy", "building": "yes", "contact:mobile": "+48 728 774 685", "email": "jaszowskiego.malogoszcz@apteka-niezapominajka.pl", "healthcare": "pharmacy", "name": "Niezapominajka Dla Ca\u0142ej Rodziny", "opening_hours": "Mo-Fr 08:00-18:00; Sa 08:00-14:00", "operator": "GRUPER Sp.z o.o. Sp.k.", "ref:csioz": "1190991"}}, {"type": "way", "id": 352762431, "nodes": [3823448970, 3585314736, 3585315354, 3585315355, 3585314947, 3585315356, 3823448970], "tags": {"addr:city": "Kielce", "addr:housenumber": "326", "addr:postcode": "25-330", "addr:street": "Sandomierska", "amenity": "pharmacy", "building": "yes", "dispensing": "yes", "healthcare": "pharmacy", "name": "Apteka \"Na Folwarku\"", "opening_hours": "Mo-Fr 08:00-20:00; Sa 08:00-15:00; Su 09:00-14:00", "ref:csioz": "1214792"}}, {"type": "way", "id": 352830038, "nodes": [3585960376, 10207066682, 9561424538, 3585960441, 3585960902, 3585960376], "tags": {"addr:city": "Daleszyce", "addr:city:simc": "0236429", "addr:housenumber": "24", "addr:postcode": "26-021", "addr:street": "Adama Mickiewicza", "amenity": "pharmacy", "building": "yes", "healthcare": "pharmacy", "name": "Apteka Z Sercem", "ref:csioz": "1002777", "source:addr": "EMUiA (daleszyce.e-mapa.net)"}}, {"type": "way", "id": 353161995, "nodes": [3589251650, 3589271083, 3589276879, 3589278052, 9508917635, 3589274667, 3589251650], "tags": {"addr:city": "Kielce", "addr:housenumber": "66;66 A", "addr:postcode": "25-115;25-380", "addr:street": "Ksi\u0119dza Piotra \u015aciegiennego", "amenity": "pharmacy", "building": "yes", "dispensing": "yes", "healthcare": "pharmacy", "name": "Rodzinna", "official_name": "Twoja Apteka", "opening_hours": "Mo-Fr 07:30-21:00; Sa 08:00-15:00", "ref:csioz": "1195863", "source": "UM Kielce"}}, {"type": "way", "id": 353437274, "nodes": [3592124719, 3592124048, 3592124717, 3592125012, 3592124517, 3592112023, 3592125105, 3592124049, 3592124719], "tags": {"amenity": "pharmacy", "building": "yes", "healthcare": "pharmacy"}}, {"type": "way", "id": 422517565, "nodes": [9561424526, 4222634556, 4222637498, 4222634547, 4222637496, 4222634036, 9561424526], "tags": {"addr:city:simc": "0239221", "addr:housenumber": "56A", "addr:place": "Radlin", "addr:postcode": "26-008", "amenity": "pharmacy", "building": "yes", "email": "punktapteczka@interia.pl", "healthcare": "pharmacy", "name": "Apteczka", "opening_hours": "Mo-Fr 08:00-20:00", "operator": "Apteka \"NA G\u00d3RCE\" IWA\u0143SKA Sp.J.", "phone": "+48 41 302 10 47", "ref:csioz": "1176258", "source:addr": "gorno.e-mapa.net"}}, {"type": "way", "id": 428698600, "nodes": [4277756056, 4277813369, 4277756053, 4277813359, 4277756056], "tags": {"addr:city": "Chmielnik", "addr:city:simc": "0946906", "addr:housenumber": "14A", "addr:postcode": "26-020", "addr:street": "Kielecka", "amenity": "pharmacy", "building": "yes", "healthcare": "pharmacy", "name": "Apteka Mm", "ref:csioz": "1003152", "source:addr": "gugik.gov.pl"}}, {"type": "way", "id": 778938766, "nodes": [7272748602, 3823434940, 2960223996, 8837084003, 7272748606, 10011704373, 7272748607, 7272748608, 7272748602], "tags": {"addr:city": "Kielce", "addr:housenumber": "1F", "addr:postcode": "25-018", "addr:street": "\u017bytnia", "amenity": "pharmacy", "building": "commercial", "building:levels": "1", "dispensing": "yes", "healthcare": "pharmacy", "name": "Apteka Codzienna", "name:pl": "Apteka Codzienna", "opening_hours": "Mo-Su 08:00-21:00", "phone": "413683033", "ref:csioz": "1214661", "source": "Geoportal 2: Orthophotomap (aerial image)", "source:addr": "UM Kielce", "website": "https://www.aptekacodzienna.pl/"}}, {"type": "way", "id": 933019844, "nodes": [8648663207, 8648663286, 8648663233, 8648663208, 8648663209, 8648663210, 8648663211, 8648663212, 8648663282, 8648663207], "tags": {"amenity": "pharmacy", "building": "yes", "dispensing": "yes", "healthcare": "pharmacy"}}, {"type": "way", "id": 1295353288, "nodes": [3586054087, 12003293925, 12003293926, 12003293927, 3586051189, 12003293924, 3586054087], "tags": {"addr:city": "G\u00f3rno", "addr:city:simc": "0238871", "addr:housenumber": "10", "addr:postcode": "26-008", "addr:street": "Szkolna", "amenity": "pharmacy", "building": "yes", "email": "gorno80@vp.pl", "healthcare": "pharmacy", "name": "Apteka z Sercem", "opening_hours": "Mo-Fr 08:00-18:00; Sa 08:00-14:00", "operator": "B\u0104KOWSKA-GOCA\u0141 Sp.J.", "phone": "+48 41 302 34 24", "ref:csioz": "1184399", "source:addr": "gugik.gov.pl"}}]}