{"version": 0.6, "generator": "Overpass API 0.7.62.8 e802775f", "osm3s": {"timestamp_osm_base": "2025-10-06T08:38:18Z", "copyright": "The data included in this document is from www.openstreetmap.org. The data is made available under ODbL."}, "elements": [{"type": "node", "id": 4009518631, "lat": 38.3774465, "lon": 26.8884497, "tags": {"addr:city": "G\u00fczelbah\u00e7e", "addr:postcode": "35310", "addr:street": "Mithatpa\u015fa Caddesi", "amenity": "pharmacy", "check_date": "2025-09-21", "healthcare": "pharmacy", "name": "Ay\u015fe \u00c7i\u011fdem Eczanesi"}}, {"type": "node", "id": 5265445229, "lat": 38.36808, "lon": 26.837351, "tags": {"amenity": "pharmacy", "healthcare": "pharmacy"}}, {"type": "node", "id": 5265453921, "lat": 38.3679693, "lon": 26.8367933, "tags": {"amenity": "pharmacy", "healthcare": "pharmacy", "name": "Zeytinalan\u0131 Eczanesi"}}, {"type": "node", "id": 7864826685, "lat": 38.3589339, "lon": 26.8870721, "tags": {"amenity": "pharmacy", "healthcare": "pharmacy", "name": "\u00d6z\u00f6zkan eczanesi"}}, {"type": "node", "id": 8787318581, "lat": 38.336844, "lon": 26.6419222, "tags": {"amenity": "pharmacy", "dispensing": "yes", "drive_through": "no", "healthcare": "pharmacy", "name": "G\u00fclbah\u00e7e Eczanesi", "phone": "+90 232 765 8318"}}, {"type": "node", "id": 11096936583, "lat": 38.6683447, "lon": 26.7543808, "tags": {"addr:postcode": "35680", "amenity": "pharmacy", "check_date": "2024-06-23", "healthcare": "pharmacy", "name": "Beg\u00fcm Eczanesi", "phone": "+90 232 812 6035"}}, {"type": "node", "id": 11387234670, "lat": 38.635992, "lon": 26.5103236, "tags": {"amenity": "pharmacy", "healthcare": "pharmacy", "name": "Yeni Karaburun Eczanesi", "phone": "+90 232 731 2403"}}, {"type": "node", "id": 11387234672, "lat": 38.3215198, "lon": 26.4006649, "tags": {"amenity": "pharmacy", "name": "\u015eifne Eczanesi", "phone": "+90 232 717 0055"}}, {"type": "node", "id": 11387239070, "lat": 38.5178362, "lon": 26.6254002, "tags": {"amenity": "pharmacy", "name": "Mordo\u011fan Ege Eczanesi", "phone": "+90 232 737 5520"}}, {"type": "node", "id": 11387239072, "lat": 38.3079295, "lon": 26.3613387, "tags": {"amenity": "pharmacy", "name": "\u00c7e\u015fme Il\u0131ca Eczanesi", "phone": "+90 232 723 0011"}}, {"type": "node", "id": 11387239073, "lat": 38.3148389, "lon": 26.4166996, "tags": {"amenity": "pharmacy", "name": "Reisdere Eczanesi", "phone": "+90 232 717 1040"}}, {"type": "node", "id": 11387241769, "lat": 38.6349618, "lon": 26.5228213, "tags": {"amenity": "pharmacy", "name": "Saadet Eczanesi", "phone": "+90 232 731 3397"}}, {"type": "node", "id": 11387241770, "lat": 38.5113057, "lon": 26.6170473, "tags": {"amenity": "pharmacy", "name": "Yar\u0131mada Ig\u0131n Eczanesi", "phone": "+90 232 737 8383"}}, {"type": "node", "id": 11387241775, "lat": 38.3057914, "lon": 26.3643858, "tags": {"amenity": "pharmacy", "name": "Ceylan Eczanesi", "phone": "+90 232 723 5311"}}, {"type": "node", "id": 11387241776, "lat": 38.3048113, "lon": 26.3646583, "tags": {"amenity": "pharmacy", "name": "Canan Eczanesi", "phone": "+90 232 723 1481"}}, {"type": "node", "id": 11387241777, "lat": 38.2883871, "lon": 26.3758857, "tags": {"amenity": "pharmacy", "name": "R\u00fczgar Eczanesi", "phone": "+90 232 716 0828"}}, {"type": "node", "id": 11387241778, "lat": 38.2884545, "lon": 26.3762053, "tags": {"amenity": "pharmacy", "name": "Karabina Eczanesi", "phone": "+90 232 716 7494"}}, {"type": "node", "id": 11387241779, "lat": 38.2791829, "lon": 26.742115, "tags": {"amenity": "pharmacy", "name": "Ku\u015f\u00e7ular Eczanesi", "phone": "+90 532 470 4288"}}, {"type": "node", "id": 11387241869, "lat": 38.4246627, "lon": 26.5839892, "tags": {"amenity": "pharmacy", "name": "Aras Eczanesi", "phone": "+90 232 775 5505"}}, {"type": "node", "id": 11387241972, "lat": 38.2836511, "lon": 26.374811, "tags": {"amenity": "pharmacy", "healthcare": "pharmacy", "name": "\u0130smet Sar\u0131 Eczanesi", "phone": "+90 232 716 8281"}}, {"type": "node", "id": 11387241973, "lat": 38.2834262, "lon": 26.375139, "tags": {"amenity": "pharmacy", "healthcare": "pharmacy", "name": "Ala\u00e7at\u0131 Eczanesi", "phone": "+90 232 716 7778"}}, {"type": "node", "id": 11387241974, "lat": 38.3260852, "lon": 26.4103006, "tags": {"amenity": "pharmacy", "name": "Efecan Eczanesi", "phone": "+90 232 717 1902"}}, {"type": "node", "id": 11626920084, "lat": 38.3354582, "lon": 26.7702458, "tags": {"amenity": "pharmacy", "healthcare": "pharmacy"}}, {"type": "node", "id": 11813275710, "lat": 38.3357167, "lon": 26.7705531, "tags": {"amenity": "pharmacy", "name": "Urla Naturel Eczanesi", "phone": "+90 232 754 2939"}}, {"type": "node", "id": 11813275711, "lat": 38.3294729, "lon": 26.7744991, "tags": {"amenity": "pharmacy", "name": "Binkonutlar Eczanesi", "phone": "+90 232 754 8844"}}, {"type": "node", "id": 11813275712, "lat": 38.3292528, "lon": 26.7465942, "tags": {"amenity": "pharmacy", "healthcare": "pharmacy", "name": "Can Eczanesi", "phone": "+90 232 754 1001"}}, {"type": "node", "id": 11813275713, "lat": 38.3249287, "lon": 26.7521054, "tags": {"amenity": "pharmacy", "name": "Urla Pazar Eczanesi", "phone": "+90 232 754 6434"}}, {"type": "node", "id": 11813275714, "lat": 38.3236898, "lon": 26.7682224, "tags": {"amenity": "pharmacy", "healthcare": "pharmacy", "name": "Ahmeto\u011flu Eczanesi", "phone": "+90 232 762 6465"}}, {"type": "node", "id": 11813275839, "lat": 38.329273, "lon": 26.7463782, "tags": {"amenity": "pharmacy", "healthcare": "pharmacy", "name": "Ada Eczanesi", "phone": "+90 232 754 6126"}}, {"type": "node", "id": 11813275840, "lat": 38.3215497, "lon": 26.762994, "tags": {"amenity": "pharmacy", "healthcare": "pharmacy", "name": "Akta\u015f Eczanesi", "phone": "+90 232 754 7535"}}, {"type": "node", "id": 11813275841, "lat": 38.3238315, "lon": 26.768331, "tags": {"amenity": "pharmacy", "healthcare": "pharmacy", "name": "Ege Eczanesi", "phone": "+90 232 754 5266"}}, {"type": "node", "id": 11813275842, "lat": 38.3227013, "lon": 26.7676716, "tags": {"amenity": "pharmacy", "name": "Deniz Eczanesi", "phone": "+90 232 754 1433"}}, {"type": "node", "id": 11813275890, "lat": 38.3240974, "lon": 26.7653133, "tags": {"amenity": "pharmacy", "name": "Urla Eczanesi", "phone": "+90 232 754 6494"}}, {"type": "node", "id": 11813275891, "lat": 38.3221913, "lon": 26.7660227, "tags": {"amenity": "pharmacy", "healthcare": "pharmacy", "name": "Sanat Eczanesi", "phone": "+90 232 754 6164"}}, {"type": "node", "id": 11813286489, "lat": 38.324941, "lon": 26.7670804, "tags": {"amenity": "pharmacy", "healthcare": "pharmacy", "name": "Do\u011fa Eczanesi", "phone": "+90 232 754 5499"}}, {"type": "node", "id": 11813286490, "lat": 38.3221607, "lon": 26.7657477, "tags": {"amenity": "pharmacy", "healthcare": "pharmacy", "name": "Merkez Eczanesi", "phone": "+90 232 754 5171"}}, {"type": "node", "id": 11813286491, "lat": 38.3222632, "lon": 26.7657669, "tags": {"amenity": "pharmacy", "healthcare": "pharmacy", "name": "Tuna Eczanesi", "phone": "+90 232 754 1047"}}, {"type": "node", "id": 11813286492, "lat": 38.3222694, "lon": 26.7656383, "tags": {"amenity": "pharmacy", "healthcare": "pharmacy", "name": "G\u00fcne\u015f Eczanesi", "phone": "+90 232 754 1648"}}, {"type": "node", "id": 11813286493, "lat": 38.3224599, "lon": 26.7663632, "tags": {"amenity": "pharmacy", "healthcare": "pharmacy", "name": "Zafer Eczanesi", "phone": "+90 232 754 1128"}}, {"type": "node", "id": 11813286494, "lat": 38.3226345, "lon": 26.7669828, "tags": {"amenity": "pharmacy", "name": "G\u00fcnen\u00e7 Eczanesi", "phone": "+90 232 754 4999"}}, {"type": "node", "id": 11813286495, "lat": 38.3222046, "lon": 26.7679443, "tags": {"amenity": "pharmacy", "name": "\u00c7\u0131nar Eczanesi", "phone": "+90 232 754 1935"}}, {"type": "node", "id": 11813286496, "lat": 38.3231317, "lon": 26.7677948, "tags": {"amenity": "pharmacy", "name": "Ayd\u0131nsoy Eczanesi", "phone": "+90 232 754 1752"}}, {"type": "node", "id": 11836645272, "lat": 38.6675557, "lon": 26.754681, "tags": {"amenity": "pharmacy", "name": "Sude Eczanesi", "phone": "+90 232 812 7219"}}, {"type": "node", "id": 11836645403, "lat": 38.6586595, "lon": 26.7646321, "tags": {"amenity": "pharmacy", "name": "Ay\u015fin Eczanesi", "phone": "+90 232 812 7071"}}, {"type": "node", "id": 11836645615, "lat": 38.6591174, "lon": 26.7644814, "tags": {"addr:city": "izmir", "addr:district": "fo\u00e7a", "addr:housenumber": "26/A", "addr:neighbourhood": "Atat\u00fcrk Mahallesi", "addr:street": "99 Sk.", "amenity": "pharmacy", "healthcare": "pharmacy", "name": "Lotus Eczanesi", "opening_hours": "Mo-Su 08:30-19:00", "operator": "Lotus Eczanesi", "phone": "+90 232 330 2023"}}, {"type": "node", "id": 11836645616, "lat": 38.6693639, "lon": 26.7552261, "tags": {"amenity": "pharmacy", "name": "Talatpa\u015fa Eczanesi", "phone": "+90 232 812 7700"}}, {"type": "node", "id": 11836646190, "lat": 38.6628094, "lon": 26.7581739, "tags": {"amenity": "pharmacy", "name": "Fo\u00e7a Eczanesi", "phone": "+90 232 812 1999"}}]}