{"version": 0.6, "generator": "Overpass API 0.7.62.8 e802775f", "osm3s": {"timestamp_osm_base": "2025-10-06T08:24:06Z", "copyright": "The data included in this document is from www.openstreetmap.org. The data is made available under ODbL."}, "elements": [{"type": "node", "id": 2236932303, "lat": 45.4089913, "lon": 23.3755852, "tags": {"addr:city": "Petro\u0219ani", "addr:housename": "Farmacia Dora", "addr:street": "Strada 1 Decembrie 1918", "amenity": "pharmacy", "brand": "Farmacia Dona", "brand:wikidata": "Q12726919", "healthcare": "pharmacy", "is_in:city": "Petro\u0219ani", "name": "Farmacia Dona"}}, {"type": "node", "id": 2273421603, "lat": 45.4211289, "lon": 23.3704358, "tags": {"addr:city": "Petro\u0219ani", "amenity": "pharmacy", "dispensing": "yes", "drive_through": "no", "healthcare": "pharmacy", "name": "Farmacia Centum"}}, {"type": "node", "id": 2276015806, "lat": 45.3927351, "lon": 23.3751982, "tags": {"addr:housename": "Farmacia Revitalia", "addr:housenumber": "34", "addr:street": "Strada Aviatorilor", "amenity": "pharmacy", "name": "Farmacia Revitalia"}}, {"type": "node", "id": 4411414064, "lat": 45.415447, "lon": 23.370625, "tags": {"amenity": "pharmacy", "dispensing": "yes", "drive_through": "no", "name": "Farmacie"}}, {"type": "node", "id": 4411414069, "lat": 45.4170661, "lon": 23.3723656, "tags": {"amenity": "pharmacy", "dispensing": "yes", "drive_through": "no", "name": "Farmacie"}}, {"type": "node", "id": 4597594712, "lat": 45.3751012, "lon": 23.2862242, "tags": {"amenity": "pharmacy", "name": "Fidas"}}, {"type": "node", "id": 4597597219, "lat": 45.3759077, "lon": 23.2952686, "tags": {"amenity": "pharmacy", "brand": "Catena", "brand:wikidata": "Q24035728", "brand:wikipedia": "ro:Farmacia Catena", "healthcare": "pharmacy", "name": "Catena"}}, {"type": "node", "id": 4648749915, "lat": 45.4214526, "lon": 23.3702355, "tags": {"amenity": "pharmacy", "dispensing": "yes", "drive_through": "no", "name": "Farmacia ile"}}, {"type": "node", "id": 5820245426, "lat": 45.4097298, "lon": 23.3756693, "tags": {"addr:city": "Petro\u0219ani", "addr:street": "Strada 1 Decembrie 1918", "amenity": "pharmacy", "brand": "Catena", "brand:wikidata": "Q24035728", "brand:wikipedia": "ro:Farmacia Catena", "healthcare": "pharmacy", "name": "Catena"}}, {"type": "node", "id": 10207153117, "lat": 45.4090652, "lon": 23.375589, "tags": {"addr:city": "Petro\u0219ani", "addr:street": "Strada 1 Decembrie 1918", "amenity": "pharmacy", "brand": "Dr. Max", "brand:wikidata": "Q56317371", "healthcare": "pharmacy", "name": "Dr. Max"}}, {"type": "node", "id": 10207153118, "lat": 45.4089116, "lon": 23.3755987, "tags": {"amenity": "pharmacy", "brand": "Help Net", "brand:wikidata": "Q12729923", "healthcare": "pharmacy", "name": "Help Net"}}, {"type": "node", "id": 10220918148, "lat": 45.3517628, "lon": 23.2043879, "tags": {"addr:city": "Lupeni", "addr:street": "Strada Tudor Vladimirescu", "amenity": "pharmacy", "brand": "Dr. Max", "brand:wikidata": "Q56317371", "healthcare": "pharmacy", "name": "Dr. Max"}}, {"type": "node", "id": 10220918149, "lat": 45.3514471, "lon": 23.2044007, "tags": {"addr:city": "Lupeni", "addr:street": "Strada Tudor Vladimirescu", "amenity": "pharmacy", "brand": "Catena", "brand:wikidata": "Q24035728", "healthcare": "pharmacy", "name": "Catena"}}, {"type": "node", "id": 10220918159, "lat": 45.351441, "lon": 23.2037422, "tags": {"addr:city": "Lupeni", "addr:street": "Strada Tudor Vladimirescu", "amenity": "pharmacy", "brand": "Farmacia Dona", "brand:wikidata": "Q12726919", "healthcare": "pharmacy", "name": "Farmacia Dona"}}, {"type": "node", "id": 10837769175, "lat": 45.3830144, "lon": 23.3708281}, {"type": "node", "id": 10837769176, "lat": 45.3829504, "lon": 23.3707961}, {"type": "node", "id": 10837769177, "lat": 45.3829221, "lon": 23.3709108}, {"type": "node", "id": 10837769178, "lat": 45.3829861, "lon": 23.3709429}, {"type": "node", "id": 10837769179, "lat": 45.3829892, "lon": 23.3708765, "tags": {"addr:city": "Petro\u0219ani", "addr:housenumber": "12C", "amenity": "pharmacy", "healthcare": "pharmacy", "name": "Farmaciile Help Net"}}, {"type": "node", "id": 13114325478, "lat": 45.415736, "lon": 23.3699251}, {"type": "node", "id": 13114325479, "lat": 45.4156806, "lon": 23.3699561}, {"type": "node", "id": 13114325480, "lat": 45.4157108, "lon": 23.3700659}, {"type": "node", "id": 13114325481, "lat": 45.4157663, "lon": 23.370035}, {"type": "way", "id": 1165171421, "nodes": [10837769175, 10837769176, 10837769177, 10837769178, 10837769175], "tags": {"addr:city": "Petro\u0219ani", "addr:housenumber": "12C", "addr:street": "Strada Livezeni", "amenity": "pharmacy", "building": "yes", "email": "helpnet426@helpnet.ro", "healthcare": "pharmacy", "name": "Farmaciile Help Net", "opening_hours": "Mo-Su 12:00-20:00", "phone": "0747.117.353", "website": "https://www.helpnet.ro/petrosani"}}, {"type": "way", "id": 1426617145, "nodes": [13114325478, 13114325479, 13114325480, 13114325481, 13114325478], "tags": {"amenity": "pharmacy", "building": "yes", "healthcare": "pharmacy"}}]}