{"version": 0.6, "generator": "Overpass API 0.7.62.8 e802775f", "osm3s": {"timestamp_osm_base": "2025-10-06T07:58:43Z", "copyright": "The data included in this document is from www.openstreetmap.org. The data is made available under ODbL."}, "elements": [{"type": "node", "id": 4417362015, "lat": 42.4337818, "lon": 21.0373731, "tags": {"amenity": "pharmacy", "healthcare": "pharmacy"}}, {"type": "node", "id": 4558507077, "lat": 42.4611086, "lon": 21.4675635, "tags": {"amenity": "pharmacy", "dispensing": "yes", "healthcare": "pharmacy", "name": "Irisi"}}, {"type": "node", "id": 4558523339, "lat": 42.4472615, "lon": 21.4713575, "tags": {"amenity": "pharmacy", "dispensing": "yes", "healthcare": "pharmacy", "name": "Barnatore \"Flora\""}}, {"type": "node", "id": 4558748143, "lat": 42.463211, "lon": 21.4677553, "tags": {"addr:city": "Gjilan", "addr:postcode": "60000", "addr:street": "Medllin Ollbrajt", "amenity": "pharmacy", "dispensing": "yes", "healthcare": "pharmacy", "name": "Vjolla-Pharm"}}, {"type": "node", "id": 4559800141, "lat": 42.4470496, "lon": 21.4714557, "tags": {"amenity": "pharmacy", "dispensing": "yes", "healthcare": "pharmacy", "name": "Barnatorja \"BARDHI\""}}, {"type": "node", "id": 4559845204, "lat": 42.4574015, "lon": 21.4716141, "tags": {"amenity": "pharmacy", "healthcare": "pharmacy", "name": "Pranvera Pharm"}}, {"type": "node", "id": 5022182222, "lat": 42.4655943, "lon": 21.4739475, "tags": {"amenity": "pharmacy", "dispensing": "yes", "healthcare": "pharmacy", "name": "Exclusiv Pharmacy", "name:sq": "Exclusiv Pharmacy"}}, {"type": "node", "id": 5104746221, "lat": 42.4659458, "lon": 21.4719047, "tags": {"addr:street": "Adem Jashari", "amenity": "pharmacy", "healthcare": "pharmacy", "name": "Sh\u00ebndeti", "opening_hours": "Mo-Su 07:00-22:00"}}, {"type": "node", "id": 5261625221, "lat": 42.4638028, "lon": 21.4588459, "tags": {"addr:housenumber": "8", "addr:postcode": "60000", "addr:street": "15 Qershori 99", "amenity": "pharmacy", "dispensing": "yes", "healthcare": "pharmacy", "internet_access": "wlan", "name": "Cibebi", "opening_hours": "Mo-Sa 09:00-18:00"}}, {"type": "node", "id": 6386322995, "lat": 42.3259224, "lon": 21.361538, "tags": {"addr:city": "Viti", "amenity": "pharmacy", "dispensing": "yes", "healthcare": "pharmacy", "name": "\"N\u00ebna Terez\u00eb\""}}, {"type": "node", "id": 6747298796, "lat": 42.3215641, "lon": 21.3553244, "tags": {"amenity": "pharmacy", "dispensing": "yes", "healthcare": "pharmacy"}}, {"type": "node", "id": 7329103226, "lat": 42.2750176, "lon": 21.1922088, "tags": {"addr:housenumber": "90", "addr:street": "Avdyl Gafurr Luma", "amenity": "pharmacy", "email": "riga-pharm@hotmail.com", "name": "Riga Pharm", "opening_hours": "Mo-Su 08:00-23:00"}}, {"type": "node", "id": 7343318261, "lat": 42.4666606, "lon": 21.4618964, "tags": {"amenity": "pharmacy", "dispensing": "yes", "healthcare": "pharmacy"}}, {"type": "node", "id": 7343318262, "lat": 42.4678953, "lon": 21.4674714, "tags": {"addr:city": "Gjilan", "addr:postcode": "60000", "addr:street": "Zija Shemsiu", "amenity": "pharmacy", "dispensing": "yes", "healthcare": "pharmacy"}}, {"type": "node", "id": 7343318263, "lat": 42.4650105, "lon": 21.4705613, "tags": {"addr:city": "Gjilan", "addr:postcode": "60000", "addr:street": "Abdullah Tahiri", "amenity": "pharmacy", "dispensing": "yes", "healthcare": "pharmacy", "name": "Green Pharmacy"}}, {"type": "node", "id": 7343318264, "lat": 42.4656931, "lon": 21.4711353, "tags": {"addr:city": "Gjilan", "addr:postcode": "60000", "addr:street": "Abdullah Tahiri", "amenity": "pharmacy", "dispensing": "yes", "healthcare": "pharmacy", "name": "Humana"}}, {"type": "node", "id": 7343318265, "lat": 42.4660473, "lon": 21.4713861, "tags": {"addr:city": "Gjilan", "addr:housenumber": "pn", "addr:postcode": "60000", "addr:street": "Abdullah Tahiri", "amenity": "pharmacy", "healthcare": "pharmacy", "name": "Galen", "opening_hours": "Mo-Su 07:00-23:00"}}, {"type": "node", "id": 7343318266, "lat": 42.4624352, "lon": 21.4708832, "tags": {"addr:city": "Gjilan", "addr:postcode": "60000", "addr:street": "Mulla Idrizi", "amenity": "pharmacy", "dispensing": "yes", "healthcare": "pharmacy", "name": "Riga Pharmacy", "opening_hours": "Mo-Su 08:00-23:00"}}, {"type": "node", "id": 7344262642, "lat": 42.3671005, "lon": 21.1598082, "tags": {"addr:city": "Ferizaj", "addr:housenumber": "19", "addr:postcode": "70000", "addr:street": "Remzi Hoxha", "amenity": "pharmacy", "dispensing": "yes", "healthcare": "pharmacy", "name": "elephant"}}, {"type": "node", "id": 8857485829, "lat": 42.1495725, "lon": 21.2953368, "tags": {"addr:street": "D\u00ebshmor\u00ebt e Kombit", "amenity": "pharmacy", "name": "Barnatore Niti"}}, {"type": "node", "id": 8857534384, "lat": 42.1495686, "lon": 21.2950397, "tags": {"addr:street": "Deshmoret e Kombit", "amenity": "pharmacy", "name": "Barnatore Nili-T"}}, {"type": "node", "id": 8857535157, "lat": 42.1496215, "lon": 21.2955157, "tags": {"addr:street": "D\u00ebshmor\u00ebt e Kombit", "amenity": "pharmacy", "name": "Barnatore Niti"}}, {"type": "node", "id": 8857554305, "lat": 42.149547, "lon": 21.295052, "tags": {"addr:street": "Deshmoret e kombit", "amenity": "pharmacy", "name": "Zejnepe pharm"}}, {"type": "node", "id": 9689312617, "lat": 42.2290545, "lon": 21.2569667, "tags": {"amenity": "pharmacy", "name": "Riga Pharm", "opening_hours": "Mo-Su 08:00-23:00"}}, {"type": "node", "id": 9689315117, "lat": 42.2285233, "lon": 21.2526109, "tags": {"addr:postcode": "71000", "addr:street": "V\u00ebllez\u00ebrit \u00c7aka", "amenity": "pharmacy", "name": "Riga Pharm", "opening_hours": "Mo-Su 08:00-23:00"}}, {"type": "node", "id": 9788246317, "lat": 42.4381256, "lon": 21.4744632, "tags": {"addr:postcode": "60000", "addr:street": "Xheladin Kurbaliu", "amenity": "pharmacy", "name": "Barnatore bujqesore Agro-xoni", "name:sq": "agroshop", "phone": "044433060"}}, {"type": "node", "id": 9949174817, "lat": 42.4600429, "lon": 21.4505241, "tags": {"amenity": "pharmacy", "name": "Pharmacy"}}, {"type": "node", "id": 9949341719, "lat": 42.4661711, "lon": 21.4600715, "tags": {"amenity": "pharmacy", "name": "Belladona"}}, {"type": "node", "id": 9949342124, "lat": 42.4636425, "lon": 21.458053, "tags": {"amenity": "pharmacy"}}, {"type": "node", "id": 9949365517, "lat": 42.4636367, "lon": 21.45867, "tags": {"amenity": "pharmacy", "name": "Riga Pharm"}}, {"type": "node", "id": 9949422017, "lat": 42.4603671, "lon": 21.4667756, "tags": {"amenity": "pharmacy", "healthcare": "pharmacy"}}, {"type": "node", "id": 9949422018, "lat": 42.4570806, "lon": 21.4645406, "tags": {"amenity": "pharmacy"}}, {"type": "node", "id": 9949422317, "lat": 42.4565251, "lon": 21.4637203, "tags": {"amenity": "pharmacy"}}, {"type": "node", "id": 9951105620, "lat": 42.4591431, "lon": 21.4713364, "tags": {"amenity": "pharmacy", "healthcare": "pharmacy"}}, {"type": "node", "id": 9951109517, "lat": 42.4631639, "lon": 21.4684486, "tags": {"amenity": "pharmacy", "name": "RIGA Pharm"}}, {"type": "node", "id": 9951111221, "lat": 42.458177, "lon": 21.4652252, "tags": {"amenity": "pharmacy", "name": "Pharmacy"}}, {"type": "node", "id": 9951115720, "lat": 42.4549589, "lon": 21.4708424, "tags": {"amenity": "pharmacy", "name": "Pharmacy"}}, {"type": "node", "id": 9951118418, "lat": 42.4582561, "lon": 21.4653043, "tags": {"amenity": "pharmacy", "name": "Pharmacy"}}, {"type": "node", "id": 9951605817, "lat": 42.4672993, "lon": 21.4608268, "tags": {"amenity": "pharmacy", "name": "Rron Pharm"}}, {"type": "node", "id": 11104293522, "lat": 42.4700293, "lon": 21.4792444, "tags": {"amenity": "pharmacy", "name": "Pharmacy"}}, {"type": "node", "id": 11104902209, "lat": 42.3726717, "lon": 21.484346, "tags": {"amenity": "pharmacy", "name": "Riga Pharm"}}, {"type": "node", "id": 11110291606, "lat": 42.4625384, "lon": 21.474259, "tags": {"amenity": "pharmacy", "name": "Pharmacy"}}, {"type": "node", "id": 11110348405, "lat": 42.4656044, "lon": 21.4734494, "tags": {"amenity": "pharmacy", "name": "Pharmacy"}}, {"type": "node", "id": 11110381407, "lat": 42.4572068, "lon": 21.4631901, "tags": {"amenity": "pharmacy", "name": "Pharmacy"}}, {"type": "node", "id": 13127669804, "lat": 42.1054253, "lon": 21.0804108, "tags": {"amenity": "pharmacy", "name": "Baranatore \"Pakom-Farm\""}}]}