{"version": 0.6, "generator": "Overpass API 0.7.62.8 e802775f", "osm3s": {"timestamp_osm_base": "2025-10-06T08:46:29Z", "copyright": "The data included in this document is from www.openstreetmap.org. The data is made available under ODbL."}, "elements": [{"type": "node", "id": 2172958626, "lat": 46.4729299, "lon": 25.1832934, "tags": {"addr:city": "Corund", "addr:housename": "Sarkadi Gy\u00f3gyszert\u00e1r", "addr:housenumber": "593", "addr:postcode": "537060", "addr:street": "Strada F\u0151", "amenity": "pharmacy", "description": "Farmacie", "dispensing": "yes", "email": "sarkadi@korond.ro", "healthcare": "pharmacy", "name": "Farmacia Sarkadi", "opening_hours": "Mo-Fr 08:00-19:00, Sa-Su 08:00-13:00", "payment:cash": "yes", "payment:coins": "yes", "payment:visa": "yes", "phone": "+40 266 249 106"}}, {"type": "node", "id": 2288042118, "lat": 46.7933084, "lon": 25.4534609, "tags": {"amenity": "pharmacy", "dispensing": "yes", "healthcare": "pharmacy", "name": "Ropharma", "opening_hours": "Mo-Fr 07:30-16:00", "wheelchair": "yes"}}, {"type": "node", "id": 2288042172, "lat": 46.7930116, "lon": 25.4528222, "tags": {"amenity": "pharmacy", "dispensing": "yes", "healthcare": "pharmacy", "name": "Szent L\u00e9n\u00e1rd Patika", "opening_hours": "Mo-Fr 08:00-20:00; Sa 09:00-12:00", "wheelchair": "yes"}}, {"type": "node", "id": 2760334360, "lat": 46.9254959, "lon": 25.3564845, "tags": {"amenity": "pharmacy", "name": "Farmacie veterinar\u0103", "source": "survey"}}, {"type": "node", "id": 2766333300, "lat": 46.6010781, "lon": 25.0864098, "tags": {"amenity": "pharmacy", "healthcare": "pharmacy", "name": "Montana"}}, {"type": "node", "id": 2781317407, "lat": 46.9231972, "lon": 25.3516413, "tags": {"amenity": "pharmacy", "name": "Farmacie"}}, {"type": "node", "id": 2781321866, "lat": 46.9231019, "lon": 25.3535308, "tags": {"amenity": "pharmacy", "name": "Farmacia Nova", "wheelchair": "yes"}}, {"type": "node", "id": 3719646374, "lat": 46.5979832, "lon": 25.0726783, "tags": {"amenity": "pharmacy", "healthcare": "pharmacy", "name": "Farmacia Kakucs"}}, {"type": "node", "id": 3763561739, "lat": 46.8325191, "lon": 24.9320329, "tags": {"amenity": "pharmacy", "healthcare": "pharmacy", "name": "Farmacie"}}, {"type": "node", "id": 4133376390, "lat": 46.7926695, "lon": 25.4545807, "tags": {"addr:city": "Remetea", "addr:housenumber": "7", "addr:street": "Pia\u021ba Cseres Tibor", "amenity": "pharmacy", "opening_hours": "Mo-Fr 09:00-16:00; Sa 10:00-13:00"}}, {"type": "node", "id": 4863482197, "lat": 46.9264148, "lon": 25.3571367, "tags": {"amenity": "pharmacy", "healthcare": "pharmacy", "name": "Farmacie"}}, {"type": "node", "id": 5963318407, "lat": 46.5510797, "lon": 25.1254529, "tags": {"addr:city": "Praid", "addr:housenumber": "1097", "addr:postcode": "537240", "addr:street": "Strada Principal\u0103", "amenity": "pharmacy", "description": "Farmacie", "dispensing": "yes", "email": "sarkadi@parajd.eu", "healthcare": "pharmacy", "name": "Farmacia Gabi", "opening_hours": "Mo-Su 09:00-17:00", "phone": "+40 266 240 640"}}, {"type": "node", "id": 9946743648, "lat": 46.5813625, "lon": 25.0541818, "tags": {"amenity": "pharmacy", "brand": "Help Net", "brand:wikidata": "Q12729923", "dispensing": "yes", "healthcare": "pharmacy", "name": "Help Net"}}, {"type": "node", "id": 10554989246, "lat": 46.5530154, "lon": 25.126592, "tags": {"amenity": "pharmacy", "healthcare": "pharmacy", "name": "Montana", "opening_hours": "Mo-Fr 08:30-16:30; Sa 09:00-14:00"}}, {"type": "node", "id": 11382038630, "lat": 46.7720498, "lon": 24.8605477}, {"type": "node", "id": 11382038631, "lat": 46.7719079, "lon": 24.8604952}, {"type": "node", "id": 11382038632, "lat": 46.7718539, "lon": 24.8608061}, {"type": "node", "id": 11382038633, "lat": 46.7719958, "lon": 24.8608586}, {"type": "node", "id": 11835847150, "lat": 46.594137, "lon": 25.0721781, "tags": {"amenity": "pharmacy", "healthcare": "pharmacy", "name": "farmacia Ropharma", "wheelchair": "limited"}}, {"type": "node", "id": 12914221556, "lat": 46.9234664, "lon": 25.351575, "tags": {"amenity": "pharmacy", "healthcare": "pharmacy", "name": "Dr. Max"}}, {"type": "node", "id": 12917575824, "lat": 46.9233304, "lon": 25.3512179, "tags": {"amenity": "pharmacy", "brand": "Catena", "brand:wikidata": "Q24035728", "healthcare": "pharmacy", "name": "Catena"}}, {"type": "way", "id": 1227405275, "nodes": [11382038630, 11382038631, 11382038632, 11382038633, 11382038630], "tags": {"amenity": "pharmacy", "building": "yes", "healthcare": "pharmacy", "name": "Farmacia Acantha"}}]}