{"version": 0.6, "generator": "Overpass API 0.7.62.8 e802775f", "osm3s": {"timestamp_osm_base": "2025-10-06T08:51:34Z", "copyright": "The data included in this document is from www.openstreetmap.org. The data is made available under ODbL."}, "elements": [{"type": "node", "id": 2090188635, "lat": 51.1700243, "lon": 23.793642, "tags": {"amenity": "pharmacy", "dispensing": "yes", "healthcare": "pharmacy", "name": "Zielona", "opening_hours": "Mo-Fr 08:00-17:00; Sa 09:00-12:00", "phone": "+48 82 545 23 50", "ref:csioz": "1219819"}}, {"type": "node", "id": 2641784285, "lat": 51.2358676, "lon": 23.5925219, "tags": {"amenity": "pharmacy", "dispensing": "yes", "healthcare": "pharmacy", "name": "Apteka Zielona", "opening_hours": "Mo-Fr 08:00-16:00; Sa 08:45-12:00", "ref:csioz": "1156590"}}, {"type": "node", "id": 3022157514, "lat": 51.56251, "lon": 23.91191, "tags": {"amenity": "pharmacy", "dispensing": "no"}}, {"type": "node", "id": 4221223158, "lat": 51.4904272, "lon": 23.9178607, "tags": {"amenity": "pharmacy", "name": "\u0410\u043f\u0442\u0435\u043a\u0430 \u2116 20", "name:uk": "\u0410\u043f\u0442\u0435\u043a\u0430 \u2116 20", "operator": "\u0412\u043e\u043b\u0438\u043d\u044c\u0444\u0430\u0440\u043c", "wheelchair": "yes"}}, {"type": "node", "id": 4285822429, "lat": 51.4828737, "lon": 23.8533029, "tags": {"amenity": "pharmacy", "name": "\u0410\u043f\u0442\u0435\u043a\u0430", "name:uk": "\u0410\u043f\u0442\u0435\u043a\u0430", "operator": "\u041c\u041f \"\u041e\u043a\u0442\u0430\u043d\"", "wheelchair": "yes"}}, {"type": "node", "id": 4323085473, "lat": 51.4877007, "lon": 23.9224236, "tags": {"amenity": "pharmacy"}}, {"type": "node", "id": 4323962720, "lat": 51.4894651, "lon": 23.9213677, "tags": {"amenity": "pharmacy", "wheelchair": "yes"}}, {"type": "node", "id": 4581985592, "lat": 51.4907228, "lon": 23.9228869, "tags": {"amenity": "pharmacy", "opening_hours": "Mo-Su 08:00-19:00"}}, {"type": "node", "id": 5371033609, "lat": 51.5463148, "lon": 23.5440882, "tags": {"amenity": "pharmacy", "dispensing": "yes", "healthcare": "pharmacy", "name": "Apteka Rondo", "opening_hours": "Mo-Fr 08:00-19:00; Sa 08:00-15:00", "ref:csioz": "1156912"}}, {"type": "node", "id": 5600668533, "lat": 51.3224696, "lon": 23.6222062, "tags": {"amenity": "pharmacy", "dispensing": "yes", "healthcare": "pharmacy", "name": "Nadbu\u017ca\u0144ska", "opening_hours": "Mo-Fr 08:00-16:00; Sa 08:00-13:00", "ref:csioz": "1202521"}}, {"type": "node", "id": 5760773137, "lat": 51.5472861, "lon": 23.5555199, "tags": {"amenity": "pharmacy", "dispensing": "yes", "drive_through": "yes", "healthcare": "pharmacy", "name": "Apteka W Dworku", "opening_hours": "Mo-Fr 08:00-19:00; Sa 08:00-15:00", "payment:cash": "yes", "payment:coins": "yes", "payment:credit_cards": "yes", "payment:maestro": "yes", "payment:mastercard": "yes", "payment:visa": "yes", "payment:visa_electron": "yes", "ref:csioz": "1156865"}}, {"type": "node", "id": 7076314992, "lat": 51.5436093, "lon": 23.5540434, "tags": {"amenity": "pharmacy", "dispensing": "yes", "healthcare": "pharmacy", "name": "Apteka DOZ", "opening_hours": "Mo-Fr 08:00-19:00; Sa 08:00-15:00", "ref:csioz": "1157304"}}, {"type": "node", "id": 8424334889, "lat": 51.5552543, "lon": 23.5538657, "tags": {"addr:city": "W\u0142odawa", "addr:housenumber": "1", "addr:postcode": "22-200", "addr:street": "Wojska Polskiego", "amenity": "pharmacy", "dispensing": "yes", "healthcare": "pharmacy", "name": "Apteka Maria Jolanta Kotko", "note": "Oficjalny adres apteki to Wojska Polskiego 1, ale apteka mie\u015bci si\u0119 tutaj. Prosz\u0119 nie przesuwa\u0107.", "opening_hours": "Mo-Fr 08:00-19:00; Sa 08:00-15:00", "operator": "Maria Jolanta Kotko", "ref:csioz": "1157184"}}, {"type": "node", "id": 8424334911, "lat": 51.5449935, "lon": 23.5547284, "tags": {"amenity": "pharmacy", "dispensing": "yes", "healthcare": "pharmacy", "name": "Apteka SLAWEX", "opening_hours": "Mo-Sa 07:00-19:00", "ref:csioz": "1156760"}}, {"type": "node", "id": 8424339628, "lat": 51.5577069, "lon": 23.5526136, "tags": {"amenity": "pharmacy", "dispensing": "yes", "healthcare": "pharmacy", "name": "Apteka Przyszpitalna", "ref:csioz": "1199102"}}, {"type": "node", "id": 8696609554, "lat": 51.5498998, "lon": 23.5518587, "tags": {"amenity": "pharmacy", "dispensing": "yes", "healthcare": "pharmacy", "name": "Apteka przy przychodni", "opening_hours": "Mo-Fr 08:00-18:00", "operator": "B\u00f3jko Ilona", "ref:csioz": "1156898"}}, {"type": "node", "id": 8708722957, "lat": 51.5472914, "lon": 23.5475475, "tags": {"amenity": "pharmacy", "dispensing": "yes", "healthcare": "pharmacy", "name": "Apteka u Magistra", "opening_hours": "Mo-Sa 08:00-17:00", "ref:csioz": "1157202"}}, {"type": "node", "id": 9393195579, "lat": 51.2274254, "lon": 24.0383473, "tags": {"addr:housenumber": "27\u0430", "addr:postcode": "44300", "addr:street": "\u0432\u0443\u043b\u0438\u0446\u044f \u041d\u0435\u0437\u0430\u043b\u0435\u0436\u043d\u043e\u0441\u0442\u0456", "amenity": "pharmacy", "healthcare": "pharmacy", "name": "\u041f\u043e\u0434\u043e\u0440\u043e\u0436\u043d\u0438\u043a;\u0410\u043f\u0442\u0435\u043a\u0430 \u0412\u043e\u043b\u0438\u043d\u044c \u0444\u0430\u0440\u043c", "name:en": "Pharmacy Volyn pharm", "name:uk": "\u041f\u043e\u0434\u043e\u0440\u043e\u0436\u043d\u0438\u043a;\u0410\u043f\u0442\u0435\u043a\u0430 \u0412\u043e\u043b\u0438\u043d\u044c \u0444\u0430\u0440\u043c", "opening_hours": "Mo-Sa 08:00-21:00, Su 09:00-20:00"}}, {"type": "node", "id": 9552094114, "lat": 51.54397, "lon": 23.551437, "tags": {"amenity": "pharmacy", "dispensing": "yes", "healthcare": "pharmacy", "name": "Apteka Centrum", "opening_hours": "Mo-Fr 07:30-18:00", "ref:csioz": "1157266"}}, {"type": "node", "id": 9552594629, "lat": 51.5437819, "lon": 23.5526399, "tags": {"amenity": "pharmacy", "dispensing": "yes", "healthcare": "pharmacy", "name": "Apteka Moje Zdrowie", "opening_hours": "Mo-Fr 08:00-18:00; Sa 08:00-14:00", "ref:csioz": "1157035"}}, {"type": "node", "id": 10899476005, "lat": 51.2271878, "lon": 24.0321278, "tags": {"addr:housenumber": "2", "addr:street": "\u0432\u0443\u043b\u0438\u0446\u044f \u0412\u043e\u043b\u043e\u0434\u0438\u043c\u0438\u0440\u0441\u044c\u043a\u0430", "amenity": "pharmacy", "contact:phone": "0800303111", "description": "\u041f\u043e\u0434\u043e\u0440\u043e\u0436\u043d\u0438\u043a \u2013 \u043d\u0430\u0439\u0431\u0456\u043b\u044c\u0448\u0430 \u043c\u0435\u0440\u0435\u0436\u0430 \u0430\u043f\u0442\u0435\u043a \u0423\u043a\u0440\u0430\u0457\u043d\u0438. \u0410\u0441\u043e\u0440\u0442\u0438\u043c\u0435\u043d\u0442 \u043d\u0430\u043b\u0456\u0447\u0443\u0454 \u043f\u043e\u043d\u0430\u0434 20 000 \u0442\u043e\u0432\u0430\u0440\u0456\u0432. \u0423 \u0430\u043f\u0442\u0435\u0446\u0456 \u0432\u0438 \u043c\u043e\u0436\u0435\u0442\u0435 \u043f\u0440\u0438\u0434\u0431\u0430\u0442\u0438 \u043f\u043e\u0442\u0440\u0456\u0431\u043d\u0456 \u043b\u0456\u043a\u0438, \u043a\u043e\u0441\u043c\u0435\u0442\u0438\u043a\u0443 \u0442\u0430 \u0456\u043d\u0448\u0456 \u043c\u0435\u0434\u0437\u0430\u0441\u043e\u0431\u0438.", "name": "\u0410\u043f\u0442\u0435\u043a\u0430 \u041f\u043e\u0434\u043e\u0440\u043e\u0436\u043d\u0438\u043a", "name:uk": "\u0410\u043f\u0442\u0435\u043a\u0430 \u041f\u043e\u0434\u043e\u0440\u043e\u0436\u043d\u0438\u043a", "opening_hours": "Mo-Fr 10:00-18:00; Sa 10:00-15:00", "website": "https://podorozhnyk.com"}}, {"type": "node", "id": 12977475351, "lat": 51.2271735, "lon": 24.0375575, "tags": {"addr:housenumber": "22", "addr:street": "\u0432\u0443\u043b\u0438\u0446\u044f \u041d\u0435\u0437\u0430\u043b\u0435\u0436\u043d\u043e\u0441\u0442\u0456", "amenity": "pharmacy", "contact:facebook": "https://www.facebook.com/166537580616592", "contact:instagram": "https://instagram.com/zdorovarodyna_apteka", "name": "\u0419\u043e\u0434", "opening_hours": "Mo-Fr 08:00-20:00; Sa-Su 08:00-19:00", "phone": "+380 50 358 3597"}}, {"type": "node", "id": 13041297062, "lat": 51.4908497, "lon": 23.9215976, "tags": {"addr:housenumber": "32", "addr:street": "\u0432\u0443\u043b\u0438\u0446\u044f \u0413\u0435\u0440\u043e\u0457\u0432 \u0423\u043a\u0440\u0430\u0457\u043d\u0438", "amenity": "pharmacy", "name": "\u041f\u043e\u0434\u043e\u0440\u043e\u0436\u043d\u0438\u043a", "opening_hours": "Mo-Su 08:00-20:00"}}, {"type": "node", "id": 13106074215, "lat": 51.5607694, "lon": 23.6033797, "tags": {"amenity": "pharmacy", "name": "\u0424\u0430\u0440\u043c\u0430\u0446\u044b\u044f \u2116 29", "name:be": "\u0424\u0430\u0440\u043c\u0430\u0446\u044b\u044f \u2116 29", "name:ru": "\u0424\u0430\u0440\u043c\u0430\u0446\u0438\u044f \u2116 29", "operator": "\u0424\u0430\u0440\u043c\u0430\u0446\u044b\u044f", "operator:be": "\u0424\u0430\u0440\u043c\u0430\u0446\u044b\u044f", "operator:ru": "\u0424\u0430\u0440\u043c\u0430\u0446\u0438\u044f", "website": "https://farmabrest.by/"}}]}