{"version": 0.6, "generator": "Overpass API 0.7.62.8 e802775f", "osm3s": {"timestamp_osm_base": "2025-10-06T08:16:01Z", "copyright": "The data included in this document is from www.openstreetmap.org. The data is made available under ODbL."}, "elements": [{"type": "node", "id": 306794518, "lat": 49.1654029, "lon": 20.2847471, "tags": {"amenity": "pharmacy", "dispensing": "yes", "healthcare": "pharmacy", "name": "Lek\u00e1re\u0148 Lomnica", "opening_hours": "Mo-Fr 07:30-12:00,13:00-15:30", "opening_hours:url": "http://www.vysoketatry.sk/lekarne.html"}}, {"type": "node", "id": 427873745, "lat": 49.1143748, "lon": 20.3566788, "tags": {"amenity": "pharmacy", "name": "U Zlat\u00e9ho orla", "opening_hours": "Mo-Fr 07:30-16:00", "phone": "+421 52 4561048", "website": "https://lekaren-velkalomnica.sk/"}}, {"type": "node", "id": 1035571009, "lat": 49.3377948, "lon": 20.0046471, "tags": {"amenity": "pharmacy"}}, {"type": "node", "id": 1524437793, "lat": 49.07804, "lon": 20.3277322, "tags": {"amenity": "pharmacy", "dispensing": "yes", "name": "Proxima"}}, {"type": "node", "id": 1687946277, "lat": 49.3597705, "lon": 19.6113912}, {"type": "node", "id": 1687946359, "lat": 49.3597908, "lon": 19.6112423}, {"type": "node", "id": 1687946370, "lat": 49.3597965, "lon": 19.6112699}, {"type": "node", "id": 1687946373, "lat": 49.3597977, "lon": 19.6111429}, {"type": "node", "id": 1687946385, "lat": 49.3598087, "lon": 19.6111902}, {"type": "node", "id": 1687946425, "lat": 49.3598478, "lon": 19.6112096}, {"type": "node", "id": 1687946469, "lat": 49.359882, "lon": 19.6113394}, {"type": "node", "id": 1687946499, "lat": 49.3599085, "lon": 19.6111028}, {"type": "node", "id": 1687946641, "lat": 49.3599629, "lon": 19.6112905}, {"type": "node", "id": 2328225242, "lat": 49.0568777, "lon": 20.1963467, "tags": {"amenity": "pharmacy", "dispensing": "yes", "name": "PharmaSvit"}}, {"type": "node", "id": 2328225247, "lat": 49.0569522, "lon": 20.2016017, "tags": {"amenity": "pharmacy"}}, {"type": "node", "id": 2424495017, "lat": 49.2914102, "lon": 19.948099, "tags": {"amenity": "pharmacy", "dispensing": "yes", "healthcare": "pharmacy", "name": "Apteka na Kasprusiach", "opening_hours": "Mo-Fr 08:00-19:00; Sa 08:00-14:00"}}, {"type": "node", "id": 2456837259, "lat": 49.1199347, "lon": 20.0680213, "tags": {"alt_name": "Lek\u00e1re\u0148 na \u0160trbskom Plese", "amenity": "pharmacy", "name": "Lek\u00e1re\u0148 \u0160trbsk\u00e9 Pleso", "opening_hours": "Mo-Fr 07:45-16:00"}}, {"type": "node", "id": 2612588893, "lat": 49.2923591, "lon": 19.9528991, "tags": {"amenity": "pharmacy", "healthcare": "pharmacy", "name": "Apteka Gemini", "opening_hours": "Mo-Su,PH 07:30-21:00"}}, {"type": "node", "id": 2612624931, "lat": 49.2954736, "lon": 19.9508859, "tags": {"addr:city": "Zakopane", "addr:housenumber": "11", "addr:postcode": "34-500", "addr:street": "Krup\u00f3wki", "amenity": "pharmacy", "brand": "Dr. Max", "brand:wikidata": "Q56317371", "brand:wikipedia": "fr:Dr.Max", "dispensing": "yes", "healthcare": "pharmacy", "name": "Apteka Dr. Max", "opening_hours": "Mo-Su 08:00-21:00", "phone": "+48 18 206 38 61"}}, {"type": "node", "id": 2614897641, "lat": 49.3898523, "lon": 20.0993453, "tags": {"amenity": "pharmacy", "drive_through": "no", "healthcare": "pharmacy", "name": "Punkt Apteczny", "opening_hours": "09:00-20:00"}}, {"type": "node", "id": 2863910803, "lat": 49.0592998, "lon": 20.2674968, "tags": {"amenity": "pharmacy", "brand": "Benu", "brand:wikidata": "Q62562792", "dispensing": "yes", "healthcare": "pharmacy", "name": "Benu", "operator": "Benu", "source": "survey"}}, {"type": "node", "id": 3105665372, "lat": 49.2972932, "lon": 19.9487625, "tags": {"amenity": "pharmacy", "healthcare": "pharmacy", "note": "Pharmacy shows address Nowotarska 4", "opening_hours": "Mo-Sa 08:00-21:00; Su 10:00-20:00"}}, {"type": "node", "id": 3554985880, "lat": 49.3241441, "lon": 19.8250384, "tags": {"amenity": "pharmacy", "name": "Punkt apteczny", "opening_hours": "Mo-Fr 08:00-17:00; Sa 08:00-14:00"}}, {"type": "node", "id": 3645744235, "lat": 49.2937654, "lon": 19.9544295, "tags": {"amenity": "pharmacy", "contact:phone": "+48 182063331", "healthcare": "pharmacy", "opening_hours": "Mo-Fr 08:00-20:00; Sa 08:00-18:00", "operator": "mgr farmacji Zofia Banak"}}, {"type": "node", "id": 3829454682, "lat": 49.291482, "lon": 19.9613089, "tags": {"addr:city": "Zakopane", "addr:housenumber": "3", "addr:street": "Stanis\u0142awa Witkiewicza", "amenity": "pharmacy", "check_date": "2025-09-19", "healthcare": "pharmacy", "name": "Apteka Otmar Wierzbowski", "opening_hours": "Mo-Sa 08:00-20:00; Su off", "phone": "+48 18 201 24 47", "ref:csioz": "1077641"}}, {"type": "node", "id": 4410340496, "lat": 49.3434832, "lon": 20.0044032}, {"type": "node", "id": 4410340497, "lat": 49.3434839, "lon": 20.0045399}, {"type": "node", "id": 4410340498, "lat": 49.3434989, "lon": 20.0042076}, {"type": "node", "id": 4410340499, "lat": 49.3435012, "lon": 20.0044028}, {"type": "node", "id": 4410340501, "lat": 49.3435039, "lon": 20.0042017}, {"type": "node", "id": 4410340502, "lat": 49.343602, "lon": 20.0045383}, {"type": "node", "id": 4410340503, "lat": 49.3436121, "lon": 20.0042007}, {"type": "node", "id": 4410340504, "lat": 49.3436174, "lon": 20.0045095}, {"type": "node", "id": 4410529065, "lat": 49.3226307, "lon": 19.9863991}, {"type": "node", "id": 4410529067, "lat": 49.3226328, "lon": 19.9863603}, {"type": "node", "id": 4410529068, "lat": 49.3226367, "lon": 19.9863617}, {"type": "node", "id": 4410529070, "lat": 49.3226468, "lon": 19.9862717}, {"type": "node", "id": 4410529100, "lat": 49.3227552, "lon": 19.9863176}, {"type": "node", "id": 4410529102, "lat": 49.322756, "lon": 19.9863122}, {"type": "node", "id": 4410529104, "lat": 49.3227626, "lon": 19.9864482}, {"type": "node", "id": 4410529109, "lat": 49.3227819, "lon": 19.9863275}, {"type": "node", "id": 4638904391, "lat": 49.2913093, "lon": 19.8923634, "tags": {"addr:city": "Ko\u015bcielisko", "addr:housenumber": "140", "addr:postcode": "34-511", "addr:street": "Stanis\u0142awa N\u0119dzy-Kubi\u0144ca", "amenity": "pharmacy", "healthcare": "pharmacy", "name": "Apteka Ko\u015bcielisko"}}, {"type": "node", "id": 4808519753, "lat": 49.1394229, "lon": 20.2196341, "tags": {"amenity": "pharmacy", "brand": "Dr. Max", "brand:wikidata": "Q56317371", "dispensing": "yes", "healthcare": "pharmacy", "name": "Dr. Max", "opening_hours": "Mo-Su 07:30-19:30"}}, {"type": "node", "id": 6173284186, "lat": 49.2929298, "lon": 19.9828024, "tags": {"addr:housenumber": "30", "addr:postcode": "34-500", "addr:street": "Parda\u0142\u00f3wka", "amenity": "pharmacy", "email": "aptekatatrzanska@vp.pl", "name": "Apteka Tatrza\u0144ska", "opening_hours": "Mo-Fr 09:00-20:00; Sa 09:00-18:00", "phone": "+48 18 201 15 30", "website": "https://www.aptekatatrzanska.pl/"}}, {"type": "node", "id": 6364667436, "lat": 49.3598407, "lon": 19.6111757}, {"type": "node", "id": 6525497853, "lat": 49.052332, "lon": 20.0817097, "tags": {"amenity": "pharmacy", "dispensing": "yes", "healthcare": "pharmacy"}}, {"type": "node", "id": 6700780967, "lat": 49.387226, "lon": 20.1052789, "tags": {"amenity": "pharmacy", "dispensing": "yes", "healthcare": "pharmacy"}}, {"type": "node", "id": 7105656092, "lat": 49.3054449, "lon": 19.9579637, "tags": {"amenity": "pharmacy", "dispensing": "yes", "healthcare": "pharmacy", "name": "S\u0142oneczna", "opening_hours": "Mo-Fr 07:00-21:00; Sa 08:00-15:00; Su off"}}, {"type": "node", "id": 8990614685, "lat": 49.3343633, "lon": 19.8584616, "tags": {"addr:housenumber": "173", "addr:place": "Dzianisz", "amenity": "pharmacy", "dispensing": "yes", "healthcare": "pharmacy", "name": "Punkt apteczny"}}, {"type": "node", "id": 9208250750, "lat": 49.3597438, "lon": 19.6113022}, {"type": "node", "id": 9385560025, "lat": 49.2919746, "lon": 19.9599628, "tags": {"amenity": "pharmacy", "healthcare": "pharmacy", "name": "Zakopia\u0144ska", "opening_hours": "Mo-Sa 08:00-21:00; Su 11:00-20:00"}}, {"type": "node", "id": 9585929393, "lat": 49.3008572, "lon": 19.9610923, "tags": {"addr:city": "Zakopane", "addr:housenumber": "34", "addr:postcode": "34-500", "addr:street": "Chramc\u00f3wki", "amenity": "pharmacy", "dispensing": "yes", "healthcare": "pharmacy", "name": "Apteka Dorfarm", "opening_hours": "Mo-Fr 08:00-20:00; Sa 08:00-15:00", "phone": "+48 182068221", "ref:csioz": "1034619"}}, {"type": "node", "id": 9585949306, "lat": 49.3227639, "lon": 19.9863454, "tags": {"addr:city": "Zakopane", "addr:housenumber": "7A", "addr:postcode": "34-500", "addr:street": "Ustup", "amenity": "pharmacy", "dispensing": "yes", "name": "Apteka Na Ustupie", "opening_hours": "Mo-Fr 08:00-20:00; Sa 08:00-14:00", "phone": "+48182062111", "ref:csioz": "1077237"}}, {"type": "node", "id": 9585981962, "lat": 49.297579, "lon": 19.9487543, "tags": {"addr:city": "Zakopane", "addr:housenumber": "4", "addr:postcode": "34-500", "addr:street": "Nowotarska", "amenity": "pharmacy", "dispensing": "yes", "healthcare": "pharmacy", "name": "Apteka Marzena Mitan-Abel", "opening_hours": "Mo-Sa 08:00-21:00; Su 10:00-20:00", "phone": "+48 182014225", "ref:csioz": "1075361"}}, {"type": "node", "id": 9586026211, "lat": 49.3565559, "lon": 20.1245447, "tags": {"addr:city": "Bukowina Tatrza\u0144ska", "addr:housenumber": "147", "addr:postcode": "34-530", "addr:street": "D\u0142uga", "amenity": "pharmacy", "dispensing": "yes", "name": "Apteka mgr Halina Piszczek", "opening_hours": "Mo-Fr 08:00-18:00; Sa 15:00-18:00", "phone": "+48 18 20 77 656", "ref:csioz": "1035046"}}, {"type": "node", "id": 9586047947, "lat": 49.3022453, "lon": 19.9555668, "tags": {"addr:city": "Zakopane", "addr:housenumber": "5", "addr:postcode": "34-500", "addr:street": "Kamieniec", "amenity": "pharmacy", "dispensing": "yes", "healthcare": "pharmacy", "name": "Apteka Dr.Max", "opening_hours": "24/7", "phone": "+48 18 206 80 56", "ref:csioz": "1036062"}}, {"type": "node", "id": 9586396489, "lat": 49.342029, "lon": 20.1061573, "tags": {"addr:city": "Bukowina Tatrza\u0144ska", "addr:housenumber": "29", "addr:postcode": "34-530", "addr:street": "Ko\u015bciuszki", "amenity": "pharmacy", "dispensing": "yes", "name": "U Kubusia", "opening_hours": "Mo-Fr 08:00-18:00; Sa 09:00-14:00", "phone": "+48 182000979", "ref:csioz": "1035051"}}, {"type": "node", "id": 9586470295, "lat": 49.285639, "lon": 19.9800395, "tags": {"addr:city": "Zakopane", "addr:housenumber": "1", "addr:postcode": "34-500", "addr:street": "Droga do Olczy", "amenity": "pharmacy", "dispensing": "yes", "healthcare": "pharmacy", "name": "Apteka na Bystrym - Mitu\u015b Ewa", "opening_hours": "Mo-Fr 08:00-18:00; Sa 08:00-14:00", "phone": "+48 18 206 12 56", "ref:csioz": "1034934"}}, {"type": "node", "id": 9586483332, "lat": 49.2962015, "lon": 19.9492826, "tags": {"addr:city": "Zakopane", "addr:housenumber": "4", "addr:postcode": "34-500", "addr:street": "Krup\u00f3wki", "amenity": "pharmacy", "dispensing": "yes", "healthcare": "pharmacy", "name": "Apteka Przy \u015awi\u0119tej Rodzinie", "opening_hours": "Mo-Fr 09:00-20:00; Sa 09:00-21:00; Su 10:00-16:00", "phone": "+48 185311778", "ref:csioz": "1171523"}}, {"type": "node", "id": 9586484565, "lat": 49.3792536, "lon": 20.0116199, "tags": {"addr:city": "Bia\u0142y Dunajec", "addr:housenumber": "188", "addr:postcode": "34-425", "addr:street": "Jana Paw\u0142a II", "amenity": "pharmacy", "dispensing": "yes", "name": "Apteka Prywatna S.C", "opening_hours": "Mo-Fr 07:30-17:00; Sa 08:00-15:00", "ref:csioz": "1171663"}}, {"type": "node", "id": 9586514248, "lat": 49.3378144, "lon": 20.0038353, "tags": {"addr:city": "Poronin", "addr:housenumber": "1", "addr:postcode": "34-520", "addr:street": "J\u00f3zefa Pi\u0142sudskiego", "amenity": "pharmacy", "dispensing": "yes", "name": "Apteka Dbam O Zdrowie", "opening_hours": "Sa 08:00-16:00; Mo-Fr 07:30-19:00", "phone": "+48 800 110 110", "ref:csioz": "1038461"}}, {"type": "node", "id": 9586549276, "lat": 49.3120082, "lon": 20.0430719, "tags": {"addr:city": "Murzasichle", "addr:housenumber": "55", "addr:postcode": "34-531", "addr:street": "S\u0105delska", "amenity": "pharmacy", "dispensing": "yes", "name": "Punkt Apteczny W Remizie", "opening_hours": "Mo-Fr 09:00-17:00", "phone": "+48 182084341", "ref:csioz": "1036407"}}, {"type": "node", "id": 9586558109, "lat": 49.2933445, "lon": 19.9555652, "tags": {"addr:city": "Zakopane", "addr:housenumber": "45", "addr:postcode": "34-500", "addr:street": "Krup\u00f3wki", "amenity": "pharmacy", "dispensing": "yes", "healthcare": "pharmacy", "name": "Apteka Super-Pharm", "opening_hours": "Mo-Sa 09:00-20:00; Su 10:00-18:00", "phone": "+48 185314460", "ref:csioz": "1077749", "website": "https://apteka.superpharm.pl"}}, {"type": "node", "id": 9586590008, "lat": 49.3008264, "lon": 19.9599866, "tags": {"addr:city": "Zakopane", "addr:housenumber": "opening_hours=Mo-Fr 08:00-20:00; Sa 08:00-14:00", "addr:postcode": "34-500", "addr:street": "Gimnazjalna", "amenity": "pharmacy", "dispensing": "yes", "healthcare": "pharmacy", "name": "Apteka Gimnazjalna", "phone": "+48 182013144", "ref:csioz": "1056393"}}, {"type": "node", "id": 9586619561, "lat": 49.2981929, "lon": 19.9573863, "tags": {"addr:city": "Zakopane", "addr:housenumber": "15", "addr:postcode": "34-500", "addr:street": "Tadeusza Ko\u015bciuszki", "amenity": "pharmacy", "dispensing": "yes", "healthcare": "pharmacy", "name": "Apteka Zdrowie", "opening_hours": "Mo-Fr 08:00-20:00; Sa 09:00-20:00;Su 10:00-16:00", "phone": "+48 18 206 41 02", "ref:csioz": "1076893"}}, {"type": "node", "id": 9588650270, "lat": 49.4234887, "lon": 20.0148841, "tags": {"addr:city": "Szaflary", "addr:housenumber": "37D", "addr:postcode": "34-424", "addr:street": "W\u0142adys\u0142awa Orkana", "amenity": "pharmacy", "dispensing": "yes", "name": "Remedium", "ref:csioz": "1074585"}}, {"type": "node", "id": 9588755186, "lat": 49.3982743, "lon": 20.2450566, "tags": {"addr:city": "\u0141apsze Ni\u017cne", "addr:housenumber": "169A", "addr:postcode": "34-442", "addr:street": "D\u0142uga", "amenity": "pharmacy", "dispensing": "yes", "ref:csioz": "1077006"}}, {"type": "node", "id": 9588802674, "lat": 49.3971487, "lon": 19.8771222, "tags": {"addr:housenumber": "16A", "addr:place": "Ciche", "addr:postcode": "34-407", "amenity": "pharmacy", "dispensing": "yes", "name": "Apteka Rodzinna", "ref:csioz": "1183891"}}, {"type": "node", "id": 11145606886, "lat": 49.3597349, "lon": 19.6104758, "tags": {"amenity": "pharmacy", "healthcare": "pharmacy", "name": "Anjel"}}, {"type": "node", "id": 11946096567, "lat": 49.1206419, "lon": 20.1243067, "tags": {"amenity": "pharmacy", "dispensing": "yes", "drive_through": "no", "healthcare": "pharmacy", "opening_hours": "Mo-Th 07:30-11:30,12:00-14:00; Fr 07:30-11:30", "operator": "N\u00e1rodn\u00fd \u00fastav tuberkul\u00f3zy, p\u013e\u00facnych chor\u00f4b a hrudn\u00edkovej chirurgie Vy\u0161n\u00e9 H\u00e1gy"}}, {"type": "node", "id": 12069620229, "lat": 49.2701644, "lon": 20.2651119, "tags": {"amenity": "pharmacy", "branch": "\u017ddiar", "brand": "Va\u0161a Lek\u00e1re\u0148", "brand:wikidata": "Q108368884", "contact:phone": "+421 52 449 84 98", "healthcare": "pharmacy", "name": "Va\u0161a Lek\u00e1re\u0148", "opening_hours": "Mo-Fr 08:00-14:30", "website": "https://www.vasalekaren.sk/"}}, {"type": "node", "id": 12146937534, "lat": 49.1385413, "lon": 20.2199829, "tags": {"amenity": "pharmacy", "dispensing": "yes", "healthcare": "pharmacy", "opening_hours": "Mo-Fr 07:30-12:00,12:30-15:00"}}, {"type": "way", "id": 156571648, "nodes": [1687946277, 9208250750, 1687946370, 1687946359, 1687946425, 6364667436, 1687946385, 1687946373, 1687946499, 1687946641, 1687946469, 1687946277], "tags": {"addr:city": "Trsten\u00e1", "addr:conscriptionnumber": "219", "addr:country": "SK", "addr:housenumber": "219/29", "addr:postcode": "02801", "addr:street": "Bernol\u00e1kova", "addr:streetnumber": "29", "addr:suburb": "Trsten\u00e1", "amenity": "pharmacy", "brand": "Dr. Max", "brand:wikidata": "Q56317371", "building": "yes", "dispensing": "yes", "healthcare": "pharmacy", "name": "Dr. Max", "ref:minvskaddress": "8134137", "source": "kapor2", "source:addr": "minvskaddress 2021-10"}}, {"type": "way", "id": 443452508, "nodes": [4410340503, 4410340501, 4410340498, 4410340499, 4410340496, 4410340497, 4410340502, 4410340504, 4410340503], "tags": {"addr:city": "Poronin", "addr:city:simc": "0468810", "addr:housenumber": "97", "addr:postcode": "34-520", "addr:street": "J\u00f3zefa Pi\u0142sudskiego", "addr:street:sym_ul": "16264", "amenity": "pharmacy", "building": "yes", "check_date": "2025-07-28", "dispensing": "yes", "name": "Apteka Prima", "opening_hours": "Mo-Fr 08:00-22:00; Sa 08:00-20:00;Su 10:00-18:00", "phone": "+48 182637350", "ref:csioz": "1227442", "source:addr": "emuia.gugik.gov.pl"}}, {"type": "way", "id": 443466188, "nodes": [4410529109, 4410529100, 4410529102, 4410529070, 4410529067, 4410529068, 4410529065, 4410529104, 4410529109], "tags": {"addr:city": "Zakopane", "addr:city:simc": "0963773", "addr:housenumber": "7a", "addr:street": "Ustup", "addr:street:sym_ul": "33535", "amenity": "pharmacy", "building": "yes", "name": "Na Ustupie", "opening_hours": "Mo-Fr 09:00-20:00; Sa 08:00-14:00; Su off", "source:addr": "mzakopane.e-mapa.net"}}]}