{"version": 0.6, "generator": "Overpass API 0.7.62.8 e802775f", "osm3s": {"timestamp_osm_base": "2025-10-06T08:53:43Z", "copyright": "The data included in this document is from www.openstreetmap.org. The data is made available under ODbL."}, "elements": [{"type": "node", "id": 4362262583, "lat": 41.1736259, "lon": 27.4984417, "tags": {"amenity": "pharmacy", "healthcare": "pharmacy", "name": "G\u00fcler Eczanesi"}}, {"type": "node", "id": 4362262916, "lat": 41.1725575, "lon": 27.4961158, "tags": {"amenity": "pharmacy", "healthcare": "pharmacy", "name": "Merkez Eczane"}}, {"type": "node", "id": 4375898087, "lat": 41.1692904, "lon": 27.4996853, "tags": {"amenity": "pharmacy", "healthcare": "pharmacy", "name": "Muratl\u0131 Eczanesi"}}, {"type": "node", "id": 4375898498, "lat": 41.1693554, "lon": 27.499459, "tags": {"amenity": "pharmacy", "healthcare": "pharmacy", "name": "I\u015f\u0131k Eczanesi"}}, {"type": "node", "id": 4375898500, "lat": 41.169289, "lon": 27.4993583, "tags": {"amenity": "pharmacy", "healthcare": "pharmacy", "name": "Zafer Eczanesi"}}, {"type": "node", "id": 4375898502, "lat": 41.1692669, "lon": 27.4993165, "tags": {"amenity": "pharmacy", "healthcare": "pharmacy", "name": "Bayram Eczanesi"}}, {"type": "node", "id": 4691667701, "lat": 41.1584869, "lon": 27.8074037, "tags": {"amenity": "pharmacy", "healthcare": "pharmacy", "name": "\u00d6znur Eczanesi"}}, {"type": "node", "id": 5221138275, "lat": 41.4407721, "lon": 27.5860717, "tags": {"addr:city": "Ahmetbey", "addr:district": "L\u00fcleburgaz", "addr:neighbourhood": "G\u00fcndo\u011fu Mahallesi", "amenity": "pharmacy", "healthcare": "pharmacy", "name": "T\u00fclay Eczanesi"}}, {"type": "node", "id": 5468568079, "lat": 41.3005533, "lon": 27.5448257, "tags": {"addr:city": "B\u00fcy\u00fckkar\u0131\u015ft\u0131ran", "addr:district": "L\u00fcleburgaz", "addr:neighbourhood": "Yeni Mahalle", "addr:postcode": "39780", "addr:street": "Atat\u00fcrk Caddesi", "amenity": "pharmacy", "dispensing": "yes", "healthcare": "pharmacy", "name": "Deniz Eczanesi"}}, {"type": "node", "id": 5538758520, "lat": 41.1726963, "lon": 27.4960521, "tags": {"alt_name": "Eczane Tokg\u00f6z", "amenity": "pharmacy", "healthcare": "pharmacy", "name": "Tokg\u00f6z Eczanesi"}}, {"type": "node", "id": 6388218208, "lat": 41.1523622, "lon": 27.7985775, "tags": {"amenity": "pharmacy", "healthcare": "pharmacy", "name": "Menek\u015fe Eczanesi"}}, {"type": "node", "id": 6600901605, "lat": 41.4006347, "lon": 27.3715199, "tags": {"addr:city": "L\u00fcleburgaz", "addr:country": "TR", "addr:district": "L\u00fcleburgaz", "addr:province": "K\u0131rklareli", "amenity": "pharmacy", "healthcare": "pharmacy", "name": "Serdar Eczanesi"}}, {"type": "node", "id": 6600901784, "lat": 41.4027352, "lon": 27.3502406, "tags": {"addr:city": "L\u00fcleburgaz", "addr:country": "TR", "addr:district": "L\u00fcleburgaz", "addr:housenumber": "26/B", "addr:neighbourhood": "H\u00fcrriyet Mahallesi", "addr:province": "K\u0131rklareli", "addr:street": "Murat H\u00fcdavendigar Caddesi", "amenity": "pharmacy", "healthcare": "pharmacy", "name": "Sinem Eczanesi"}}, {"type": "node", "id": 7013473402, "lat": 41.1567441, "lon": 27.8033496, "tags": {"addr:street": "Mand\u0131rac\u0131 2 Aral\u0131k Sokak", "amenity": "pharmacy", "healthcare": "pharmacy", "name": "Yenig\u00fcl Eczanesi"}}, {"type": "node", "id": 7013486416, "lat": 41.1609089, "lon": 27.8011911, "tags": {"alt_name": "Eczane \u00c7orlu", "amenity": "pharmacy", "healthcare": "pharmacy", "name": "\u00c7orlu Eczanesi"}}, {"type": "node", "id": 7013487406, "lat": 41.1533591, "lon": 27.8146129, "tags": {"addr:street": "\u00c7a\u011fla Sokak", "amenity": "pharmacy", "healthcare": "pharmacy", "name": "Vera Eczanesi"}}, {"type": "node", "id": 7316772316, "lat": 41.1500299, "lon": 27.8343283, "tags": {"amenity": "pharmacy", "dispensing": "yes", "healthcare": "pharmacy"}}, {"type": "node", "id": 7326337145, "lat": 41.1555025, "lon": 27.8115321, "tags": {"amenity": "pharmacy", "dispensing": "yes", "healthcare": "pharmacy", "name": "Akay Eczanesi"}}, {"type": "node", "id": 7344623788, "lat": 41.1450115, "lon": 27.832669, "tags": {"amenity": "pharmacy", "dispensing": "yes", "healthcare": "pharmacy", "name": "Berk Eczanesi"}}, {"type": "node", "id": 9607667790, "lat": 41.3982907, "lon": 27.3533679, "tags": {"addr:city": "L\u00fcleburgaz", "addr:district": "L\u00fcleburgaz", "addr:housenumber": "62/A", "addr:neighbourhood": "H\u00fcrriyet Mahallesi", "addr:street": "\u0130stasyon Caddesi", "amenity": "pharmacy", "dispensing": "yes", "healthcare": "pharmacy", "name": "Ak\u0131n Eczanesi"}}, {"type": "node", "id": 9607667792, "lat": 41.4001983, "lon": 27.3500918, "tags": {"addr:city": "L\u00fcleburgaz", "addr:district": "L\u00fcleburgaz", "addr:housenumber": "21/B", "addr:neighbourhood": "H\u00fcrriyet Mahallesi", "addr:street": "G\u00fcven Sokak", "amenity": "pharmacy", "dispensing": "yes", "healthcare": "pharmacy", "name": "Arzu Eczanesi"}}, {"type": "node", "id": 9607667793, "lat": 41.3997232, "lon": 27.3669675, "tags": {"addr:city": "L\u00fcleburgaz", "addr:district": "L\u00fcleburgaz", "addr:housenumber": "33/A", "addr:neighbourhood": "Y\u0131ld\u0131z Mahallesi", "addr:street": "\u00c7ermen Caddesi", "amenity": "pharmacy", "dispensing": "yes", "healthcare": "pharmacy", "name": "Atasoy Eczanesi"}}, {"type": "node", "id": 9607667794, "lat": 41.4063324, "lon": 27.3560027, "tags": {"addr:city": "L\u00fcleburgaz", "addr:district": "L\u00fcleburgaz", "addr:housenumber": "49", "addr:neighbourhood": "Yeni Mahalle", "addr:street": "Fatih Caddesi", "amenity": "pharmacy", "dispensing": "yes", "healthcare": "pharmacy", "name": "Aysu Eczanesi"}}, {"type": "node", "id": 9607667795, "lat": 41.4002479, "lon": 27.3740106, "tags": {"amenity": "pharmacy", "dispensing": "yes", "healthcare": "pharmacy", "name": "Ay\u00e7a Eczanesi"}}, {"type": "node", "id": 9607667799, "lat": 41.4019066, "lon": 27.3639547, "tags": {"addr:city": "L\u00fcleburgaz", "addr:district": "L\u00fcleburgaz", "addr:housenumber": "71/A", "addr:neighbourhood": "Y\u0131ld\u0131z Mahallesi", "addr:street": "H\u00fcrriyet Caddesi", "amenity": "pharmacy", "dispensing": "yes", "healthcare": "pharmacy", "name": "\u015eifa Eczanesi"}}, {"type": "node", "id": 9607667800, "lat": 41.4019308, "lon": 27.3658558, "tags": {"addr:city": "L\u00fcleburgaz", "addr:district": "L\u00fcleburgaz", "addr:housenumber": "1/A", "addr:neighbourhood": "Y\u0131ld\u0131z Mahallesi", "addr:street": "\u0130brahim Erol Sokak", "amenity": "pharmacy", "dispensing": "yes", "healthcare": "pharmacy", "name": "G\u00f6n\u00fcl Eczanesi"}}, {"type": "node", "id": 9607667801, "lat": 41.3927322, "lon": 27.3586384, "tags": {"addr:city": "L\u00fcleburgaz", "addr:district": "L\u00fcleburgaz", "addr:neighbourhood": "8 Kas\u0131m Mahallesi", "addr:street": "Nazif Balkan Caddesi", "amenity": "pharmacy", "dispensing": "yes", "healthcare": "pharmacy", "name": "Celayir Eczanesi"}}, {"type": "node", "id": 9607667802, "lat": 41.3928276, "lon": 27.3564722, "tags": {"addr:city": "L\u00fcleburgaz", "addr:district": "L\u00fcleburgaz", "addr:housenumber": "34/A", "addr:neighbourhood": "8 Kas\u0131m Mahallesi", "addr:street": "Nazif Balkan Caddesi", "amenity": "pharmacy", "dispensing": "yes", "healthcare": "pharmacy", "name": "Ecem Eczanesi", "wheelchair": "yes"}}, {"type": "node", "id": 9607667803, "lat": 41.4002971, "lon": 27.3641342, "tags": {"addr:city": "L\u00fcleburgaz", "addr:district": "L\u00fcleburgaz", "addr:housenumber": "19/D", "addr:neighbourhood": "Y\u0131ld\u0131z Mahallesi", "addr:street": "Mehmet Salih Ar\u0131 Caddesi", "amenity": "pharmacy", "dispensing": "yes", "healthcare": "pharmacy", "name": "Efe Eczanesi"}}, {"type": "node", "id": 9607667807, "lat": 41.4029451, "lon": 27.3663556, "tags": {"addr:city": "L\u00fcleburgaz", "addr:district": "L\u00fcleburgaz", "addr:housenumber": "135/A", "addr:neighbourhood": "Atat\u00fcrk Mahallesi", "addr:street": "\u0130stanbul Caddesi", "amenity": "pharmacy", "dispensing": "yes", "healthcare": "pharmacy", "name": "Elif Eczanesi"}}, {"type": "node", "id": 9607667808, "lat": 41.4090339, "lon": 27.3510244, "tags": {"addr:city": "L\u00fcleburgaz", "addr:district": "L\u00fcleburgaz", "addr:housenumber": "20/A", "addr:neighbourhood": "Y\u0131lmaz Mahallesi", "addr:street": "Edirne Caddesi", "amenity": "pharmacy", "dispensing": "yes", "healthcare": "pharmacy", "name": "Erdem Eczanesi"}}, {"type": "node", "id": 9607667809, "lat": 41.4092738, "lon": 27.3524471, "tags": {"addr:city": "L\u00fcleburgaz", "addr:district": "L\u00fcleburgaz", "addr:neighbourhood": "Y\u0131lmaz Mahallesi", "addr:street": "Edirne Caddesi", "amenity": "pharmacy", "dispensing": "yes", "healthcare": "pharmacy", "name": "Erman Eczanesi"}}, {"type": "node", "id": 9607667810, "lat": 41.4090273, "lon": 27.3538101, "tags": {"addr:city": "L\u00fcleburgaz", "addr:district": "L\u00fcleburgaz", "addr:neighbourhood": "\u00d6zerler Mahallesi", "addr:street": "Hasan A\u011fa \u00c7e\u015fme Sokak", "amenity": "pharmacy", "dispensing": "yes", "healthcare": "pharmacy", "name": "Ersin Eczanesi"}}, {"type": "node", "id": 9607667811, "lat": 41.4097308, "lon": 27.3515109, "tags": {"addr:city": "L\u00fcleburgaz", "addr:district": "L\u00fcleburgaz", "addr:housenumber": "1/A", "addr:neighbourhood": "Y\u0131lmaz Mahallesi", "addr:street": "Eski PTT Sokak", "amenity": "pharmacy", "dispensing": "yes", "healthcare": "pharmacy", "name": "Funda Eczanesi"}}, {"type": "node", "id": 9607667817, "lat": 41.4047737, "lon": 27.3695737, "tags": {"addr:city": "L\u00fcleburgaz", "addr:district": "L\u00fcleburgaz", "addr:neighbourhood": "Atat\u00fcrk Mahallesi", "addr:street": "Baysal Sokak", "amenity": "pharmacy", "dispensing": "yes", "healthcare": "pharmacy", "name": "G\u00fcne\u015f Eczanesi"}}, {"type": "node", "id": 9607667818, "lat": 41.4057342, "lon": 27.3571228, "tags": {"addr:city": "L\u00fcleburgaz", "addr:district": "L\u00fcleburgaz", "addr:housenumber": "14/A", "addr:neighbourhood": "Yeni Mahalle", "addr:street": "Fatih 3. Ara Sokak", "amenity": "pharmacy", "dispensing": "yes", "healthcare": "pharmacy", "name": "Gizem Eczanesi"}}, {"type": "node", "id": 9607667819, "lat": 41.4069605, "lon": 27.3544424, "tags": {"addr:city": "L\u00fcleburgaz", "addr:district": "L\u00fcleburgaz", "addr:neighbourhood": "\u00d6zerler Mahallesi", "addr:street": "Fatih Caddesi", "amenity": "pharmacy", "dispensing": "yes", "healthcare": "pharmacy", "name": "Pelin Eczanesi"}}, {"type": "node", "id": 9607667820, "lat": 41.4065855, "lon": 27.3549173, "tags": {"addr:city": "L\u00fcleburgaz", "addr:district": "L\u00fcleburgaz", "addr:housenumber": "6/B", "addr:neighbourhood": "Yeni Mahalle", "addr:street": "Emrullah Efendi Caddesi", "amenity": "pharmacy", "dispensing": "yes", "healthcare": "pharmacy", "name": "Hande Eczanesi"}}, {"type": "node", "id": 9607667821, "lat": 41.4054332, "lon": 27.3546406, "tags": {"addr:city": "L\u00fcleburgaz", "addr:district": "L\u00fcleburgaz", "addr:housenumber": "57/E", "addr:neighbourhood": "Yeni Mahallesi", "addr:street": "\u0130stanbul Caddesi", "amenity": "pharmacy", "dispensing": "yes", "healthcare": "pharmacy", "name": "Hongurlar Eczanesi"}}, {"type": "node", "id": 9607667822, "lat": 41.4037409, "lon": 27.3553972, "tags": {"addr:city": "L\u00fcleburgaz", "addr:district": "L\u00fcleburgaz", "addr:housenumber": "23/A", "addr:neighbourhood": "Kocasinan Mahallesi", "addr:street": "Okullar Caddesi", "amenity": "pharmacy", "dispensing": "yes", "healthcare": "pharmacy", "name": "Karap\u0131nar Eczanesi"}}, {"type": "node", "id": 9607667823, "lat": 41.3976907, "lon": 27.3786197, "tags": {"amenity": "pharmacy", "dispensing": "yes", "healthcare": "pharmacy", "name": "K\u0131van\u00e7 Eczanesi"}}, {"type": "node", "id": 9607667825, "lat": 41.4088979, "lon": 27.352483, "tags": {"addr:city": "L\u00fcleburgaz", "addr:district": "L\u00fcleburgaz", "addr:housenumber": "25/A", "addr:neighbourhood": "Y\u0131lmaz Mahallesi", "addr:street": "Eski K\u0131rklareli Caddesi", "amenity": "pharmacy", "dispensing": "yes", "healthcare": "pharmacy", "name": "Do\u011fa Eczanesi"}}, {"type": "node", "id": 9607667826, "lat": 41.4004807, "lon": 27.3545918, "tags": {"addr:city": "L\u00fcleburgaz", "addr:district": "L\u00fcleburgaz", "addr:housenumber": "41/1", "addr:neighbourhood": "Kurtulu\u015f Mahallesi", "addr:street": "\u0130stasyon Caddesi", "amenity": "pharmacy", "dispensing": "yes", "healthcare": "pharmacy", "name": "L\u00fcleburgaz Eczanesi"}}, {"type": "node", "id": 9607667827, "lat": 41.4081267, "lon": 27.3329351, "tags": {"addr:city": "L\u00fcleburgaz", "addr:district": "L\u00fcleburgaz", "addr:neighbourhood": "Dere Mahallesi", "addr:street": "Cumhuriyet Caddesi", "amenity": "pharmacy", "dispensing": "yes", "healthcare": "pharmacy", "name": "Mehtap Eczanesi", "wheelchair": "yes"}}, {"type": "node", "id": 9607667828, "lat": 41.4086815, "lon": 27.3538439, "tags": {"addr:city": "L\u00fcleburgaz", "addr:district": "L\u00fcleburgaz", "addr:housenumber": "35/A", "addr:neighbourhood": "\u00d6zerler Mahallesi", "addr:street": "Kemal Kendi Caddesi", "amenity": "pharmacy", "dispensing": "yes", "healthcare": "pharmacy", "name": "Nedim Eczanesi"}}, {"type": "node", "id": 9607667829, "lat": 41.4068458, "lon": 27.3527575, "tags": {"addr:city": "L\u00fcleburgaz", "addr:district": "L\u00fcleburgaz", "addr:housenumber": "8/A", "addr:neighbourhood": "Kocasinan Mahallesi", "addr:street": "\u0130stanbul Caddesi", "amenity": "pharmacy", "dispensing": "yes", "healthcare": "pharmacy", "name": "Okyay Eczanesi"}}, {"type": "node", "id": 9607667830, "lat": 41.4090125, "lon": 27.3532996, "tags": {"addr:city": "L\u00fcleburgaz", "addr:district": "L\u00fcleburgaz", "addr:neighbourhood": "Y\u0131lmaz Mahallesi", "addr:street": "Edirne Caddesi", "amenity": "pharmacy", "dispensing": "yes", "healthcare": "pharmacy", "name": "Pi\u015fkin Eczanesi"}}, {"type": "node", "id": 9607667831, "lat": 41.3956298, "lon": 27.3451262, "tags": {"addr:city": "L\u00fcleburgaz", "addr:district": "L\u00fcleburgaz", "addr:housenumber": "34/B", "addr:neighbourhood": "Gen\u00e7lik Mahallesi", "addr:postcode": "39750", "addr:street": "Selami \u015ea\u015fmaz Caddesi", "amenity": "pharmacy", "dispensing": "yes", "healthcare": "pharmacy", "name": "Sa\u011fl\u0131k Eczanesi"}}, {"type": "node", "id": 9607667832, "lat": 41.3956747, "lon": 27.344951, "tags": {"addr:city": "L\u00fcleburgaz", "addr:district": "L\u00fcleburgaz", "addr:neighbourhood": "Gen\u00e7lik Mahallesi", "addr:postcode": "39750", "addr:street": "Selami \u015ea\u015fmaz Caddesi", "amenity": "pharmacy", "dispensing": "yes", "healthcare": "pharmacy", "name": "Su Eczanesi"}}, {"type": "node", "id": 9607667833, "lat": 41.4080563, "lon": 27.3520926, "tags": {"addr:city": "L\u00fcleburgaz", "addr:district": "L\u00fcleburgaz", "addr:housenumber": "5/B", "addr:neighbourhood": "Y\u0131lmaz Mahallesi", "addr:street": "Turgutbey Caddesi", "amenity": "pharmacy", "dispensing": "yes", "healthcare": "pharmacy", "name": "Sokullu Eczanesi"}}, {"type": "node", "id": 9607667836, "lat": 41.4059843, "lon": 27.3519241, "tags": {"addr:city": "L\u00fcleburgaz", "addr:district": "L\u00fcleburgaz", "addr:housenumber": "14", "addr:neighbourhood": "Kocasinan Mahallesi", "addr:street": "Kereviz Sokak", "amenity": "pharmacy", "dispensing": "yes", "healthcare": "pharmacy", "name": "\u015e\u0131pka Eczanesi"}}, {"type": "node", "id": 9607667839, "lat": 41.4061317, "lon": 27.3561988, "tags": {"addr:city": "L\u00fcleburgaz", "addr:district": "L\u00fcleburgaz", "addr:housenumber": "30/A", "addr:neighbourhood": "Yeni Mahalle", "addr:street": "Fatih Caddesi", "amenity": "pharmacy", "dispensing": "yes", "healthcare": "pharmacy", "name": "\u00d6zalp Eczanesi"}}, {"type": "node", "id": 9607667840, "lat": 41.4068484, "lon": 27.3531426, "tags": {"addr:city": "L\u00fcleburgaz", "addr:district": "L\u00fcleburgaz", "addr:housenumber": "49/A", "addr:neighbourhood": "\u00d6zerler Mahallesi", "addr:street": "\u0130stanbul Caddesi", "amenity": "pharmacy", "dispensing": "yes", "healthcare": "pharmacy", "name": "\u00d6zen Eczanesi"}}, {"type": "node", "id": 9607667841, "lat": 41.4000298, "lon": 27.3514648, "tags": {"addr:city": "L\u00fcleburgaz", "addr:district": "L\u00fcleburgaz", "addr:housenumber": "13/B", "addr:neighbourhood": "H\u00fcrriyet Mahallesi", "addr:street": "G\u00fcven Sokak", "amenity": "pharmacy", "dispensing": "yes", "healthcare": "pharmacy", "name": "\u0130la\u00e7 Evi Eczanesi"}}, {"type": "node", "id": 9607667842, "lat": 41.4001738, "lon": 27.3502163, "tags": {"addr:city": "L\u00fcleburgaz", "addr:district": "L\u00fcleburgaz", "addr:housenumber": "21/A", "addr:neighbourhood": "H\u00fcrriyet Mahallesi", "addr:street": "G\u00fcven Sokak", "amenity": "pharmacy", "dispensing": "yes", "healthcare": "pharmacy", "name": "\u0130pek Eczanesi"}}, {"type": "node", "id": 9607667844, "lat": 41.4090143, "lon": 27.3515531, "tags": {"addr:city": "L\u00fcleburgaz", "addr:district": "L\u00fcleburgaz", "addr:housenumber": "41/G", "addr:neighbourhood": "Y\u0131lmaz Mahallesi", "addr:street": "Edirne Caddesi", "amenity": "pharmacy", "dispensing": "yes", "healthcare": "pharmacy", "name": "\u015eenay Eczanesi"}}, {"type": "node", "id": 9968825374, "lat": 41.1522177, "lon": 27.8311432, "tags": {"amenity": "pharmacy", "healthcare": "pharmacy", "name": "Eczane"}}, {"type": "node", "id": 9968827227, "lat": 41.1569313, "lon": 27.8109588, "tags": {"amenity": "pharmacy", "healthcare": "pharmacy", "name": "Semra Eczanesi"}}, {"type": "node", "id": 9968832284, "lat": 41.1538201, "lon": 27.8285385, "tags": {"amenity": "pharmacy", "healthcare": "pharmacy", "name": "Deva Eczanesi", "phone": "6734036"}}, {"type": "node", "id": 10968340567, "lat": 41.1539869, "lon": 27.8286105, "tags": {"amenity": "pharmacy", "healthcare": "pharmacy", "name": "Beg\u00fcm Dikmen Eczanesi"}}, {"type": "node", "id": 10968348573, "lat": 41.1505418, "lon": 27.8303114, "tags": {"alt_name": "Eczane Melis", "amenity": "pharmacy", "healthcare": "pharmacy", "name": "Melis Eczanesi"}}, {"type": "node", "id": 11162703905, "lat": 41.184087, "lon": 27.7669546, "tags": {"addr:city": "Sa\u011fl\u0131k", "addr:district": "Ergene", "addr:neighbourhood": "Sa\u011fl\u0131k Mahallesi", "amenity": "pharmacy", "healthcare": "pharmacy", "name": "Kurtg\u00f6z Eczanesi"}}, {"type": "node", "id": 11162704705, "lat": 41.1842662, "lon": 27.7669594, "tags": {"addr:city": "Sa\u011fl\u0131k", "addr:district": "Ergene", "addr:neighbourhood": "Sa\u011fl\u0131k Mahallesi", "amenity": "pharmacy", "healthcare": "pharmacy", "name": "\u00d6zgenur Eczanesi"}}, {"type": "node", "id": 11294480807, "lat": 41.1739033, "lon": 27.498416, "tags": {"amenity": "pharmacy", "healthcare": "pharmacy", "name": "Do\u011fa Eczanesi", "phone": "+902823616171"}}, {"type": "node", "id": 11298870946, "lat": 41.1684289, "lon": 27.5040437, "tags": {"amenity": "pharmacy", "healthcare": "pharmacy", "name": "Hacettepe Eczanesi"}}, {"type": "node", "id": 11394793427, "lat": 41.1564465, "lon": 27.8385057, "tags": {"addr:city": "Esentepe", "addr:district": "\u00c7orlu", "addr:neighbourhood": "Esentepe Mahallesi", "amenity": "pharmacy", "healthcare": "pharmacy", "name": "Demir Eczanesi"}}, {"type": "node", "id": 11394808214, "lat": 41.1576577, "lon": 27.8386386, "tags": {"addr:city": "\u00c7orlu", "addr:district": "\u00c7orlu", "addr:neighbourhood": "Esentepe Mahallesi", "amenity": "pharmacy", "healthcare": "pharmacy", "name": "G\u00f6zde Eczanesi"}}, {"type": "node", "id": 11556747857, "lat": 41.1530803, "lon": 27.7981254, "tags": {"amenity": "pharmacy", "healthcare": "pharmacy", "name": "Can Eczanesi"}}, {"type": "node", "id": 11664659335, "lat": 41.30068, "lon": 27.5454732, "tags": {"addr:city": "B\u00fcy\u00fckkar\u0131\u015ft\u0131ran", "addr:district": "L\u00fcleburgaz", "addr:neighbourhood": "Yeni Mahalle", "addr:postcode": "39780", "addr:street": "Atat\u00fcrk Caddesi", "amenity": "pharmacy", "healthcare": "pharmacy", "name": "Can Eczanesi"}}, {"type": "node", "id": 11831454937, "lat": 41.1618512, "lon": 27.8006525, "tags": {"amenity": "pharmacy", "name": "Okay Eczanesi"}}, {"type": "node", "id": 12787983407, "lat": 41.3900317, "lon": 27.3613058, "tags": {"addr:city": "L\u00fcleburgaz", "addr:district": "L\u00fcleburgaz", "addr:neighbourhood": "Zafer Mahallesi", "addr:street": "Emel Caddesi", "amenity": "pharmacy", "healthcare": "pharmacy", "name": "Utku Eczanesi"}}, {"type": "node", "id": 12787983408, "lat": 41.3947479, "lon": 27.3667511, "tags": {"addr:city": "L\u00fcleburgaz", "addr:district": "L\u00fcleburgaz", "addr:housenumber": "95/C", "addr:neighbourhood": "Y\u0131ld\u0131z Mahallesi", "addr:street": "Eski Bedir Caddesi", "amenity": "pharmacy", "healthcare": "pharmacy", "name": "Ya\u015fam Eczanesi", "wheelchair": "yes"}}, {"type": "node", "id": 12791085510, "lat": 41.4073006, "lon": 27.3580531, "tags": {"addr:city": "L\u00fcleburgaz", "addr:district": "L\u00fcleburgaz", "addr:housenumber": "57/A", "addr:neighbourhood": "Yeni Mahalle", "addr:street": "Hasan A\u011fa \u00c7e\u015fme Sokak", "amenity": "pharmacy", "healthcare": "pharmacy", "name": "Ay\u015fen Eczanesi"}}, {"type": "node", "id": 12791085511, "lat": 41.4000125, "lon": 27.3652081, "tags": {"addr:city": "L\u00fcleburgaz", "addr:district": "L\u00fcleburgaz", "addr:housenumber": "13/A", "addr:neighbourhood": "Y\u0131ld\u0131z Mahallesi", "addr:street": "\u0130brahim Erol Sokak", "amenity": "pharmacy", "healthcare": "pharmacy", "name": "Kaymaz Eczanesi"}}, {"type": "node", "id": 12791940787, "lat": 41.404554, "lon": 27.355823, "tags": {"addr:city": "L\u00fcleburgaz", "addr:district": "L\u00fcleburgaz", "addr:housenumber": "27/A", "addr:neighbourhood": "Yeni Mahalle", "addr:street": "\u0130stasyon Caddesi", "amenity": "pharmacy", "healthcare": "pharmacy", "name": "Cadde 39"}}, {"type": "node", "id": 12791940788, "lat": 41.4043856, "lon": 27.3691277, "tags": {"addr:city": "L\u00fcleburgaz", "addr:district": "L\u00fcleburgaz", "addr:housenumber": "1/A", "addr:neighbourhood": "Atat\u00fcrk Mahallesi", "addr:street": "Meltem Sokak", "amenity": "pharmacy", "healthcare": "pharmacy", "name": "Turgut Eczanesi"}}, {"type": "node", "id": 12791940789, "lat": 41.4041957, "lon": 27.3700247, "tags": {"addr:city": "L\u00fcleburgaz", "addr:district": "L\u00fcleburgaz", "addr:housenumber": "22/B", "addr:neighbourhood": "Atat\u00fcrk Mahallesi", "addr:street": "Duygu Caddesi", "amenity": "pharmacy", "healthcare": "pharmacy", "name": "Sibel Eczanesi"}}, {"type": "node", "id": 12791940790, "lat": 41.4043305, "lon": 27.3701051, "tags": {"addr:city": "L\u00fcleburgaz", "addr:district": "L\u00fcleburgaz", "addr:housenumber": "24/B", "addr:neighbourhood": "Atat\u00fcrk Mahallesi", "addr:street": "Duygu Caddesi", "amenity": "pharmacy", "healthcare": "pharmacy", "name": "Sibel Ece Eczanesi"}}, {"type": "node", "id": 12794683273, "lat": 41.3966359, "lon": 27.3722869, "tags": {"addr:city": "L\u00fcleburgaz", "addr:district": "L\u00fcleburgaz", "addr:housenumber": "50/C", "addr:neighbourhood": "\u0130stiklal Mahallesi", "addr:street": "G\u00f6rkem Sokak", "amenity": "pharmacy", "healthcare": "pharmacy", "name": "Bilge Eczanesi"}}, {"type": "node", "id": 12794683274, "lat": 41.400335, "lon": 27.3738725, "tags": {"addr:city": "L\u00fcleburgaz", "addr:district": "L\u00fcleburgaz", "addr:housenumber": "193/A", "addr:neighbourhood": "Atat\u00fcrk Mahallesi", "addr:street": "\u0130stanbul Caddesi", "amenity": "pharmacy", "healthcare": "pharmacy", "name": "\u0130rem Eczanesi"}}, {"type": "node", "id": 12794683275, "lat": 41.4007843, "lon": 27.3726196, "tags": {"addr:housenumber": "183/A", "addr:neighbourhood": "Atat\u00fcrk Mahallesi", "addr:street": "\u0130stanbul Caddesi", "amenity": "pharmacy", "healthcare": "pharmacy", "name": "Ya\u015far Eczanesi"}}, {"type": "node", "id": 12794683276, "lat": 41.3896664, "lon": 27.3658022, "tags": {"addr:city": "L\u00fcleburgaz", "addr:district": "L\u00fcleburgaz", "addr:housenumber": "53/A", "addr:neighbourhood": "Zafer Mahallesi", "addr:street": "\u00d6zg\u00fcrl\u00fck Caddesi", "amenity": "pharmacy", "healthcare": "pharmacy", "name": "Ar\u0131m Eczanesi"}}, {"type": "node", "id": 12794683277, "lat": 41.4004096, "lon": 27.3650711, "tags": {"addr:city": "L\u00fcleburgaz", "addr:district": "L\u00fcleburgaz", "addr:housenumber": "8/A", "addr:neighbourhood": "Y\u0131ld\u0131z Mahallesi", "addr:street": "Yoku\u015f Sokak", "amenity": "pharmacy", "dispensing": "yes", "drive_through": "no", "healthcare": "pharmacy", "name": "\u015eirin Eczanesi"}}, {"type": "node", "id": 12836780428, "lat": 41.1393854, "lon": 27.7983887, "tags": {"amenity": "pharmacy", "name": "Havuzlar Eczanesi"}}]}