{"version": 0.6, "generator": "Overpass API 0.7.62.8 e802775f", "osm3s": {"timestamp_osm_base": "2025-10-06T08:23:05Z", "copyright": "The data included in this document is from www.openstreetmap.org. The data is made available under ODbL."}, "elements": [{"type": "node", "id": 738650649, "lat": 51.1918297, "lon": 20.3913818, "tags": {"amenity": "pharmacy", "name": "Pod R\u00f3\u017cami"}}, {"type": "node", "id": 738657197, "lat": 51.1927886, "lon": 20.4113678, "tags": {"addr:city": "Ko\u0144skie", "addr:housenumber": "8A", "addr:postcode": "26-200", "addr:street": "Sp\u00f3\u0142dzielcza", "amenity": "pharmacy", "check_date": "2025-06-04", "drive_through": "no", "email": "kontakt@aptekakonska.pl", "healthcare": "pharmacy", "name": "Apteka Pod Zegarem", "phone": "41 375 14 11", "website": "http://aptekakonskie.pl"}}, {"type": "node", "id": 738665048, "lat": 51.1881409, "lon": 20.4055394, "tags": {"amenity": "pharmacy", "healthcare": "pharmacy"}}, {"type": "node", "id": 739413941, "lat": 51.1948314, "lon": 20.4055579, "tags": {"amenity": "pharmacy"}}, {"type": "node", "id": 1411609695, "lat": 51.186654, "lon": 20.4116881, "tags": {"amenity": "pharmacy", "dispensing": "yes"}}, {"type": "node", "id": 2290371909, "lat": 50.94908, "lon": 20.25128, "tags": {"addr:city": "\u0141opuszno", "addr:housenumber": "9", "addr:postcode": "26-070", "addr:street": "Rynek", "amenity": "pharmacy", "healthcare": "pharmacy", "name": "Zdrowie sp.j. Apteka. Kowalska J., Grzybowski M.", "phone": "41 391 42 60", "source": "UG \u0141opuszno"}}, {"type": "node", "id": 2912628138, "lat": 50.9914802, "lon": 20.6182763, "tags": {"amenity": "pharmacy", "mobile": "+48 41 300 34 18", "name": "Medica", "opening_hours": "Mo-Fr 08:00-19:00, Sa 08:00-14:00"}}, {"type": "node", "id": 3583888647, "lat": 50.9411249, "lon": 20.4213162}, {"type": "node", "id": 3583888744, "lat": 50.9410237, "lon": 20.4211946}, {"type": "node", "id": 3583888750, "lat": 50.9410478, "lon": 20.4212623}, {"type": "node", "id": 3583888818, "lat": 50.9411258, "lon": 20.4210223}, {"type": "node", "id": 3583889087, "lat": 50.9409955, "lon": 20.4211256}, {"type": "node", "id": 3583889092, "lat": 50.9410513, "lon": 20.4211975}, {"type": "node", "id": 3583889173, "lat": 50.941002, "lon": 20.4210056}, {"type": "node", "id": 3583889180, "lat": 50.9410275, "lon": 20.4211302}, {"type": "node", "id": 3583889824, "lat": 50.9410593, "lon": 20.4213074}, {"type": "node", "id": 3583889825, "lat": 50.9410616, "lon": 20.4212639}, {"type": "node", "id": 3710955826, "lat": 51.0131245, "lon": 20.1399064, "tags": {"addr:city:simc": "0269802", "addr:housenumber": "33a", "addr:place": "S\u0142upia", "addr:postcode": "26-234", "amenity": "pharmacy", "dispensing": "yes", "healthcare": "pharmacy", "name": "Apteka Mgr Bober Apteki Polskie", "ref:csioz": "1186731", "source:addr": "slupiakonecka.e-mapa.net"}}, {"type": "node", "id": 3969292943, "lat": 51.1945056, "lon": 20.4132669, "tags": {"addr:city": "Ko\u0144skie", "addr:housenumber": "3", "addr:postcode": "26-200", "addr:street": "Wojska Polskiego", "amenity": "pharmacy", "brand": "Dr. Max", "brand:wikidata": "Q56317371", "check_date": "2025-06-04", "drive_through": "no", "healthcare": "pharmacy", "name": "Dr. Max"}}, {"type": "node", "id": 4168875897, "lat": 51.2664046, "lon": 19.9760761, "tags": {"addr:housenumber": "43", "addr:place": "Aleksandr\u00f3w", "addr:postcode": "26-337", "amenity": "pharmacy", "brand": "Dbam o Zdrowie", "brand:wikidata": "Q62563833", "dispensing": "yes", "drive_through": "yes", "healthcare": "pharmacy", "name": "Punkt Apteczny Dbam o Zdrowie", "phone": "+48 42 756 00 61", "ref:csioz": "1230845", "short_name": "DOZ"}}, {"type": "node", "id": 4594365599, "lat": 51.2660027, "lon": 19.9777359, "tags": {"addr:housenumber": "40D", "addr:place": "Aleksandr\u00f3w", "addr:postcode": "26-337", "amenity": "pharmacy", "brand": "Arnika", "dispensing": "yes", "healthcare": "pharmacy", "name": "Punkt Apteczny Arnika", "ref:csioz": "1025960"}}, {"type": "node", "id": 4648466993, "lat": 51.1475154, "lon": 20.2177102, "tags": {"addr:housenumber": "99 A", "addr:place": "Ruda Maleniecka", "addr:postcode": "26-242", "amenity": "pharmacy", "name": "Melisa Punkt Apteczny"}}, {"type": "node", "id": 7079664371, "lat": 51.0550339, "lon": 20.4003077, "tags": {"amenity": "pharmacy"}}, {"type": "node", "id": 7531698392, "lat": 51.1381217, "lon": 20.5605777, "tags": {"amenity": "pharmacy", "dispensing": "yes", "healthcare": "pharmacy", "name": "Pani Magister"}}, {"type": "node", "id": 9561424529, "lat": 50.9461286, "lon": 20.2530986, "tags": {"addr:city": "\u0141opuszno", "addr:housenumber": "5A", "addr:postcode": "26-070", "addr:street": "Stra\u017cacka", "amenity": "pharmacy", "email": "aptekamgrbober.lop2@wp.pl", "healthcare": "pharmacy", "name": "Apteka mgr Bober Apteki Polskie", "opening_hours": "Mo-Fr 08:00-18:00; Sa 08:00-12:00", "operator": "Bober -Pharm Sp.zo.o.", "phone": "+48 41 222 07 00", "ref:csioz": "1211133"}}, {"type": "node", "id": 9561424531, "lat": 50.9415569, "lon": 20.4200827, "tags": {"addr:city": "Strawczyn", "addr:housenumber": "26A", "addr:postcode": "26-067", "addr:street": "Stefana \u017beromskiego", "amenity": "pharmacy", "healthcare": "pharmacy", "name": "Apteka Mgr Bober Apteki Polskie", "ref:csioz": "1185791"}}, {"type": "node", "id": 9561424542, "lat": 51.0110397, "lon": 20.481505, "tags": {"addr:city": "MNI\u00d3W", "addr:housenumber": "6", "addr:postcode": "26-080", "addr:street": "Centralna", "amenity": "pharmacy", "healthcare": "pharmacy", "ref:csioz": "1000748"}}, {"type": "node", "id": 9561424546, "lat": 50.9799166, "lon": 20.5326688, "tags": {"addr:city": "\u0106mi\u0144sk", "addr:housenumber": "6", "addr:postcode": "26-085", "addr:street": "Stanis\u0142awa Staszica", "amenity": "pharmacy", "email": "punkt.cminsk@o2.pl", "healthcare": "pharmacy", "opening_hours": "Mo-Fr 08:30-15:30", "phone": "+48 41 303 40 23", "ref:csioz": "1004572"}}, {"type": "node", "id": 9561424548, "lat": 50.949442, "lon": 20.2509083, "tags": {"addr:city": "\u0141opuszno", "addr:housenumber": "2", "addr:postcode": "26-070", "addr:street": "Rynek", "amenity": "pharmacy", "email": "lopuszno@zdrowieapteki.pl", "healthcare": "pharmacy", "name": "Apteka Zdrowie", "opening_hours": "Mo-Fr 07:30-18:00; Sa 08:00-14:00", "phone": "+48 41 391 42 60", "ref:csioz": "1003907"}}, {"type": "node", "id": 9561424552, "lat": 50.9770972, "lon": 20.6610223, "tags": {"addr:city": "Zagna\u0144sk", "addr:housenumber": "8C", "addr:postcode": "26-050", "addr:street": "Spacerowa", "amenity": "pharmacy", "healthcare": "pharmacy", "name": "Farmacja", "ref:csioz": "1002669"}}, {"type": "node", "id": 9561424553, "lat": 50.9411399, "lon": 20.4210483}, {"type": "node", "id": 9561424559, "lat": 50.9487248, "lon": 20.2491313, "tags": {"addr:city": "\u0141opuszno", "addr:housenumber": "15", "addr:postcode": "26-070", "addr:street": "Przedborska", "amenity": "pharmacy", "email": "aptekamgrbober.lopuszno@wp.pl", "healthcare": "pharmacy", "name": "Apteka mgr Bober Apteki Polskie", "opening_hours": "Mo-Fr 08:00-17:00; Sa 08:00-14:00", "operator": "Bober -Pharm Sp.zo.o.", "phone": "+48 41 391 40 06", "ref:csioz": "1000217"}}, {"type": "node", "id": 9601721273, "lat": 51.1889402, "lon": 20.4102542, "tags": {"addr:city": "Ko\u0144skie", "addr:housenumber": "1B", "addr:postcode": "26-200", "addr:street": "16 Stycznia", "amenity": "pharmacy", "check_date": "2025-09-13", "dispensing": "yes", "drive_through": "no", "healthcare": "pharmacy", "name": "Quarta Decima", "phone": "41 372 27 27", "ref:csioz": "1002421"}}, {"type": "node", "id": 9601735457, "lat": 51.1917619, "lon": 20.4068682, "tags": {"addr:city": "Ko\u0144skie", "addr:housenumber": "3", "addr:postcode": "26-200", "addr:street": "Warszawska", "amenity": "pharmacy", "dispensing": "yes", "drive_through": "no", "healthcare": "pharmacy", "name": "Apteka S.C.", "operator": "Iwona Franczyk, Ewa Paszy\u0144ska", "ref:csioz": "1002744"}}, {"type": "node", "id": 9601735458, "lat": 51.0782477, "lon": 20.5482973, "tags": {"addr:housenumber": "52", "addr:place": "Krasna", "addr:postcode": "26-220", "amenity": "pharmacy", "dispensing": "yes", "ref:csioz": "1000053"}}, {"type": "node", "id": 9601744759, "lat": 51.1364457, "lon": 20.565122, "tags": {"addr:city": "St\u0105pork\u00f3w", "addr:housenumber": "4", "addr:postcode": "26-220", "addr:street": "Juliusza S\u0142owackiego", "amenity": "pharmacy", "dispensing": "yes", "ref:csioz": "1001866"}}, {"type": "node", "id": 9601745616, "lat": 51.1363181, "lon": 20.5284158, "tags": {"addr:housenumber": "43", "addr:place": "Czarniecka G\u00f3ra", "addr:postcode": "26-220", "amenity": "pharmacy", "dispensing": "yes", "name": "Dzia\u0142 Farmacji Szpitalnej", "ref:csioz": "1191831"}}, {"type": "node", "id": 9601747562, "lat": 51.1883603, "lon": 20.4113224, "tags": {"addr:city": "Ko\u0144skie", "addr:housenumber": "21", "addr:postcode": "26-200", "addr:street": "Zamkowa", "amenity": "pharmacy", "check_date": "2025-06-19", "dispensing": "yes", "name": "Apteka Melisa", "ref:csioz": "1004119"}}, {"type": "node", "id": 9601751285, "lat": 51.0718047, "lon": 20.2508488, "tags": {"addr:city": "Radoszyce", "addr:housenumber": "3a", "addr:postcode": "26-230", "addr:street": "Adama Mickiewicza", "amenity": "pharmacy", "dispensing": "yes", "healthcare": "pharmacy", "name": "Radoszycka", "ref:csioz": "1002026"}}, {"type": "node", "id": 9601753956, "lat": 51.2615117, "lon": 20.400203, "tags": {"addr:housenumber": "1A", "addr:place": "Ruda Bia\u0142aczowska", "addr:postcode": "26-225", "amenity": "pharmacy", "dispensing": "yes", "name": "Stowarzyszenie Opieki Paliatywno-Hospicyjnej Im. B\u0142. Ks. Kazimierza Sykulskiego W Rudzie Bia\u0142aczowskiej", "ref:csioz": "1224275"}}, {"type": "node", "id": 9601754608, "lat": 51.1347448, "lon": 20.1063817, "tags": {"amenity": "pharmacy", "dispensing": "yes", "ref:csioz": "1002634"}}, {"type": "node", "id": 9601758104, "lat": 51.190867, "lon": 20.3916461, "tags": {"addr:city": "Ko\u0144skie", "addr:housenumber": "41 B", "addr:postcode": "26-200", "addr:street": "Gimnazjalna", "amenity": "pharmacy", "dispensing": "yes", "healthcare": "pharmacy", "name": "Apteka Szpitalna", "ref:csioz": "1137978"}}, {"type": "node", "id": 9601760929, "lat": 51.1927655, "lon": 20.4082214, "tags": {"addr:city": "Ko\u0144skie", "addr:housenumber": "4", "addr:postcode": "26-200", "addr:street": "Sp\u00f3\u0142dzielcza", "amenity": "pharmacy", "dispensing": "yes", "drive_through": "no", "healthcare": "pharmacy", "name": "Apteka na Sp\u00f3\u0142dzielczej", "phone": "41 372 20 12", "ref:csioz": "1001498"}}, {"type": "node", "id": 9601760930, "lat": 51.1781377, "lon": 20.4079729, "tags": {"addr:city": "Ko\u0144skie", "addr:housenumber": "89", "addr:postcode": "26-200", "addr:street": "Po\u0142udniowa", "amenity": "pharmacy", "dispensing": "yes", "name": "S\u0142oneczna", "ref:csioz": "1003270"}}, {"type": "node", "id": 9601769004, "lat": 51.072204, "lon": 20.2500796, "tags": {"addr:city": "Radoszyce", "addr:housenumber": "2", "addr:postcode": "26-230", "addr:street": "Mickiewicza", "amenity": "pharmacy", "dispensing": "yes", "name": "Apteka Melisa", "ref:csioz": "1003791"}}, {"type": "node", "id": 9601773013, "lat": 51.1928524, "lon": 20.4091807, "tags": {"addr:city": "Ko\u0144skie", "addr:housenumber": "22", "addr:postcode": "26-200", "addr:street": "Sp\u00f3\u0142dzielcza", "amenity": "pharmacy", "check_date": "2025-06-14", "dispensing": "yes", "drive_through": "no", "healthcare": "pharmacy", "name": "Apteka Konecka", "phone": "+48 727 407 406", "ref:csioz": "1203887"}}, {"type": "node", "id": 9601776361, "lat": 51.1369204, "lon": 20.559515, "tags": {"addr:city": "St\u0105pork\u00f3w", "addr:housenumber": "1", "addr:postcode": "26-220", "addr:street": "1 Maja", "amenity": "pharmacy", "dispensing": "yes", "ref:csioz": "1001246"}}, {"type": "node", "id": 9601779110, "lat": 51.1375873, "lon": 20.5665748, "tags": {"addr:city": "St\u0105pork\u00f3w", "addr:housenumber": "125C", "addr:postcode": "26-220", "addr:street": "Marsza\u0142ka J\u00f3zefa Pi\u0142sudskiego", "amenity": "pharmacy", "dispensing": "yes", "healthcare": "pharmacy", "name": "Apteka Melisa", "ref:csioz": "1003082"}}, {"type": "node", "id": 9601793044, "lat": 51.0547407, "lon": 20.400297, "tags": {"addr:housenumber": "91", "addr:place": "Smyk\u00f3w", "addr:postcode": "26-212", "amenity": "pharmacy", "dispensing": "yes", "name": "Apteka Gminy Smyk\u00f3w", "ref:csioz": "1003147"}}, {"type": "node", "id": 9601794576, "lat": 51.1931163, "lon": 20.4031462, "tags": {"addr:city": "Ko\u0144skie", "addr:housenumber": "1A", "addr:postcode": "26-200", "addr:street": "3 Maja", "amenity": "pharmacy", "dispensing": "yes", "name": "Vita", "ref:csioz": "1002110"}}, {"type": "node", "id": 9601795081, "lat": 51.2789321, "lon": 20.4370533, "tags": {"addr:city": "Gowarcz\u00f3w", "addr:housenumber": "3", "addr:postcode": "26-225", "addr:street": "Stefana \u017beromskiego", "amenity": "pharmacy", "dispensing": "yes", "healthcare": "pharmacy", "name": "Apteka Lawendowa", "ref:csioz": "1187903"}}, {"type": "node", "id": 9601796179, "lat": 51.1078657, "lon": 20.0238611, "tags": {"addr:city": "Czermno", "addr:housenumber": "105", "addr:postcode": "26-260", "addr:street": "Ko\u015bcielna", "amenity": "pharmacy", "dispensing": "yes", "ref:csioz": "1119293"}}, {"type": "node", "id": 10240856574, "lat": 51.2484101, "lon": 20.1710046, "tags": {"amenity": "pharmacy", "dispensing": "yes", "healthcare": "pharmacy", "ref:csioz": "1114400"}}, {"type": "node", "id": 10240856575, "lat": 51.2473792, "lon": 20.172171, "tags": {"amenity": "pharmacy", "dispensing": "yes", "healthcare": "pharmacy", "ref:csioz": "1017075"}}, {"type": "node", "id": 10240856586, "lat": 51.3035395, "lon": 20.110707, "tags": {"amenity": "pharmacy", "dispensing": "yes", "healthcare": "pharmacy", "name": "Punkt Apteczny", "ref:csioz": "1016140"}}, {"type": "node", "id": 10240856602, "lat": 51.2986466, "lon": 20.2960064, "tags": {"amenity": "pharmacy", "dispensing": "yes", "healthcare": "pharmacy", "name": "Koniczynka Bia\u0142acz\u00f3w", "ref:csioz": "1215383"}}, {"type": "node", "id": 11453258821, "lat": 51.2729736, "lon": 20.4426975, "tags": {"amenity": "pharmacy", "name": "Apteka Lawendowa"}}, {"type": "way", "id": 352630278, "nodes": [9561424553, 3583888818, 3583889173, 3583889087, 3583889180, 3583888744, 3583889092, 3583888750, 3583889825, 3583889824, 3583888647, 9561424553], "tags": {"addr:city": "Strawczyn", "addr:city:simc": "0273991", "addr:housenumber": "1", "addr:postcode": "26-067", "addr:street": "Szkolna", "addr:street:sym_ul": "21970", "amenity": "pharmacy", "building": "yes", "healthcare": "pharmacy", "name": "Na Szkolnej", "ref:csioz": "1002476", "source:addr": "strawczyn.e-mapa.net"}}]}