{"version": 0.6, "generator": "Overpass API 0.7.62.8 e802775f", "osm3s": {"timestamp_osm_base": "2025-10-06T08:20:01Z", "copyright": "The data included in this document is from www.openstreetmap.org. The data is made available under ODbL."}, "elements": [{"type": "node", "id": 417910655, "lat": 50.79792, "lon": 19.52416, "tags": {"addr:city": "Przyr\u00f3w", "amenity": "pharmacy", "healthcare": "pharmacy"}}, {"type": "node", "id": 1039439566, "lat": 50.847762, "lon": 19.9727023, "tags": {"amenity": "pharmacy", "healthcare": "pharmacy", "name": "Apteka \"Plus\""}}, {"type": "node", "id": 1327899145, "lat": 50.772388, "lon": 19.6755803, "tags": {"amenity": "pharmacy", "healthcare": "pharmacy"}}, {"type": "node", "id": 1327899153, "lat": 50.7791724, "lon": 19.6946776, "tags": {"amenity": "pharmacy", "healthcare": "pharmacy", "name": "Apteka"}}, {"type": "node", "id": 1327899156, "lat": 50.7737439, "lon": 19.6859504, "tags": {"amenity": "pharmacy", "healthcare": "pharmacy"}}, {"type": "node", "id": 1422213183, "lat": 50.8543968, "lon": 19.9667288, "tags": {"amenity": "pharmacy", "healthcare": "pharmacy"}}, {"type": "node", "id": 1423401121, "lat": 50.8513748, "lon": 19.9680644, "tags": {"amenity": "pharmacy", "healthcare": "pharmacy"}}, {"type": "node", "id": 1423401123, "lat": 50.8496003, "lon": 19.9726298, "tags": {"amenity": "pharmacy", "healthcare": "pharmacy", "name": "Apteka"}}, {"type": "node", "id": 1872847105, "lat": 51.0704646, "lon": 19.4493558, "tags": {"amenity": "pharmacy", "dispensing": "yes", "healthcare": "pharmacy", "name": "Zdrowie", "ref:csioz": "1013375"}}, {"type": "node", "id": 2012968026, "lat": 51.0598672, "lon": 19.454199, "tags": {"addr:city": "Radomsko", "addr:housenumber": "20D", "addr:postcode": "97-500", "addr:street": "Piastowska", "amenity": "pharmacy", "dispensing": "yes", "healthcare": "pharmacy", "name": "Piastowska", "opening_hours": "08:00-21:00", "phone": "+48 44 6833642", "ref:csioz": "1022593"}}, {"type": "node", "id": 2012968027, "lat": 51.0609889, "lon": 19.4531025, "tags": {"amenity": "pharmacy", "dispensing": "yes", "healthcare": "pharmacy", "name": "Premium", "ref:csioz": "1019268"}}, {"type": "node", "id": 2018960663, "lat": 51.0599473, "lon": 19.4462616, "tags": {"amenity": "pharmacy", "dispensing": "yes", "healthcare": "pharmacy", "name": "Kwiaty Polskie", "ref:csioz": "1025216"}}, {"type": "node", "id": 2018960668, "lat": 51.0666248, "lon": 19.4451893, "tags": {"amenity": "pharmacy", "brand": "Dbam o Zdrowie", "brand:wikidata": "Q62563833", "dispensing": "yes", "healthcare": "pharmacy", "name": "Dbam o Zdrowie", "ref:csioz": "1024220", "short_name": "DOZ"}}, {"type": "node", "id": 2018960669, "lat": 51.0579468, "lon": 19.446568, "tags": {"amenity": "pharmacy", "brand": "Gemini", "dispensing": "yes", "healthcare": "pharmacy", "name": "Gemini", "ref:csioz": "1009417"}}, {"type": "node", "id": 2018960672, "lat": 51.0689858, "lon": 19.4485477, "tags": {"amenity": "pharmacy", "brand": "Medica", "dispensing": "yes", "healthcare": "pharmacy", "name": "Medica", "ref:csioz": "1198228"}}, {"type": "node", "id": 2061704737, "lat": 51.0704947, "lon": 19.451351, "tags": {"amenity": "pharmacy", "dispensing": "yes", "healthcare": "pharmacy", "name": "Z U\u015bmiechem", "ref:csioz": "1021851"}}, {"type": "node", "id": 2100677200, "lat": 51.0620436, "lon": 19.4507644, "tags": {"amenity": "pharmacy", "dispensing": "yes", "healthcare": "pharmacy", "name": "Codzienna Drive", "ref:csioz": "1218939"}}, {"type": "node", "id": 2121007860, "lat": 51.0574847, "lon": 19.4470007, "tags": {"amenity": "pharmacy", "dispensing": "yes", "healthcare": "pharmacy", "name": "Sowa", "ref:csioz": "1203241"}}, {"type": "node", "id": 2208492451, "lat": 51.0573156, "lon": 19.458807, "tags": {"amenity": "pharmacy", "dispensing": "yes", "healthcare": "pharmacy", "ref:csioz": "1025820"}}, {"type": "node", "id": 3622470584, "lat": 51.0636684, "lon": 19.4440398, "tags": {"amenity": "pharmacy", "brand": "Dbam o Zdrowie", "brand:wikidata": "Q62563833", "healthcare": "pharmacy", "name": "Dbam o Zdrowie", "ref:csioz": "1223224", "short_name": "DOZ", "source:disused": "Rejestr aptek MZ"}}, {"type": "node", "id": 4687026280, "lat": 50.8517472, "lon": 19.9675394, "tags": {"amenity": "pharmacy", "healthcare": "pharmacy", "name": "Apteka Codzienna", "opening_hours": "Mo-Fr 07:30-20:00; Sa 08:00-15:00"}}, {"type": "node", "id": 5501947693, "lat": 51.1057473, "lon": 19.785432, "tags": {"amenity": "pharmacy", "brand": "Dbam o Zdrowie", "brand:wikidata": "Q62563833", "dispensing": "yes", "healthcare": "pharmacy", "name": "Punkt Apteczny Dbam o Zdrowie", "ref:csioz": "1113871", "short_name": "DOZ"}}, {"type": "node", "id": 5891563166, "lat": 51.2086342, "lon": 19.7240732, "tags": {"amenity": "pharmacy", "brand": "Arnika", "dispensing": "yes", "healthcare": "pharmacy", "name": "Punkt Apteczny Arnika", "ref:csioz": "1193152"}}, {"type": "node", "id": 6402197115, "lat": 51.1903438, "lon": 19.8535279, "tags": {"addr:city": "R\u0119czno", "addr:city:simc": "0549884", "addr:housenumber": "58", "addr:postcode": "97-510", "addr:street": "G\u0142\u00f3wna", "addr:street:sym_ul": "05635", "amenity": "pharmacy", "dispensing": "yes", "healthcare": "pharmacy", "opening_hours": "Mo-Fr 08:00-18:00; Sa 08:00-12:00", "phone": "44 781 32 66", "ref:csioz": "1214935"}}, {"type": "node", "id": 6510557630, "lat": 51.070173, "lon": 19.4294811, "tags": {"amenity": "pharmacy", "dispensing": "yes", "healthcare": "pharmacy", "name": "Medica 2", "ref:csioz": "1185677", "source": "geoportal.gov.pl"}}, {"type": "node", "id": 6588826764, "lat": 51.0731617, "lon": 19.4387953, "tags": {"amenity": "pharmacy", "check_date": "2025-07-16", "dispensing": "yes", "drive_through": "no", "healthcare": "pharmacy", "name": "Apteka Radosna", "opening_hours": "07:00-22:00", "ref:csioz": "1213889"}}, {"type": "node", "id": 8193732764, "lat": 50.8415501, "lon": 19.5573332, "tags": {"amenity": "pharmacy", "healthcare": "pharmacy"}}, {"type": "node", "id": 8808868545, "lat": 50.8467224, "lon": 19.9727805, "tags": {"amenity": "pharmacy", "healthcare": "pharmacy", "name": "Apteka Plus", "opening_hours": "Mo-Sa 07:30-20:00; Su 08:00-20:00"}}, {"type": "node", "id": 10241934641, "lat": 51.1906202, "lon": 19.8516344, "tags": {"amenity": "pharmacy", "brand": "Dbam o Zdrowie", "brand:wikidata": "Q62563833", "dispensing": "yes", "healthcare": "pharmacy", "name": "Dbam o Zdrowie", "opening_hours": "Mo-Fr 08:00-17:00; Sa 08:00-15:00", "phone": "44 7318026", "ref:csioz": "1020339", "short_name": "DOZ", "website": "https://www.doz.pl/apteki/a142654-DOZ_Apteka._Dbam_o_Zdrowie"}}, {"type": "node", "id": 10281889110, "lat": 51.0896001, "lon": 19.8688907, "tags": {"amenity": "pharmacy", "dispensing": "yes", "healthcare": "pharmacy", "name": "Vita", "ref:csioz": "1019284"}}, {"type": "node", "id": 10281889116, "lat": 51.0892068, "lon": 19.8715608, "tags": {"amenity": "pharmacy", "brand": "Dbam o Zdrowie", "brand:wikidata": "Q62563833", "dispensing": "yes", "healthcare": "pharmacy", "name": "Dbam o Zdrowie", "ref:csioz": "1201962", "short_name": "DOZ"}}, {"type": "node", "id": 10281889128, "lat": 51.10169, "lon": 19.6284844, "tags": {"amenity": "pharmacy", "dispensing": "yes", "healthcare": "pharmacy", "name": "Punkt Apteczny", "ref:csioz": "1231207"}}, {"type": "node", "id": 10282711272, "lat": 50.8768615, "lon": 19.691575, "tags": {"amenity": "pharmacy", "dispensing": "yes", "healthcare": "pharmacy", "name": "Punkt Apteczny", "ref:csioz": "1023312"}}, {"type": "node", "id": 10282783361, "lat": 50.9269744, "lon": 19.6279471, "tags": {"amenity": "pharmacy", "dispensing": "yes", "healthcare": "pharmacy", "ref:csioz": "1019774"}}, {"type": "node", "id": 10282783362, "lat": 51.0125655, "lon": 19.760583, "tags": {"amenity": "pharmacy", "brand": "Dbam o Zdrowie", "brand:wikidata": "Q62563833", "dispensing": "yes", "healthcare": "pharmacy", "name": "Dbam o Zdrowie", "ref:csioz": "1224124", "short_name": "DOZ"}}, {"type": "node", "id": 10282783363, "lat": 51.0702989, "lon": 19.4348036, "tags": {"amenity": "pharmacy", "check_date": "2024-07-20", "dispensing": "yes", "healthcare": "pharmacy", "name": "Burchaci\u0144scy", "opening_hours": "Mo-Sa 08:00-20:00; Su,PH off", "ref:csioz": "1189453"}}, {"type": "node", "id": 10282783364, "lat": 51.0695294, "lon": 19.4280749, "tags": {"amenity": "pharmacy", "dispensing": "yes", "healthcare": "pharmacy", "name": "Mi\u0142a", "ref:csioz": "1017366"}}, {"type": "node", "id": 10282783365, "lat": 51.0733788, "lon": 19.412097, "tags": {"amenity": "pharmacy", "dispensing": "yes", "healthcare": "pharmacy", "name": "Wrzosowa", "ref:csioz": "1205916"}}, {"type": "node", "id": 10282783366, "lat": 51.0861165, "lon": 19.8795271, "tags": {"amenity": "pharmacy", "dispensing": "yes", "healthcare": "pharmacy", "ref:csioz": "1018914"}}, {"type": "node", "id": 10282783367, "lat": 50.911976, "lon": 19.7978413, "tags": {"amenity": "pharmacy", "dispensing": "yes", "healthcare": "pharmacy", "name": "Punkt Apteczny", "ref:csioz": "1185404"}}, {"type": "node", "id": 10282783368, "lat": 50.9127261, "lon": 19.797344, "tags": {"amenity": "pharmacy", "dispensing": "yes", "healthcare": "pharmacy", "name": "Punkt Apteczny", "ref:csioz": "1185379"}}, {"type": "node", "id": 10282783369, "lat": 51.0814247, "lon": 19.359474, "tags": {"amenity": "pharmacy", "dispensing": "yes", "healthcare": "pharmacy", "name": "Punkt Apteczny Wrzosowa", "ref:csioz": "1204770"}}, {"type": "node", "id": 10282783372, "lat": 51.0366681, "lon": 19.6231756, "tags": {"amenity": "pharmacy", "dispensing": "yes", "healthcare": "pharmacy", "name": "Rosa", "ref:csioz": "1118440"}}, {"type": "node", "id": 10282783377, "lat": 50.9632321, "lon": 19.4670417, "tags": {"amenity": "pharmacy", "dispensing": "yes", "healthcare": "pharmacy", "ref:csioz": "1018039"}}, {"type": "node", "id": 10282783378, "lat": 50.9638678, "lon": 19.4680603, "tags": {"amenity": "pharmacy", "dispensing": "yes", "healthcare": "pharmacy", "name": "Punkt Apteczny Przyjazny", "ref:csioz": "1017830"}}]}