{"version": 0.6, "generator": "Overpass API 0.7.62.8 e802775f", "osm3s": {"timestamp_osm_base": "2025-10-06T08:59:45Z", "copyright": "The data included in this document is from www.openstreetmap.org. The data is made available under ODbL."}, "elements": [{"type": "node", "id": 890854471, "lat": 57.3931184, "lon": 21.56462, "tags": {"addr:city": "Ventspils", "addr:country": "LV", "addr:housenumber": "23", "addr:postcode": "LV-3601", "addr:street": "Kuld\u012bgas iela", "amenity": "pharmacy", "brand": "M\u0113ness aptieka", "brand:wikidata": "Q57583051", "dispensing": "yes", "drive_through": "no", "healthcare": "pharmacy", "name": "M\u0113ness aptieka", "ref:LV:addr": "101651366", "toilets:wheelchair": "no", "wheelchair": "yes"}}, {"type": "node", "id": 1952776278, "lat": 57.386662, "lon": 21.5491286, "tags": {"addr:city": "Ventspils", "addr:country": "LV", "addr:housenumber": "5", "addr:postcode": "LV-3601", "addr:street": "J. Poruka iela", "amenity": "pharmacy", "healthcare": "pharmacy", "name": "Apotheka", "opening_hours": "Mo-Fr 09:00-20:00; Sa-Su 10:00-19:00", "phone": "+371 63 622 250", "ref:LV:addr": "102367972", "website": "https://www.apotheka.lv", "wheelchair": "yes"}}, {"type": "node", "id": 3365844505, "lat": 57.2228094, "lon": 21.6720046, "tags": {"addr:city": "Piltene", "addr:country": "LV", "addr:district": "Ventspils novads", "addr:housenumber": "2A", "addr:postcode": "LV-3620", "addr:street": "Liel\u0101 iela", "amenity": "pharmacy", "name": "Piltenes aptieka", "ref:LV:addr": "101170036"}}, {"type": "node", "id": 7755806656, "lat": 57.3917841, "lon": 21.563271, "tags": {"addr:city": "Ventspils", "addr:country": "LV", "addr:housenumber": "8", "addr:postcode": "LV-3601", "addr:street": "Gan\u012bbu iela", "amenity": "pharmacy", "brand": "Benu", "brand:wikidata": "Q62562792", "contact:email": "benu.6029@benu.lv", "contact:facebook": "https://www.facebook.com/BENUAptieka", "contact:phone": "+371 63 625 513", "contact:website": "https://benu.lv/", "dispensing": "yes", "healthcare": "pharmacy", "name": "Benu", "opening_hours": "24/7", "operator": "BENU Aptieka SIA", "ref:LV:addr": "102366970", "wheelchair": "yes"}}, {"type": "node", "id": 7755806658, "lat": 57.395098, "lon": 21.568528, "tags": {"addr:city": "Ventspils", "addr:country": "LV", "addr:housenumber": "14/16", "addr:postcode": "LV-3601", "addr:street": "Kuld\u012bgas iela", "amenity": "pharmacy", "brand": "Benu", "brand:wikidata": "Q62562792", "contact:email": "benu.6021@benu.lv", "contact:facebook": "https://www.facebook.com/BENUAptieka", "contact:phone": "+371 63 664 203", "contact:website": "https://benu.lv/", "healthcare": "pharmacy", "name": "Benu", "opening_hours": "Mo-Fr 08:00-20:00; Sa 09:00-17:00", "operator": "SIA \"BENU Aptieka Latvija\"", "ref:LV:addr": "101651108"}}, {"type": "node", "id": 7825241885, "lat": 57.3897265, "lon": 21.5749704, "tags": {"addr:city": "Ventspils", "addr:country": "LV", "addr:housenumber": "26", "addr:postcode": "LV-3601", "addr:street": "Lielais prospekts", "amenity": "pharmacy", "healthcare": "pharmacy", "name": "Apotheka", "opening_hours": "Mo-Fr 08:00-20:00; Sa 09:00-14:00", "phone": "+371 63 634 180", "ref:LV:addr": "102605644", "website": "https://www.apotheka.lv"}}, {"type": "node", "id": 8567833817, "lat": 57.3853914, "lon": 21.5473676, "tags": {"addr:city": "Ventspils", "addr:country": "LV", "addr:housenumber": "13", "addr:postcode": "LV-3601", "addr:street": "J. Poruka iela", "amenity": "pharmacy", "check_date": "2025-08-19", "healthcare": "pharmacy", "level": "0", "name": "Latvijas aptieka", "opening_hours": "Mo-Fr 08:00-19:00; Sa 09:00-15:00; Su off", "phone": "+371 22 317 819", "ref": "61", "ref:LV:addr": "102367931", "website": "https://latvijasaptiekas.lv/"}}, {"type": "node", "id": 10700381036, "lat": 57.3900559, "lon": 21.5607987, "tags": {"addr:city": "Ventspils", "addr:country": "LV", "addr:housenumber": "24", "addr:postcode": "LV-3601", "addr:street": "Liel\u0101 Dzirnavu iela", "amenity": "pharmacy", "brand": "M\u0113ness aptieka", "brand:wikidata": "Q57583051", "healthcare": "pharmacy", "name": "M\u0113ness aptieka", "opening_hours": "Mo-Fr 09:00-19:00", "phone": "+371 20 377 509;+371 67 617 805", "ref:LV:addr": "102372033", "website": "https://www.menessaptieka.lv"}}, {"type": "node", "id": 10709433937, "lat": 57.3903718, "lon": 21.5692535, "tags": {"addr:city": "Ventspils", "addr:country": "LV", "addr:housenumber": "16", "addr:postcode": "LV-3601", "addr:street": "Aleksandra iela", "amenity": "pharmacy", "healthcare": "pharmacy", "name": "Apotheka", "opening_hours": "Mo-Fr 08:30-20:30; Sa-Su 09:00-18:00", "phone": "+371 63 624 314", "ref:LV:addr": "102362690", "website": "https://www.apotheka.lv"}}, {"type": "node", "id": 10727897521, "lat": 57.3877816, "lon": 21.5798196, "tags": {"addr:city": "Ventspils", "addr:country": "LV", "addr:housenumber": "3/5", "addr:postcode": "LV-3601", "addr:street": "Lielais prospekts", "amenity": "pharmacy", "healthcare": "pharmacy", "name": "Euroaptieka", "ref:LV:addr": "103105974"}}, {"type": "node", "id": 10727897523, "lat": 57.3878703, "lon": 21.5792676, "tags": {"addr:city": "Ventspils", "addr:country": "LV", "addr:housenumber": "3/5", "addr:postcode": "LV-3601", "addr:street": "Lielais prospekts", "amenity": "pharmacy", "drive_through": "no", "healthcare": "pharmacy", "name": "Apotheka", "opening_hours": "Mo-Sa 09:00-21:00; Su 10:00-21:00", "phone": "+371 63 663 109", "ref:LV:addr": "103105974", "website": "https://www.apotheka.lv"}}, {"type": "node", "id": 10749480651, "lat": 57.4031225, "lon": 21.590716, "tags": {"addr:city": "Ventspils", "addr:country": "LV", "addr:housenumber": "26", "addr:postcode": "LV-3602", "addr:street": "Lidot\u0101ju iela", "amenity": "pharmacy", "healthcare": "pharmacy", "name": "Latvijas aptieka", "ref:LV:addr": "101652214"}}, {"type": "node", "id": 12875199310, "lat": 57.3999484, "lon": 21.6051691, "tags": {"addr:city": "Ventspils", "addr:country": "LV", "addr:housenumber": "63", "addr:postcode": "LV-3602", "addr:street": "T\u0101rgales iela", "amenity": "pharmacy", "brand": "M\u0113ness aptieka", "brand:wikidata": "Q57583051", "healthcare": "pharmacy", "name": "M\u0113ness aptieka", "opening_hours": "Mo-Fr 09:00-19:00; Sa 09:00-17:00; Su 11:00-16:00", "phone": "+371 20 377 439;+371 67 617 805", "ref:LV:addr": "102942462", "website": "https://www.menessaptieka.lv"}}]}