{"version": 0.6, "generator": "Overpass API 0.7.62.8 e802775f", "osm3s": {"timestamp_osm_base": "2025-10-06T09:00:45Z", "copyright": "The data included in this document is from www.openstreetmap.org. The data is made available under ODbL."}, "elements": [{"type": "node", "id": 1140884322, "lat": 47.6467101, "lon": 26.2482911, "tags": {"amenity": "pharmacy", "name": "Catena Suceava Plus"}}, {"type": "node", "id": 1912858646, "lat": 47.5530008, "lon": 25.8985337, "tags": {"amenity": "pharmacy", "healthcare": "pharmacy", "name": "Hyperici"}}, {"type": "node", "id": 2615896755, "lat": 47.6608468, "lon": 26.4234565, "tags": {"amenity": "pharmacy"}}, {"type": "node", "id": 2898802751, "lat": 47.6409298, "lon": 25.9227116, "tags": {"addr:city": "P\u00e2rte\u0219tii de Sus", "amenity": "pharmacy", "healthcare": "pharmacy"}}, {"type": "node", "id": 3379232256, "lat": 47.8421102, "lon": 25.9214786, "tags": {"amenity": "pharmacy", "name": "Farmacie Veterinar\u0103"}}, {"type": "node", "id": 3583488060, "lat": 47.8092962, "lon": 25.8215577, "tags": {"amenity": "pharmacy"}}, {"type": "node", "id": 3583500736, "lat": 47.8103445, "lon": 25.8213303, "tags": {"amenity": "pharmacy"}}, {"type": "node", "id": 3735554225, "lat": 47.6464172, "lon": 26.2487287, "tags": {"amenity": "pharmacy", "brand": "Help Net", "brand:wikidata": "Q12729923", "healthcare": "pharmacy", "name": "Help Net"}}, {"type": "node", "id": 3735554228, "lat": 47.6463431, "lon": 26.2510195, "tags": {"addr:city": "Suceava", "amenity": "pharmacy", "healthcare": "pharmacy", "name": "Remedia"}}, {"type": "node", "id": 3735596874, "lat": 47.645263, "lon": 26.242371, "tags": {"amenity": "pharmacy", "healthcare": "pharmacy", "name": "Remedio"}}, {"type": "node", "id": 4382963592, "lat": 47.5542686, "lon": 25.8908526, "tags": {"addr:city": "Gura Humorului", "amenity": "pharmacy", "healthcare": "pharmacy", "name": "Delia", "name:ro": "Delia"}}, {"type": "node", "id": 4448986688, "lat": 47.8337293, "lon": 26.294828, "tags": {"amenity": "pharmacy"}}, {"type": "node", "id": 4479114020, "lat": 47.6679825, "lon": 25.9951487, "tags": {"amenity": "pharmacy", "name": "Farmacie"}}, {"type": "node", "id": 4523641392, "lat": 47.8359427, "lon": 25.924944}, {"type": "node", "id": 4523641393, "lat": 47.8358842, "lon": 25.9250339}, {"type": "node", "id": 4523641394, "lat": 47.8359226, "lon": 25.9251021}, {"type": "node", "id": 4523641395, "lat": 47.8359793, "lon": 25.9250203}, {"type": "node", "id": 4734955023, "lat": 47.5538025, "lon": 25.8876102, "tags": {"amenity": "pharmacy", "healthcare": "pharmacy"}}, {"type": "node", "id": 5084380323, "lat": 47.7704267, "lon": 26.4392323, "tags": {"amenity": "pharmacy", "name": "Farmacie", "name:ro": "Farmacie"}}, {"type": "node", "id": 5084380324, "lat": 47.7696495, "lon": 26.4401492, "tags": {"amenity": "pharmacy", "name": "Farmacie", "name:ro": "Farmacie"}}, {"type": "node", "id": 5982900868, "lat": 47.8572023, "lon": 26.3106495}, {"type": "node", "id": 5982900869, "lat": 47.8572827, "lon": 26.3107363}, {"type": "node", "id": 5982900870, "lat": 47.8572364, "lon": 26.3105792}, {"type": "node", "id": 5982900871, "lat": 47.8573169, "lon": 26.310666}, {"type": "node", "id": 7077122558, "lat": 47.6593599, "lon": 26.2727261, "tags": {"amenity": "pharmacy", "brand": "Dr. Max", "brand:wikidata": "Q56317371", "dispensing": "yes", "healthcare": "pharmacy", "name": "Dr. Max", "operator": "Dr.Max", "website": "https://www.drmax.ro"}}, {"type": "node", "id": 7077122559, "lat": 47.6584747, "lon": 26.2729299, "tags": {"amenity": "pharmacy", "brand": "Help Net", "brand:wikidata": "Q12729923", "dispensing": "yes", "healthcare": "pharmacy", "name": "Help Net"}}, {"type": "node", "id": 9148326091, "lat": 47.80763, "lon": 25.8946134, "tags": {"addr:city": "Volov\u0103\u021b", "addr:postcode": "727615", "amenity": "pharmacy", "dispensing": "yes", "drive_through": "no", "healthcare": "pharmacy", "name": "Farmacia Omnapharm", "opening_hours": "Mo-Sa 08:00-17:00"}}, {"type": "node", "id": 9174524918, "lat": 47.6372074, "lon": 26.2372535, "tags": {"amenity": "pharmacy", "dispensing": "yes", "drive_through": "no", "name": "Farmacia Horbaniuc"}}, {"type": "node", "id": 12523208569, "lat": 47.6435364, "lon": 26.239609, "tags": {"amenity": "pharmacy", "healthcare": "pharmacy", "name": "Dona", "opening_hours": "Mo-Fr 07:30-20:00; Sa 08:00-16:00; Su,PH 08:00-14:00"}}, {"type": "node", "id": 12840323293, "lat": 47.6608592, "lon": 26.4233994}, {"type": "node", "id": 12840323294, "lat": 47.6607544, "lon": 26.4234536}, {"type": "node", "id": 12840323295, "lat": 47.6607804, "lon": 26.4235645}, {"type": "node", "id": 12840323296, "lat": 47.6608823, "lon": 26.4234982}, {"type": "node", "id": 12888776951, "lat": 47.6608151, "lon": 26.4235466}, {"type": "node", "id": 12888776952, "lat": 47.6608122, "lon": 26.4235344}, {"type": "node", "id": 12889293477, "lat": 47.665391, "lon": 26.43363}, {"type": "node", "id": 12889293478, "lat": 47.6654254, "lon": 26.4336995}, {"type": "node", "id": 12889293479, "lat": 47.6653267, "lon": 26.4336997}, {"type": "node", "id": 12889293480, "lat": 47.6653621, "lon": 26.4337702}, {"type": "node", "id": 12894654213, "lat": 47.6602825, "lon": 26.4189314}, {"type": "node", "id": 12894654218, "lat": 47.66026, "lon": 26.4189555}, {"type": "node", "id": 12894654232, "lat": 47.6602821, "lon": 26.4188867}, {"type": "node", "id": 12894654233, "lat": 47.6602542, "lon": 26.4188872}, {"type": "node", "id": 12894654234, "lat": 47.6602548, "lon": 26.4189555}, {"type": "node", "id": 12894654235, "lat": 47.6602982, "lon": 26.4189541}, {"type": "node", "id": 12894654236, "lat": 47.660298, "lon": 26.4189311}, {"type": "node", "id": 12894654237, "lat": 47.660286, "lon": 26.4186708, "tags": {"addr:city": "Dumbr\u0103veni", "addr:postcode": "727225", "addr:street": "Strada Calea Na\u021bional\u0103", "amenity": "pharmacy", "healthcare": "pharmacy", "name": "Salofarm"}}, {"type": "node", "id": 12894654238, "lat": 47.6602453, "lon": 26.418921, "tags": {"addr:city": "Dumbr\u0103veni", "addr:postcode": "727225", "addr:street": "Strada Calea Na\u021bional\u0103", "amenity": "pharmacy", "healthcare": "pharmacy", "name": "Nova Farm"}}, {"type": "node", "id": 13131125269, "lat": 47.6611498, "lon": 26.4309259, "tags": {"amenity": "pharmacy", "healthcare": "pharmacy", "name": "Linfarm"}}, {"type": "node", "id": 13184574296, "lat": 47.614895, "lon": 26.1309886, "tags": {"addr:city": "Stroie\u0219ti", "addr:housenumber": "416", "addr:postcode": "727500", "addr:street": "Aleea Teilor", "amenity": "pharmacy", "drive_through": "no", "healthcare": "pharmacy", "name": "Apotecamed", "operator": "APOTECAMED SRL"}}, {"type": "node", "id": 13191260203, "lat": 47.6706441, "lon": 26.2838816, "tags": {"addr:city": "Suceava", "addr:street": "Calea Burdujeni", "amenity": "pharmacy", "brand": "Catena", "brand:wikidata": "Q24035728", "healthcare": "pharmacy", "name": "Catena"}}, {"type": "way", "id": 456084306, "nodes": [4523641392, 4523641393, 4523641394, 4523641395, 4523641392], "tags": {"amenity": "pharmacy", "building": "yes", "name": "Farmacie", "opening_hours": "8:00 - 17:00"}}, {"type": "way", "id": 633873137, "nodes": [5982900871, 5982900869, 5982900868, 5982900870, 5982900871], "tags": {"amenity": "pharmacy", "building": "retail", "building:levels": "1", "dispensing": "yes", "healthcare": "pharmacy", "roof:shape": "hipped"}}, {"type": "way", "id": 1387038587, "nodes": [12840323293, 12840323294, 12840323295, 12888776951, 12888776952, 12840323296, 12840323293], "tags": {"amenity": "pharmacy", "building": "yes", "healthcare": "pharmacy", "name": "FARMACIE"}}, {"type": "way", "id": 1392408568, "nodes": [12889293477, 12889293479, 12889293480, 12889293478, 12889293477], "tags": {"addr:city": "Dumbr\u0103veni", "addr:postcode": "727225", "addr:street": "Strada Calea Na\u021bional\u0103", "amenity": "pharmacy", "building": "yes", "healthcare": "pharmacy", "height": "4", "name": "Farmacie"}}, {"type": "way", "id": 1392981288, "nodes": [12894654232, 12894654233, 12894654234, 12894654218, 12894654235, 12894654236, 12894654213, 12894654232], "tags": {"amenity": "pharmacy", "building": "yes", "healthcare": "pharmacy", "height": "4", "name": "Nova Farm"}}]}