{"version": 0.6, "generator": "Overpass API 0.7.62.8 e802775f", "osm3s": {"timestamp_osm_base": "2025-10-06T08:48:27Z", "copyright": "The data included in this document is from www.openstreetmap.org. The data is made available under ODbL."}, "elements": [{"type": "node", "id": 2125062408, "lat": 37.3160789, "lon": 27.7785011, "tags": {"amenity": "pharmacy", "healthcare": "pharmacy"}}, {"type": "node", "id": 5691505318, "lat": 37.3322074, "lon": 27.7636306, "tags": {"addr:city": "Milas", "addr:district": "Mu\u011fla", "addr:neighbourhood": "Bah\u00e7eburun Mah.", "addr:postcode": "48160", "addr:street": "75. Y\u0131l Hastane Cad.", "amenity": "pharmacy", "dispensing": "yes", "healthcare": "pharmacy", "name": "Artuno\u011flu Eczanesi"}}, {"type": "node", "id": 5691505319, "lat": 37.3322155, "lon": 27.7631867, "tags": {"amenity": "pharmacy", "dispensing": "yes", "healthcare": "pharmacy"}}, {"type": "node", "id": 5691505320, "lat": 37.3323012, "lon": 27.7630295, "tags": {"amenity": "pharmacy", "dispensing": "yes", "healthcare": "pharmacy", "name": "Selcukkaya Eczanesi"}}, {"type": "node", "id": 5706116655, "lat": 37.3454818, "lon": 27.797822, "tags": {"addr:city": "Milas", "addr:district": "Mu\u011fla", "addr:neighbourhood": "K\u0131rca\u011f\u0131z Mah.", "addr:postcode": "48200", "amenity": "pharmacy", "dispensing": "yes", "healthcare": "pharmacy", "name": "U\u011furlu Eczanesi"}}, {"type": "node", "id": 5708847226, "lat": 37.3161892, "lon": 27.7867857, "tags": {"addr:city": "Milas", "addr:district": "Mu\u011fla", "addr:housenumber": "33/A", "addr:neighbourhood": "Hac\u0131abti Mah.", "addr:postcode": "48200", "addr:street": "Hastane Cad.", "amenity": "pharmacy", "drive_through": "no", "healthcare": "pharmacy", "name": "Bar\u0131\u015f Eczanesi"}}, {"type": "node", "id": 5708847227, "lat": 37.3160654, "lon": 27.7868916, "tags": {"addr:city": "Milas", "addr:district": "Mu\u011fla", "addr:neighbourhood": "Hac\u0131abti Mah.", "addr:postcode": "48200", "addr:street": "Hastane Cad.", "amenity": "pharmacy", "healthcare": "pharmacy", "name": "Umut Eczanesi"}}, {"type": "node", "id": 7743864079, "lat": 37.2670027, "lon": 28.2183364, "tags": {"amenity": "pharmacy", "dispensing": "yes", "healthcare": "pharmacy", "name": "Bay\u0131r Ezcanesi", "phone": "+90 252 225 5591"}}, {"type": "node", "id": 8986891630, "lat": 37.2976173, "lon": 27.781, "tags": {"amenity": "pharmacy", "dispensing": "yes", "healthcare": "pharmacy", "name": "Ge\u00e7gil Eczanesi"}}, {"type": "node", "id": 8986891631, "lat": 37.2994105, "lon": 27.7819306, "tags": {"amenity": "pharmacy", "dispensing": "yes", "healthcare": "pharmacy", "name": "Su Eczanesi"}}, {"type": "node", "id": 8986891632, "lat": 37.3001141, "lon": 27.7822518, "tags": {"amenity": "pharmacy", "dispensing": "yes", "healthcare": "pharmacy", "name": "Sa\u011fl\u0131k Eczanesi"}}, {"type": "node", "id": 8986891633, "lat": 37.3024474, "lon": 27.7812161, "tags": {"amenity": "pharmacy", "dispensing": "yes", "healthcare": "pharmacy", "name": "Ege Eczanesi"}}, {"type": "node", "id": 8986891634, "lat": 37.307149, "lon": 27.7811317, "tags": {"amenity": "pharmacy", "dispensing": "yes", "healthcare": "pharmacy", "name": "Bilgin Eczanesi"}}, {"type": "node", "id": 8986891635, "lat": 37.3079607, "lon": 27.7807547, "tags": {"amenity": "pharmacy", "dispensing": "yes", "healthcare": "pharmacy", "name": "Dikmen Eczanesi"}}, {"type": "node", "id": 8986891636, "lat": 37.3086722, "lon": 27.7810825, "tags": {"amenity": "pharmacy", "dispensing": "yes", "healthcare": "pharmacy", "name": "F\u0131nd\u0131k\u00e7\u0131o\u011flu Eczanesi"}}, {"type": "node", "id": 8986891637, "lat": 37.3101642, "lon": 27.7826893, "tags": {"amenity": "pharmacy", "dispensing": "yes", "healthcare": "pharmacy", "name": "Sinem Eczanesi"}}, {"type": "node", "id": 8986891638, "lat": 37.3106371, "lon": 27.7806573, "tags": {"amenity": "pharmacy", "dispensing": "yes", "healthcare": "pharmacy", "name": "Ak\u00e7ak\u0131r Eczanesi"}}, {"type": "node", "id": 8986891639, "lat": 37.3116713, "lon": 27.7795995, "tags": {"amenity": "pharmacy", "dispensing": "yes", "healthcare": "pharmacy", "name": "Zeybeko\u011flu Eczanesi"}}, {"type": "node", "id": 8986891640, "lat": 37.3128287, "lon": 27.7796041, "tags": {"amenity": "pharmacy", "dispensing": "yes", "healthcare": "pharmacy", "name": "Elif Eczanesi"}}, {"type": "node", "id": 8986891641, "lat": 37.3131612, "lon": 27.7808262, "tags": {"amenity": "pharmacy", "dispensing": "yes", "healthcare": "pharmacy", "name": "Yeni Eczanesi"}}, {"type": "node", "id": 8986891643, "lat": 37.3138553, "lon": 27.7809218, "tags": {"amenity": "pharmacy", "healthcare": "pharmacy", "name": "\u00dclk\u00fc Eczanesi", "shop": "chemist"}}, {"type": "node", "id": 8986891644, "lat": 37.3144498, "lon": 27.7810732, "tags": {"amenity": "pharmacy", "dispensing": "yes", "healthcare": "pharmacy", "name": "\u00d6zge Eczanesi"}}, {"type": "node", "id": 8986891645, "lat": 37.3157311, "lon": 27.7801463, "tags": {"amenity": "pharmacy", "dispensing": "yes", "healthcare": "pharmacy", "name": "Artun Eczanesi"}}, {"type": "node", "id": 8986891646, "lat": 37.3146751, "lon": 27.7780771, "tags": {"amenity": "pharmacy", "dispensing": "yes", "healthcare": "pharmacy", "name": "Karab\u0131y\u0131k Eczanesi"}}, {"type": "node", "id": 8986891647, "lat": 37.3147397, "lon": 27.7778815, "tags": {"amenity": "pharmacy", "dispensing": "yes", "healthcare": "pharmacy", "name": "Bilen Eczanesi"}}, {"type": "node", "id": 8986891648, "lat": 37.318524, "lon": 27.7789643, "tags": {"amenity": "pharmacy", "dispensing": "yes", "healthcare": "pharmacy", "name": "A\u015fici Eczanesi"}}, {"type": "node", "id": 8986891649, "lat": 37.3273661, "lon": 27.7712613, "tags": {"amenity": "pharmacy", "dispensing": "yes", "healthcare": "pharmacy", "name": "Akkent Eczanesi"}}, {"type": "node", "id": 11490991169, "lat": 37.1907598, "lon": 28.2773151, "tags": {"amenity": "pharmacy", "name": "Ye\u015filyurt Eczanesi", "phone": "+90 252 226 6194"}}, {"type": "node", "id": 11595809069, "lat": 37.2667107, "lon": 28.2180081, "tags": {"amenity": "pharmacy", "name": "\u00c7a\u011fr\u0131 Bay\u0131r Eczanesi", "phone": "+90 252 225 3697"}}, {"type": "node", "id": 11595809169, "lat": 37.2667991, "lon": 28.2181256, "tags": {"amenity": "pharmacy", "name": "Burcu Eczanesi", "phone": "+90 252 225 5744"}}, {"type": "node", "id": 11595809170, "lat": 37.3095713, "lon": 28.1718785, "tags": {"amenity": "pharmacy", "name": "Bozarmut Eczanesi", "phone": "+90 252 576 7399"}}, {"type": "node", "id": 11595809171, "lat": 37.3423877, "lon": 28.1470137, "tags": {"amenity": "pharmacy", "name": "Sel\u00e7uk Eczanesi", "phone": "+90 252 572 6575"}}, {"type": "node", "id": 11595809176, "lat": 37.3728402, "lon": 28.0297786, "tags": {"amenity": "pharmacy", "name": "Turgut Eczanesi", "phone": "+90 252 573 4054"}}, {"type": "node", "id": 11595809269, "lat": 37.2970365, "lon": 28.1391978, "tags": {"amenity": "pharmacy", "name": "Yonca Eczanesi", "phone": "+90 252 574 7050"}}, {"type": "node", "id": 11595809270, "lat": 37.3401102, "lon": 28.1410725, "tags": {"amenity": "pharmacy", "name": "Meltem Eczanesi", "phone": "+90 252 572 9583"}}, {"type": "node", "id": 11595809271, "lat": 37.340901, "lon": 28.140085, "tags": {"amenity": "pharmacy", "name": "Deniz Eczanesi", "phone": "+90 252 572 2795"}}, {"type": "node", "id": 11595809272, "lat": 37.3412381, "lon": 28.1396329, "tags": {"amenity": "pharmacy", "name": "Uysal Eczanesi", "phone": "+90 252 572 6116"}}, {"type": "node", "id": 11595809273, "lat": 37.3414573, "lon": 28.1398121, "tags": {"amenity": "pharmacy", "name": "\u015eahin Eczanesi", "phone": "+90 252 572 5172"}}, {"type": "node", "id": 11595809274, "lat": 37.3416294, "lon": 28.138875, "tags": {"amenity": "pharmacy", "name": "Oral Eczanesi", "phone": "+90 252 572 6911"}}, {"type": "node", "id": 11595809275, "lat": 37.3426653, "lon": 28.1381257, "tags": {"amenity": "pharmacy", "name": "Sabahat \u00d6zsoy Eczanesi", "phone": "+90 252 572 9799"}}, {"type": "node", "id": 11595809276, "lat": 37.5049933, "lon": 28.0278047, "tags": {"amenity": "pharmacy", "name": "Sertta\u015f Eczanesi", "phone": "+90 256 731 1162"}}, {"type": "node", "id": 11595809369, "lat": 37.3383944, "lon": 28.13912, "tags": {"amenity": "pharmacy", "name": "\u0130rem Eczanesi", "phone": "+90 252 572 2731"}}, {"type": "node", "id": 11595809370, "lat": 37.339004, "lon": 28.138419, "tags": {"amenity": "pharmacy", "name": "\u00d6zkaynak Eczanesi", "phone": "+90 252 572 6666"}}, {"type": "node", "id": 11595809371, "lat": 37.3419374, "lon": 28.1393122, "tags": {"amenity": "pharmacy", "name": "\u00d6zcan Eczanesi", "phone": "+90 252 572 2382"}}, {"type": "node", "id": 11595809372, "lat": 37.3429718, "lon": 28.1390663, "tags": {"amenity": "pharmacy", "healthcare": "pharmacy", "name": "Alp\u00f6zen Eczanesi", "phone": "+90 252 572 5251"}}, {"type": "node", "id": 11595809373, "lat": 37.3422259, "lon": 28.1370884, "tags": {"amenity": "pharmacy", "name": "Eyl\u00fcl Eczanesi", "phone": "+90 252 572 6481"}}, {"type": "node", "id": 11595809569, "lat": 37.3426882, "lon": 28.1479106, "tags": {"amenity": "pharmacy", "name": "Cem Eczanesi", "phone": "+90 252 572 9795"}}, {"type": "node", "id": 11595809570, "lat": 37.3427494, "lon": 28.1383111, "tags": {"amenity": "pharmacy", "name": "Tekin Eczanesi", "phone": "+90 252 572 7290"}}, {"type": "node", "id": 11595809869, "lat": 37.342475, "lon": 28.1389759, "tags": {"amenity": "pharmacy", "name": "Yata\u011fan Eczanesi", "phone": "+90 252 572 5171"}}, {"type": "node", "id": 11597092569, "lat": 37.5050642, "lon": 28.027992, "tags": {"amenity": "pharmacy", "name": "Yava\u015f Eczanesi", "phone": "+90 256 731 2499"}}]}