{"version": 0.6, "generator": "Overpass API 0.7.62.8 e802775f", "osm3s": {"timestamp_osm_base": "2025-10-06T07:43:15Z", "copyright": "The data included in this document is from www.openstreetmap.org. The data is made available under ODbL."}, "elements": [{"type": "node", "id": 518726370, "lat": 42.622971, "lon": 18.1926322, "tags": {"amenity": "pharmacy"}}, {"type": "node", "id": 1583714187, "lat": 42.5810011, "lon": 18.2184395, "tags": {"amenity": "pharmacy", "healthcare": "pharmacy"}}, {"type": "node", "id": 1684056317, "lat": 42.6549704, "lon": 18.0768392, "tags": {"amenity": "pharmacy", "healthcare": "pharmacy"}}, {"type": "node", "id": 2372269691, "lat": 42.6568911, "lon": 18.0885132, "tags": {"addr:city": "Dubrovnik", "addr:housenumber": "4", "addr:postcode": "20000", "addr:street": "Metohijska", "alt_name": "Ljekarna Cebulc", "amenity": "pharmacy", "healthcare": "pharmacy", "name": "Ljekarna \u010cebulc", "phone": "020/41-92-92"}}, {"type": "node", "id": 2941765517, "lat": 42.6411389, "lon": 18.1103223, "tags": {"addr:city": "Dubrovnik", "addr:housenumber": "4", "addr:postcode": "20000", "addr:street": "Placa", "amenity": "pharmacy", "dispensing": "yes", "drive_through": "no", "healthcare": "pharmacy", "name": "Kod Zvonikom", "opening_hours": "Mo-Fr 07:00-20:00; Sa 07:30-13:00"}}, {"type": "node", "id": 3042753278, "lat": 42.6410902, "lon": 18.1094003, "tags": {"amenity": "pharmacy", "dispensing": "yes", "drive_through": "no", "healthcare": "pharmacy", "opening_hours": "Mo-Fr 07:00-21:00; Sa 08:00-15:00; Su,PH 10:00-14:00"}}, {"type": "node", "id": 4210692191, "lat": 42.651215, "lon": 18.0912579, "tags": {"amenity": "pharmacy", "healthcare": "pharmacy", "name": "Ljekarna \u010celina"}}, {"type": "node", "id": 4210698991, "lat": 42.6473694, "lon": 18.0950815, "tags": {"amenity": "pharmacy", "healthcare": "pharmacy"}}, {"type": "node", "id": 4210755292, "lat": 42.6596514, "lon": 18.0862515, "tags": {"amenity": "pharmacy", "healthcare": "pharmacy", "name": "Ljekarna Gru\u017e", "opening_hours": "Mo-Fr 07:00-20:00; Sa 07:30-13:00"}}, {"type": "node", "id": 4435719079, "lat": 42.7167969, "lon": 18.3519033, "tags": {"amenity": "pharmacy", "healthcare": "pharmacy", "name": "Apoteka", "opening_hours": "Mo-Su 08:00-20:00"}}, {"type": "node", "id": 4838835323, "lat": 42.7106561, "lon": 18.3450612, "tags": {"amenity": "pharmacy", "healthcare": "pharmacy", "name": "MOJAapoteka", "name:sr": "\u041c\u041e\u0408\u0410\u0430\u043f\u043e\u0442\u0435\u043a\u0430"}}, {"type": "node", "id": 5318939298, "lat": 42.6544915, "lon": 18.0772369, "tags": {"amenity": "pharmacy", "healthcare": "pharmacy"}}, {"type": "node", "id": 5786698723, "lat": 42.6593399, "lon": 18.0761138, "tags": {"amenity": "pharmacy", "dispensing": "yes", "healthcare": "pharmacy"}}, {"type": "node", "id": 5786701511, "lat": 42.6483554, "lon": 18.0879394, "tags": {"amenity": "pharmacy", "dispensing": "yes", "healthcare": "pharmacy", "name": "Apoteka Cebulc", "name:en": "Pharmacy Cebulc"}}, {"type": "node", "id": 6814231796, "lat": 42.7093893, "lon": 18.3463297, "tags": {"amenity": "pharmacy", "healthcare": "pharmacy"}}, {"type": "node", "id": 6814246194, "lat": 42.7120023, "lon": 18.3461458, "tags": {"amenity": "pharmacy", "healthcare": "pharmacy"}}, {"type": "node", "id": 6814251790, "lat": 42.7105615, "lon": 18.3510382, "tags": {"amenity": "pharmacy", "healthcare": "pharmacy"}}, {"type": "node", "id": 6814251793, "lat": 42.7102087, "lon": 18.3508152, "tags": {"amenity": "pharmacy", "healthcare": "pharmacy", "name": "Apoteka", "opening_hours": "Mo-Su 08:00-20:00; Su 08:00-20:00"}}, {"type": "node", "id": 6814286785, "lat": 42.7113214, "lon": 18.3459277, "tags": {"amenity": "pharmacy", "healthcare": "pharmacy"}}, {"type": "node", "id": 8308039035, "lat": 42.6418081, "lon": 18.1074759, "tags": {"amenity": "pharmacy", "check_date": "2023-07-20", "healthcare": "pharmacy", "name": "Mala Bra\u0107e", "opening_hours": "Mo-Fr, Su 07:00-19:30; Sa 07:30-13:00"}}, {"type": "node", "id": 8308284017, "lat": 42.6545342, "lon": 18.0773521, "tags": {"amenity": "pharmacy", "healthcare": "pharmacy"}}, {"type": "node", "id": 10015736642, "lat": 42.7060962, "lon": 18.3401208, "tags": {"amenity": "pharmacy", "dispensing": "yes", "healthcare": "pharmacy", "name": "Belladona"}}, {"type": "node", "id": 11220891837, "lat": 42.7005221, "lon": 18.3484704, "tags": {"amenity": "pharmacy", "healthcare": "pharmacy", "name": "Omega"}}, {"type": "node", "id": 12759378848, "lat": 42.6242371, "lon": 18.1926207, "tags": {"amenity": "pharmacy", "brand": "Farmacia", "brand:wikidata": "Q12630914", "healthcare": "pharmacy", "name": "Farmacia"}}]}