{"version": 0.6, "generator": "Overpass API 0.7.62.8 e802775f", "osm3s": {"timestamp_osm_base": "2025-10-06T08:17:00Z", "copyright": "The data included in this document is from www.openstreetmap.org. The data is made available under ODbL."}, "elements": [{"type": "node", "id": 298674742, "lat": 40.2488497, "lon": 23.6986844, "tags": {"addr:city": "\u0386\u03b3\u03b9\u03bf\u03c2 \u039d\u03b9\u03ba\u03cc\u03bb\u03b1\u03bf\u03c2", "addr:country": "GR", "addr:postcode": "63078", "addr:street": "\u039f\u03b4\u03cc\u03c2 \u03a0\u03b1\u03c5\u03bb\u03bf\u03cd\u03b4\u03b7 \u03a0\u03b1\u03cd\u03bb\u03bf\u03c5", "addr:town": "\u0386\u03b3\u03b9\u03bf\u03c2 \u039d\u03b9\u03ba\u03cc\u03bb\u03b1\u03bf\u03c2", "amenity": "pharmacy", "check_date": "2023-10-20", "dispensing": "yes", "drive_through": "no", "healthcare": "pharmacy", "level": "0", "name": "\u03a6\u03b1\u03c1\u03bc\u03b1\u03ba\u03b5\u03af\u03bf \u039a\u03b1\u03bc\u03c0\u03ac\u03bd\u03b7\u03c2", "name:de": "Apotheke Kambanis", "name:el": "\u03a6\u03b1\u03c1\u03bc\u03b1\u03ba\u03b5\u03af\u03bf \u039a\u03b1\u03bc\u03c0\u03ac\u03bd\u03b7\u03c2", "name:en": "Pharmacy Kambanis", "operator": "\u0386\u03b3\u03b3\u03b5\u03bb\u03bf\u03c2 \u039d. \u039a\u03b1\u03bc\u03c0\u03ac\u03bd\u03b7\u03c2", "phone": "+302375031434", "source": "survey;local knowledge;aerial imagery", "wheelchair": "yes"}}, {"type": "node", "id": 298674743, "lat": 40.2491449, "lon": 23.6986695, "tags": {"addr:city": "\u0386\u03b3\u03b9\u03bf\u03c2 \u039d\u03b9\u03ba\u03cc\u03bb\u03b1\u03bf\u03c2", "addr:municipality": "\u03a3\u03b9\u03b8\u03c9\u03bd\u03af\u03b1", "addr:postcode": "63078", "addr:province": "\u03a7\u03b1\u03bb\u03ba\u03b9\u03b4\u03b9\u03ba\u03ae", "addr:region": "\u039a\u03b5\u03bd\u03c4\u03c1\u03b9\u03ba\u03ae \u039c\u03b1\u03ba\u03b5\u03b4\u03bf\u03bd\u03af\u03b1", "addr:street": "\u039f\u03b4\u03cc\u03c2 \u03a0\u03b1\u03c5\u03bb\u03bf\u03cd\u03b4\u03b7 \u03a0\u03b1\u03cd\u03bb\u03bf\u03c5", "amenity": "pharmacy", "check_date": "2023-10-20", "dispensing": "yes", "drive_through": "no", "healthcare": "pharmacy", "name": "\u03a6\u03b1\u03c1\u03bc\u03b1\u03ba\u03b5\u03af\u03bf \u03a7\u03bf\u03bb\u03bf\u03b3\u03b3\u03bf\u03cd\u03bd\u03b7\u03c2", "name:de": "Apotheke Chologounis", "name:el": "\u03a6\u03b1\u03c1\u03bc\u03b1\u03ba\u03b5\u03af\u03bf \u03a7\u03bf\u03bb\u03bf\u03b3\u03b3\u03bf\u03cd\u03bd\u03b7\u03c2", "name:en": "Pharmaxy Hologounis", "operator": "\u03a7\u03c1\u03b9\u03c3\u03c4\u03cc\u03b4\u03bf\u03c5\u03bb\u03bf\u03c2 \u0399. \u03a7\u03bf\u03bb\u03bf\u03b3\u03b3\u03bf\u03cd\u03bd\u03b7\u03c2", "phone": "+302375031786", "source": "local knowledge;aerial imagery;survey"}}, {"type": "node", "id": 430378378, "lat": 40.0970749, "lon": 23.9793284, "tags": {"amenity": "pharmacy", "name": "\u03a7\u03c1\u03b9\u03c3\u03c4\u03ac\u03c1\u03b1 \u0391\u03c3\u03b1\u03bd\u03ce"}}, {"type": "node", "id": 1119855269, "lat": 40.3972005, "lon": 23.8749392, "tags": {"amenity": "pharmacy", "healthcare": "pharmacy", "name": "\u039b\u03b1\u03b3\u03cc\u03bd\u03c4\u03b6\u03bf\u03c5"}}, {"type": "node", "id": 1119856208, "lat": 40.3980225, "lon": 23.875103, "tags": {"amenity": "pharmacy", "healthcare": "pharmacy", "int_name": "Koutsoupis", "name": "\u039a\u03bf\u03c5\u03c4\u03c3\u03bf\u03cd\u03c0\u03b7\u03c2"}}, {"type": "node", "id": 1449628198, "lat": 39.9888174, "lon": 23.6124315, "tags": {"amenity": "pharmacy", "dispensing": "no", "healthcare": "pharmacy", "name": "\u039a\u03b1\u03c1\u03b1\u03c3\u03c4\u03b5\u03c1\u03b3\u03b9\u03bf\u03c2 \u0399. \u0392\u03b1\u03c3\u03b9\u03bb\u03b5\u03b9\u03bf\u03c2", "wheelchair": "yes"}}, {"type": "node", "id": 2380156969, "lat": 40.2227509, "lon": 23.6683514, "tags": {"addr:city": "\u039d\u03b9\u03ba\u03ae\u03c4\u03b7", "addr:municipality": "\u03a3\u03b9\u03b8\u03c9\u03bd\u03af\u03b1", "addr:postcode": "63088", "addr:region": "\u039a\u03b5\u03bd\u03c4\u03c1\u03b9\u03ba\u03ae \u039c\u03b1\u03ba\u03b5\u03b4\u03bf\u03bd\u03af\u03b1", "amenity": "pharmacy", "healthcare": "pharmacy"}}, {"type": "node", "id": 2593159790, "lat": 40.3330566, "lon": 23.9195588, "tags": {"amenity": "pharmacy", "opening_hours": "24/7"}}, {"type": "node", "id": 2895464814, "lat": 39.9885183, "lon": 23.6141027, "tags": {"amenity": "pharmacy", "healthcare": "pharmacy"}}, {"type": "node", "id": 3073926427, "lat": 39.9420673, "lon": 23.6626347, "tags": {"amenity": "pharmacy", "healthcare": "pharmacy"}}, {"type": "node", "id": 4396485702, "lat": 40.0953781, "lon": 23.7833539, "tags": {"amenity": "pharmacy"}}, {"type": "node", "id": 4897629921, "lat": 40.3824223, "lon": 23.9246546, "tags": {"amenity": "pharmacy", "drive_through": "no", "healthcare": "pharmacy"}}, {"type": "node", "id": 5063751903, "lat": 40.2241772, "lon": 23.6673673, "tags": {"addr:city": "\u039d\u03b9\u03ba\u03ae\u03c4\u03b7", "addr:municipality": "\u03a3\u03b9\u03b8\u03c9\u03bd\u03af\u03b1", "addr:postcode": "63088", "addr:region": "\u039a\u03b5\u03bd\u03c4\u03c1\u03b9\u03ba\u03ae \u039c\u03b1\u03ba\u03b5\u03b4\u03bf\u03bd\u03af\u03b1", "amenity": "pharmacy", "healthcare": "pharmacy"}}, {"type": "node", "id": 5679543822, "lat": 39.9994543, "lon": 23.5747253, "tags": {"amenity": "pharmacy", "healthcare": "pharmacy"}}, {"type": "node", "id": 5771419354, "lat": 40.3254076, "lon": 23.9803377, "tags": {"amenity": "pharmacy", "dispensing": "yes", "healthcare": "pharmacy", "name": "\u03a6\u03b1\u03c1\u03bc\u03b1\u03ba\u03b5\u03af\u03bf \u0393\u03ba\u03b1\u03bd\u03b9\u03b1\u03c4\u03c3\u03bf\u03c5 \u0391\u03c6\u03c1\u03bf\u03b4\u03af\u03c4\u03b7", "name:el": "\u03a6\u03b1\u03c1\u03bc\u03b1\u03ba\u03b5\u03af\u03bf \u0393\u03ba\u03b1\u03bd\u03b9\u03b1\u03c4\u03c3\u03bf\u03c5 \u0391\u03c6\u03c1\u03bf\u03b4\u03af\u03c4\u03b7", "name:en": "Ganiatsou Aphrodite Pharmacy"}}, {"type": "node", "id": 6568407388, "lat": 39.9879922, "lon": 23.6155845, "tags": {"amenity": "pharmacy", "healthcare": "pharmacy"}}, {"type": "node", "id": 6764148185, "lat": 40.0964717, "lon": 23.7802641, "tags": {"amenity": "pharmacy"}}, {"type": "node", "id": 10908351239, "lat": 40.094878, "lon": 23.7822504, "tags": {"amenity": "pharmacy", "healthcare": "pharmacy"}}, {"type": "node", "id": 10941860221, "lat": 40.0377886, "lon": 23.9406269, "tags": {"amenity": "pharmacy", "healthcare": "pharmacy"}}, {"type": "node", "id": 13047775208, "lat": 40.3960338, "lon": 23.8746932, "tags": {"amenity": "pharmacy", "healthcare": "pharmacy", "name": "\u039a\u03bf\u03c5\u03c4\u03c3\u03bf\u03cd\u03c0\u03b7 \u039c\u03b1\u03c1\u03af\u03b1"}}]}