{"version": 0.6, "generator": "Overpass API 0.7.62.8 e802775f", "osm3s": {"timestamp_osm_base": "2025-10-06T08:17:00Z", "copyright": "The data included in this document is from www.openstreetmap.org. The data is made available under ODbL."}, "elements": [{"type": "node", "id": 4176039712, "lat": 42.1258529, "lon": 23.1319219, "tags": {"amenity": "pharmacy", "drive_through": "no", "healthcare": "pharmacy"}}, {"type": "node", "id": 4846913196, "lat": 42.086591, "lon": 23.0594763, "tags": {"amenity": "pharmacy", "drive_through": "no", "name:bg": "\u0410\u043f\u0442\u0435\u043a\u0430", "operator": "Vital"}}, {"type": "node", "id": 5794082331, "lat": 42.2875949, "lon": 23.2542532, "tags": {"amenity": "pharmacy", "healthcare": "pharmacy", "name": "\u041c\u0438\u0448\u0435\u043b"}}, {"type": "node", "id": 5968940018, "lat": 42.2610145, "lon": 23.1070092, "tags": {"amenity": "pharmacy", "healthcare": "pharmacy"}}, {"type": "node", "id": 6224707419, "lat": 42.023052, "lon": 23.0900719}, {"type": "node", "id": 6224707420, "lat": 42.023056, "lon": 23.0901932}, {"type": "node", "id": 6224707421, "lat": 42.0229884, "lon": 23.0901972}, {"type": "node", "id": 6224707422, "lat": 42.0229844, "lon": 23.0900759}, {"type": "node", "id": 9139715776, "lat": 42.0866693, "lon": 23.0597379, "tags": {"addr:housenumber": "76", "amenity": "pharmacy", "dispensing": "yes", "healthcare": "pharmacy", "name": "Vital", "opening_hours": "Mo-Fr 10:00-18:00"}}, {"type": "node", "id": 9859124093, "lat": 42.2657662, "lon": 23.1170023, "tags": {"amenity": "pharmacy", "brand": "\u0424\u0435\u043d\u0438\u043a\u0441", "brand:wikidata": "Q108852116", "dispensing": "yes", "healthcare": "pharmacy", "int_name": "Feniks", "name": "\u0424\u0435\u043d\u0438\u043a\u0441", "name:bg": "\u0424\u0435\u043d\u0438\u043a\u0441"}}, {"type": "node", "id": 9859131168, "lat": 42.1264631, "lon": 23.1327346, "tags": {"addr:city": "\u0420\u0438\u043b\u0430", "addr:postcode": "2630", "amenity": "pharmacy", "dispensing": "yes", "healthcare": "pharmacy", "name": "\u0410\u043f\u0442\u0435\u043a\u0430 \u0420\u0438\u043b\u0430 1 \u0415\u041e\u041e\u0414", "phone": "+359 88 833 3435"}}, {"type": "node", "id": 10671874029, "lat": 42.2588032, "lon": 23.1035099, "tags": {"amenity": "pharmacy", "dispensing": "yes", "healthcare": "pharmacy", "name": "Ceiba", "website": "https://sopharmacy.bg/"}}, {"type": "node", "id": 10671878319, "lat": 42.2645262, "lon": 23.1161217, "tags": {"addr:city": "\u0414\u0443\u043f\u043d\u0438\u0446\u0430", "addr:housenumber": "4", "addr:street": "\u0421\u0432. \u0418\u0432\u0430\u043d \u0420\u0438\u043b\u0441\u043a\u0438", "amenity": "pharmacy", "dispensing": "yes", "healthcare": "pharmacy", "name": "\u0421\u0432. \u0418\u0432\u0430\u043d \u0420\u0438\u043b\u0441\u043a\u0438"}}, {"type": "node", "id": 10759745459, "lat": 42.2604614, "lon": 23.106404, "tags": {"amenity": "pharmacy", "dispensing": "yes", "healthcare": "pharmacy"}}, {"type": "node", "id": 10806881056, "lat": 42.2643975, "lon": 23.118664, "tags": {"amenity": "pharmacy", "healthcare": "pharmacy", "name": "\u0425\u0435\u043b\u0438\u043e\u0441-\u0444\u0430\u0440\u043c"}}, {"type": "node", "id": 10806881057, "lat": 42.2655262, "lon": 23.1175158, "tags": {"amenity": "pharmacy", "healthcare": "pharmacy", "name": "\u0425\u0435\u043b\u0438\u043e\u0441-\u0444\u0430\u0440\u043c"}}, {"type": "node", "id": 10806881058, "lat": 42.2641932, "lon": 23.1171528, "tags": {"amenity": "pharmacy", "brand": "\u041c\u0430\u0440\u0435\u0448\u043a\u0438", "brand:wikidata": "Q108852051", "healthcare": "pharmacy", "int_name": "Mareshki", "name": "\u041c\u0430\u0440\u0435\u0448\u043a\u0438", "name:bg": "\u041c\u0430\u0440\u0435\u0448\u043a\u0438"}}, {"type": "way", "id": 665030012, "nodes": [6224707419, 6224707420, 6224707421, 6224707422, 6224707419], "tags": {"amenity": "pharmacy", "building": "yes", "dispensing": "yes", "healthcare": "pharmacy"}}]}