{"version": 0.6, "generator": "Overpass API 0.7.62.8 e802775f", "osm3s": {"timestamp_osm_base": "2025-10-06T08:20:01Z", "copyright": "The data included in this document is from www.openstreetmap.org. The data is made available under ODbL."}, "elements": [{"type": "node", "id": 252206749, "lat": 48.7134631, "lon": 21.2310336, "tags": {"amenity": "pharmacy", "dispensing": "yes", "drive_through": "no", "healthcare": "pharmacy", "name": "Lek\u00e1re\u0148 Torysk\u00e1", "opening_hours": "Mo-Su 07:30-22:30", "phone": "+421 55 285 1733", "website": "https://www.partner.sk/"}}, {"type": "node", "id": 252206752, "lat": 48.7144402, "lon": 21.2158823, "tags": {"amenity": "pharmacy", "healthcare": "pharmacy", "name": "Panax", "opening_hours": "Mo-Fr 07:30-18:30; Sa off; Su off"}}, {"type": "node", "id": 252207708, "lat": 48.7162953, "lon": 21.2605124, "tags": {"amenity": "pharmacy", "brand": "Dr. Max", "brand:wikidata": "Q56317371", "brand:wikipedia": "fr:Dr.Max", "dispensing": "yes", "drive_through": "no", "email": "drmax@drmax.sk", "healthcare": "pharmacy", "name": "Dr. Max", "opening_hours": "Mo-Fr 07:30-18:00; Sa 08:00-12:00", "operator": "HEALTH CENTRUM s.r.o.", "payment:cash": "yes", "payment:coins": "yes", "payment:credit_cards": "yes", "payment:debit_cards": "yes", "phone": "+421 901 961 045", "website": "https://www.drmax.sk/", "wheelchair": "no"}}, {"type": "node", "id": 252207710, "lat": 48.7168773, "lon": 21.2588713, "tags": {"amenity": "pharmacy", "brand": "Benu", "brand:wikidata": "Q62562792", "check_date": "2024-06-27", "dispensing": "yes", "drive_through": "no", "email": "benu102@benulekaren.sk", "healthcare": "pharmacy", "level": "0", "name": "Benu", "opening_hours": "Mo-Fr 09:00-19:00; Sa 09:00-15:00", "operator": "FARMAPOL spol. s.r.o.", "payment:cash": "yes", "payment:coins": "yes", "payment:credit_cards": "yes", "payment:debit_cards": "yes", "phone": "+421 902 768 579", "website": "https://www.benulekaren.sk/", "wheelchair": "yes"}}, {"type": "node", "id": 252207711, "lat": 48.72761, "lon": 21.2463626, "tags": {"alt_name": "Lek\u00e1re\u0148 V\u00e1hy", "amenity": "pharmacy", "brand": "Va\u0161a Lek\u00e1re\u0148", "brand:wikidata": "Q108368884", "dispensing": "yes", "drive_through": "no", "email": "lekaren@vahykosice.sk", "healthcare": "pharmacy", "name": "Va\u0161a Lek\u00e1re\u0148", "opening_hours": "Mo-Fr 08:00-18:00", "operator": "DELF\u00cdN, s.r.o. Ko\u0161ice", "phone": "+421 55 622 6952", "wheelchair": "no"}}, {"type": "node", "id": 252207714, "lat": 48.7268626, "lon": 21.2544573, "tags": {"alt_name": "Marat\u00f3n", "amenity": "pharmacy", "brand": "PLUS LEK\u00c1RE\u0147", "brand:wikidata": "Q108369059", "dispensing": "yes", "drive_through": "no", "email": "lekarenmaraton@lekarenmaraton.sk", "healthcare": "pharmacy", "name": "PLUS LEK\u00c1RE\u0147", "opening_hours": "Mo-Fr 07:30-18:30; Sa 07:30-13:00", "operator": "PLUS Lek\u00e1rne\u0148", "payment:cash": "yes", "payment:coins": "yes", "payment:credit_cards": "yes", "payment:debit_cards": "yes", "phone": "+421 55 622 0069", "website": "https://www.lekarenmaraton.sk/", "wheelchair": "yes"}}, {"type": "node", "id": 259610091, "lat": 48.7115621, "lon": 21.2143157, "tags": {"alt_name": "Lek\u00e1re\u0148 UNION PLUS", "amenity": "pharmacy", "brand": "PLUS LEK\u00c1RE\u0147", "brand:wikidata": "Q108369059", "dispensing": "yes", "drive_through": "no", "email": "lekarenunionplus@stonline.sk", "healthcare": "pharmacy", "name": "PLUS LEK\u00c1RE\u0147", "opening_hours": "Mo-Fr 08:00-18:00", "operator": "PLUS Lek\u00e1rne", "payment:cash": "yes", "payment:coins": "yes", "payment:credit_cards": "yes", "payment:debit_cards": "yes", "phone": "+421 55 645 2294", "website": "https://pluslekaren.sk/", "wheelchair": "yes"}}, {"type": "node", "id": 271132864, "lat": 48.7217967, "lon": 21.2522924, "tags": {"alt_name": "Apoth\u00e9que", "amenity": "pharmacy", "brand": "PLUS LEK\u00c1RE\u0147", "brand:wikidata": "Q108369059", "contact:facebook": "https://www.facebook.com/Apoth\u00e9que-lek\u00e1re\u0148-1581370585431388/", "dispensing": "yes", "drive_through": "no", "email": "apothequelekaren@gmail.com", "healthcare": "pharmacy", "name": "PLUS LEK\u00c1RE\u0147", "opening_hours": "Mo-Fr 08:00-16:30", "operator": "PLUS Lek\u00e1rne", "payment:cash": "yes", "payment:coins": "yes", "payment:credit_cards": "yes", "payment:debit_cards": "yes", "phone": "+421 55 699 8097", "website": "https://pluslekaren.sk/", "wheelchair": "limited"}}, {"type": "node", "id": 271132865, "lat": 48.7254804, "lon": 21.246166, "tags": {"air_conditioning": "yes", "amenity": "pharmacy", "brand": "Benu", "brand:wikidata": "Q62562792", "dispensing": "yes", "drive_through": "no", "healthcare": "pharmacy", "level": "0", "name": "Benu", "opening_hours": "Mo-Fr 08:00-18:00; Sa 08:00-12:00", "payment:cash": "yes", "payment:coins": "yes", "payment:credit_cards": "yes", "payment:debit_cards": "yes", "website": "https://www.benulekaren.sk/", "wheelchair": "yes"}}, {"type": "node", "id": 280459134, "lat": 48.7257154, "lon": 21.2566552}, {"type": "node", "id": 307859569, "lat": 48.7235414, "lon": 21.2585984, "tags": {"amenity": "pharmacy", "healthcare": "pharmacy", "name": "Zdravie", "wheelchair": "no"}}, {"type": "node", "id": 307863635, "lat": 48.7182733, "lon": 21.2570483, "tags": {"alt_name": "Bazalka", "amenity": "pharmacy", "brand": "PLUS LEK\u00c1RE\u0147", "brand:wikidata": "Q108369059", "dispensing": "yes", "drive_through": "no", "email": "lekaren.kor36@gmail.com", "healthcare": "pharmacy", "name": "PLUS LEK\u00c1RE\u0147", "opening_hours": "Mo-Fr 08:00-16:00", "operator": "PLUS Lek\u00e1rne", "payment:cash": "yes", "payment:coins": "yes", "payment:credit_cards": "yes", "payment:debit_cards": "yes", "phone": "+421 911 937 561", "website": "https://pluslekaren.sk/", "wheelchair": "yes"}}, {"type": "node", "id": 349928980, "lat": 48.7054636, "lon": 21.2445605, "tags": {"alt_name": "Rondo Drive In", "amenity": "pharmacy", "brand": "PLUS LEK\u00c1RE\u0147", "brand:wikidata": "Q108369059", "dispensing": "yes", "drive_through": "yes", "email": "info@lekarenrondo.sk", "healthcare": "pharmacy", "level": "0", "name": "PLUS LEK\u00c1RE\u0147", "opening_hours": "Mo-Fr 07:30-16:00", "operator": "Lekarenrondo, s.r.o.", "payment:cash": "yes", "payment:coins": "yes", "payment:credit_cards": "yes", "payment:debit_cards": "yes", "phone": "+421 918 778 621", "website": "https://pluslekaren.sk/lekaren/rondo-drive-in/", "wheelchair": "yes"}}, {"type": "node", "id": 362723151, "lat": 48.7549617, "lon": 21.2676753, "tags": {"alt_name": "Elix\u00edr", "amenity": "pharmacy", "brand": "PLUS LEK\u00c1RE\u0147", "brand:wikidata": "Q108369059", "dispensing": "yes", "drive_through": "no", "email": "healthcaresro@gmail.com", "healthcare": "pharmacy", "name": "PLUS LEK\u00c1RE\u0147", "opening_hours": "Mo 08:00-16:00; Tu-We 08:00-17:00; Th-Fr 08:00-16:00", "operator": "PLUS Lek\u00e1rne", "payment:cash": "yes", "payment:coins": "yes", "payment:credit_cards": "yes", "payment:debit_cards": "yes", "phone": "+421 917 329 531", "website": "https://pluslekaren.sk/", "wheelchair": "yes"}}, {"type": "node", "id": 370782479, "lat": 48.7088822, "lon": 21.2575903, "tags": {"alt_name": "ADONAI", "amenity": "pharmacy", "brand": "PLUS LEK\u00c1RE\u0147", "brand:wikidata": "Q108369059", "dispensing": "yes", "drive_through": "no", "email": "lekaren@adonai.sk", "healthcare": "pharmacy", "name": "PLUS LEK\u00c1RE\u0147", "opening_hours": "Mo 07:30-15:30; Tu-We 07:30-16:00; Th-Fr 07:30-15:30", "phone": "+421 55 685 4090", "website": "https://pluslekaren.sk/"}}, {"type": "node", "id": 386867066, "lat": 48.7181265, "lon": 21.2600627, "tags": {"amenity": "pharmacy", "dispensing": "no", "drive_through": "no", "healthcare": "pharmacy", "name": "Arnica", "opening_hours": "Mo-Fr 07:30-16:30"}}, {"type": "node", "id": 428001683, "lat": 48.7222281, "lon": 21.2548311, "tags": {"alt_name": "Lek\u00e1re\u0148 Sv. Terezky", "amenity": "pharmacy", "brand": "PLUS LEK\u00c1RE\u0147", "brand:wikidata": "Q108369059", "dispensing": "yes", "drive_through": "no", "email": "lekarensvterezky@gmail.com", "healthcare": "pharmacy", "name": "PLUS LEK\u00c1RE\u0147", "old_name": "Primula", "opening_hours": "Mo-Fr 07:00-15:00", "payment:cash": "yes", "payment:coins": "yes", "payment:credit_cards": "yes", "payment:debit_cards": "yes", "phone": "+421 948 551 717", "website": "https://pluslekaren.sk/", "wheelchair": "no"}}, {"type": "node", "id": 430291180, "lat": 48.7332276, "lon": 21.2524797, "tags": {"amenity": "pharmacy", "healthcare": "pharmacy", "name": "Aviona"}}, {"type": "node", "id": 430919525, "lat": 48.7205705, "lon": 21.2586503, "tags": {"alt_name": "Lek\u00e1re\u0148 pri D\u00f3me", "amenity": "pharmacy", "brand": "Dr. Max", "brand:wikidata": "Q56317371", "brand:wikipedia": "fr:Dr.Max", "check_date:opening_hours": "2025-09-24", "dispensing": "yes", "drive_through": "no", "email": "drmax@drmax.sk", "healthcare": "pharmacy", "name": "Dr. Max", "opening_hours": "Mo-Fr 08:00-18:00", "operator": "SUISSE PHARMACIA, spol. s.r.o.", "payment:cash": "yes", "payment:coins": "yes", "payment:credit_cards": "yes", "payment:debit_cards": "yes", "website": "https://www.drmax.sk/", "wheelchair": "limited"}}, {"type": "node", "id": 432605385, "lat": 48.7215677, "lon": 21.261722, "tags": {"amenity": "pharmacy", "dispensing": "yes", "drive_through": "no", "email": "damiankosice@farmakol.eu", "healthcare": "pharmacy", "image": "https://backend.freemap.sk/gallery/pictures/664792/image", "name": "Lek\u00e1re\u0148 u Dami\u00e1na", "opening_hours": "Mo-Fr 07:30-16:00", "operator": "Arnica plus, spol. s.r.o., Holl\u00e9ho 3, Pre\u0161ov", "phone": "+421 55 632 3267", "website": "http://www.farmakol.eu/node/32"}}, {"type": "node", "id": 467891796, "lat": 48.7169908, "lon": 21.269009, "tags": {"alt_name": "Lek\u00e1re\u0148 na Krivej", "amenity": "pharmacy", "brand": "PLUS LEK\u00c1RE\u0147", "brand:wikidata": "Q108369059", "dispensing": "yes", "drive_through": "no", "email": "ecisok1@gmail.com", "healthcare": "pharmacy", "name": "PLUS LEK\u00c1RE\u0147", "opening_hours": "Mo-Th 07:30-17:00; Fr 07:30-16:00", "operator": "PLUS Lek\u00e1rne", "payment:cash": "yes", "payment:coins": "yes", "payment:credit_cards": "yes", "payment:debit_cards": "yes", "phone": "+421 55 729 0710", "website": "https://pluslekaren.sk/lekaren/na-krivej/", "wheelchair": "yes"}}, {"type": "node", "id": 474694465, "lat": 48.7221687, "lon": 21.2382903, "tags": {"amenity": "pharmacy", "dispensing": "yes", "drive_through": "no", "healthcare": "pharmacy", "name": "SyndiPharma", "wheelchair": "yes"}}, {"type": "node", "id": 621920450, "lat": 48.7228548, "lon": 21.2674536}, {"type": "node", "id": 650553341, "lat": 48.7215461, "lon": 21.2378043, "tags": {"amenity": "pharmacy", "brand": "Schneider", "brand:wikidata": "Q93514377", "dispensing": "yes", "drive_through": "no", "healthcare": "pharmacy", "name": "Schneider", "opening_hours": "Mo-Fr 07:30-16:00", "operator": "Pharmacy, spol. s.r.o.", "website": "https://www.schneider-lekaren.sk/"}}, {"type": "node", "id": 650553667, "lat": 48.7205537, "lon": 21.2409515, "tags": {"access": "yes", "entrance": "main"}}, {"type": "node", "id": 650553669, "lat": 48.7205468, "lon": 21.2409467}, {"type": "node", "id": 650553671, "lat": 48.7205781, "lon": 21.2408308}, {"type": "node", "id": 650553672, "lat": 48.7205811, "lon": 21.2410373}, {"type": "node", "id": 650553680, "lat": 48.7206836, "lon": 21.2408949}, {"type": "node", "id": 650553682, "lat": 48.7206532, "lon": 21.2410058}, {"type": "node", "id": 650553684, "lat": 48.7206923, "lon": 21.2410294}, {"type": "node", "id": 650553687, "lat": 48.7206752, "lon": 21.241094}, {"type": "node", "id": 650553689, "lat": 48.7205973, "lon": 21.2409777}, {"type": "node", "id": 690233052, "lat": 48.7272573, "lon": 21.2497652, "tags": {"alt_name": "Viola", "amenity": "pharmacy", "brand": "PLUS LEK\u00c1RE\u0147", "brand:wikidata": "Q108369059", "dispensing": "yes", "drive_through": "no", "email": "lekaren@lekarenviola.sk", "healthcare": "pharmacy", "name": "PLUS LEK\u00c1RE\u0147", "opening_hours": "Mo-Fr 08:00-16:00", "operator": "PLUS Lek\u00e1rne", "payment:cash": "yes", "payment:coins": "yes", "payment:credit_cards": "yes", "payment:debit_cards": "yes", "phone": "+421 55 625 1758", "website": "https://pluslekaren.sk/lekaren/viola/", "wheelchair": "yes"}}, {"type": "node", "id": 762020626, "lat": 48.7144468, "lon": 21.2383563, "tags": {"amenity": "pharmacy", "brand": "Benu", "brand:wikidata": "Q62562792", "dispensing": "yes", "drive_through": "no", "email": "benu14@benulekaren.sk", "healthcare": "pharmacy", "level": "0", "name": "Benu", "opening_hours": "Mo-Sa 09:00-21:00", "operator": "BENU SK 14, s.r.o.", "payment:cash": "yes", "payment:coins": "yes", "payment:credit_cards": "yes", "payment:debit_cards": "yes", "phone": "+421 915 770 035", "website": "https://www.benulekaren.sk/", "wheelchair": "yes"}}, {"type": "node", "id": 770313534, "lat": 48.7091667, "lon": 21.2046361, "tags": {"alt_name": "Lek\u00e1re\u0148 MYSLAVA", "amenity": "pharmacy", "brand": "Va\u0161a Lek\u00e1re\u0148", "brand:wikidata": "Q108368884", "dispensing": "yes", "drive_through": "no", "email": "myslavalekaren@gmail.com", "healthcare": "pharmacy", "name": "Va\u0161a Lek\u00e1re\u0148", "opening_hours": "Mo-Fr 08:00-16:30", "payment:cash": "yes", "payment:coins": "yes", "payment:credit_cards": "yes", "payment:debit_cards": "yes", "phone": "+421 55 644 6317", "website": "https://www.vasalekaren.sk/"}}, {"type": "node", "id": 791149095, "lat": 48.7086974, "lon": 21.257045, "tags": {"amenity": "pharmacy", "healthcare": "pharmacy", "name": "Unlp", "opening_hours": "Mo-Fr 07:30-15:30"}}, {"type": "node", "id": 838776040, "lat": 48.6997077, "lon": 21.2372147, "tags": {"amenity": "pharmacy", "brand": "Dr. Max", "brand:wikidata": "Q56317371", "brand:wikipedia": "fr:Dr.Max", "dispensing": "yes", "drive_through": "no", "email": "drmax@drmax.sk", "healthcare": "pharmacy", "name": "Dr. Max", "opening_hours": "Mo-Su 08:00-20:00", "operator": "PHARMASHOP s.r.o.", "payment:cash": "yes", "payment:coins": "yes", "payment:credit_cards": "yes", "payment:debit_cards": "yes", "phone": "+421 901 961 031", "toilets:wheelchair": "yes", "website": "https://www.drmax.sk/", "wheelchair": "yes"}}, {"type": "node", "id": 847052472, "lat": 48.712952, "lon": 21.2116505, "tags": {"amenity": "pharmacy", "dispensing": "yes", "drive_through": "no", "email": "lekareniskra@gmail.com", "healthcare": "pharmacy", "name": "Iskra", "opening_hours": "Mo-Fr 09:00-18:00; Sa 09:00-12:00", "operator": "Partner", "payment:cash": "yes", "payment:coins": "yes", "payment:credit_cards": "yes", "payment:debit_cards": "yes", "phone": "+421 55 6857 567", "website": "https://www.partner.sk/", "wheelchair": "yes"}}, {"type": "node", "id": 860196041, "lat": 48.7177469, "lon": 21.2504634, "tags": {"alt_name": "ART", "amenity": "pharmacy", "brand": "Va\u0161a Lek\u00e1re\u0148", "brand:wikidata": "Q108368884", "dispensing": "yes", "drive_through": "no", "email": "lekaren.art@gmail.com", "healthcare": "pharmacy", "name": "Va\u0161a Lek\u00e1re\u0148", "opening_hours": "Mo-Fr 07:00-16:30", "payment:cash": "yes", "payment:coins": "yes", "payment:credit_cards": "yes", "payment:debit_cards": "yes", "phone": "+421 55 464 7371", "website": "https://www.vasalekaren.sk/", "wheelchair": "yes"}}, {"type": "node", "id": 860196503, "lat": 48.72816, "lon": 21.2598563, "tags": {"amenity": "pharmacy", "brand": "Dr. Max", "brand:wikidata": "Q56317371", "brand:wikipedia": "fr:Dr.Max", "dispensing": "yes", "drive_through": "no", "email": "drmax@drmax.sk", "healthcare": "pharmacy", "name": "Dr. Max", "opening_hours": "Mo-Fr 07:30-16:00", "operator": "Novozit s.r.o.", "payment:cash": "yes", "payment:coins": "yes", "payment:credit_cards": "yes", "payment:debit_cards": "yes", "phone": "+421 901 961 089", "website": "https://www.drmax.sk/", "wheelchair": "limited"}}, {"type": "node", "id": 883064817, "lat": 48.7309089, "lon": 21.2430532, "tags": {"amenity": "pharmacy", "brand": "Dr. Max", "brand:wikidata": "Q56317371", "brand:wikipedia": "fr:Dr.Max", "dispensing": "yes", "drive_through": "no", "email": "drmax@drmax.sk", "healthcare": "pharmacy", "level": "0", "name": "Dr. Max", "opening_hours": "Mo-Fr 08:00-16:30", "operator": "PHARMAKRAFT s.r.o.", "payment:cash": "yes", "payment:coins": "yes", "payment:credit_cards": "yes", "payment:debit_cards": "yes", "phone": "+421 901 961 013", "website": "https://www.drmax.sk/", "wheelchair": "yes"}}, {"type": "node", "id": 916095061, "lat": 48.75432, "lon": 21.2684974, "tags": {"amenity": "pharmacy", "brand": "Benu", "brand:wikidata": "Q62562792", "dispensing": "yes", "drive_through": "no", "email": "benu4@benulekaren.sk", "healthcare": "pharmacy", "name": "Benu", "opening_hours": "Mo-Fr 08:00-18:00; Sa 08:00-12:00", "operator": "BENU SK 4, s.r.o.", "payment:cash": "yes", "payment:coins": "yes", "payment:credit_cards": "yes", "payment:debit_cards": "yes", "phone": "+421 905 732 313", "website": "https://www.benulekaren.sk/", "wheelchair": "yes"}}, {"type": "node", "id": 916095470, "lat": 48.7559609, "lon": 21.2670565, "tags": {"amenity": "pharmacy", "brand": "Schneider", "brand:wikidata": "Q93514377", "dispensing": "yes", "drive_through": "no", "email": "remedia@schneider-lekaren.sk", "healthcare": "pharmacy", "name": "Schneider", "opening_hours": "Mo-Tu 07:15-15:15; We 08:00-17:00; Th 08:00-18:00; Fr 07:15-15:15", "operator": "Schneider Lek\u00e1re\u0148/Remedia", "payment:cash": "yes", "payment:coins": "yes", "payment:credit_cards": "yes", "payment:debit_cards": "yes", "phone": "+421 902 954 937", "website": "https://www.schneider-lekaren.sk/", "wheelchair": "yes"}}, {"type": "node", "id": 916095749, "lat": 48.7552014, "lon": 21.2679052, "tags": {"amenity": "pharmacy", "healthcare": "pharmacy", "name": "Ave"}}, {"type": "node", "id": 974182316, "lat": 48.6841625, "lon": 21.2899319, "tags": {"alt_name": "Apis", "amenity": "pharmacy", "brand": "PLUS LEK\u00c1RE\u0147", "brand:wikidata": "Q108369059", "dispensing": "yes", "drive_through": "no", "email": "lekarenapis@bpharm.sk", "healthcare": "pharmacy", "name": "PLUS LEK\u00c1RE\u0147", "opening_hours": "Mo-Fr 08:00-17:00", "payment:cash": "yes", "payment:coins": "yes", "payment:credit_cards": "yes", "payment:debit_cards": "yes", "phone": "+421 55 6741 896", "website": "https://pluslekaren.sk/", "wheelchair": "limited"}}, {"type": "node", "id": 983095157, "lat": 48.7330775, "lon": 21.2518923, "tags": {"amenity": "pharmacy", "healthcare": "pharmacy", "name": "\u017divena"}}, {"type": "node", "id": 1009390145, "lat": 48.7123137, "lon": 21.2390106, "tags": {"amenity": "pharmacy", "healthcare": "pharmacy", "name": "Sanbuccus"}}, {"type": "node", "id": 1051975818, "lat": 48.7263796, "lon": 21.2552458, "tags": {"amenity": "pharmacy", "brand": "Dr. Max", "brand:wikidata": "Q56317371", "brand:wikipedia": "fr:Dr.Max", "check_date:opening_hours": "2025-07-31", "dispensing": "yes", "drive_through": "no", "email": "drmax@drmax.sk", "healthcare": "pharmacy", "name": "Dr. Max", "opening_hours": "Mo-Fr 08:00-16:30", "operator": "Dr.Max 19 s.r.o.", "payment:cash": "yes", "payment:coins": "yes", "payment:credit_cards": "yes", "payment:debit_cards": "yes", "phone": "+421 901 961 130", "website": "https://www.drmax.sk/", "wheelchair": "limited"}}, {"type": "node", "id": 1113968166, "lat": 48.7069739, "lon": 21.2575833, "tags": {"amenity": "pharmacy", "dispensing": "yes", "drive_through": "no", "email": "juhlekaren@gmail.com", "healthcare": "pharmacy", "name": "Lek\u00e1re\u0148 Juh", "opening_hours": "Mo-Fr 07:30-17:00", "operator": "PLUS Lek\u00e1rne", "payment:cash": "yes", "payment:coins": "yes", "payment:credit_cards": "yes", "payment:debit_cards": "yes", "phone": "+421 55 623 0210", "website": "https://pluslekaren.sk/", "wheelchair": "yes"}}, {"type": "node", "id": 1123315066, "lat": 48.7071225, "lon": 21.2575115, "tags": {"amenity": "pharmacy", "dispensing": "yes", "drive_through": "no", "healthcare": "pharmacy", "name": "Lek\u00e1re\u0148 Botica", "opening_hours": "Mo-Fr 07:30-12:00,12:30-16:00", "operator": "Farmsob, s. r. o., Pre\u0161ov"}}, {"type": "node", "id": 1229567501, "lat": 48.7236488, "lon": 21.2572421, "tags": {"amenity": "pharmacy", "dispensing": "yes", "drive_through": "no", "healthcare": "pharmacy", "name": "Lek\u00e1re\u0148 Zdravofarm", "opening_hours": "Mo-Fr 08:30-17:00", "operator": "Lek\u00e1re\u0148 Zdravofarm s.r.o.", "payment:cash": "yes", "payment:coins": "yes", "payment:credit_cards": "yes", "payment:debit_cards": "yes", "shop": "medical_supply", "website": "https://www.partner.sk/", "wheelchair": "limited"}}, {"type": "node", "id": 1290686258, "lat": 48.7209629, "lon": 21.2405805, "tags": {"amenity": "pharmacy", "dispensing": "yes", "drive_through": "no", "healthcare": "pharmacy", "name": "Lek\u00e1re\u0148 V\u00daSCH", "wheelchair": "limited"}}, {"type": "node", "id": 1308540975, "lat": 48.7071192, "lon": 21.2603032, "tags": {"amenity": "pharmacy", "brand": "Dr. Max", "brand:wikidata": "Q56317371", "brand:wikipedia": "fr:Dr.Max", "dispensing": "yes", "drive_through": "no", "email": "drmax@drmax.sk", "healthcare": "pharmacy", "name": "Dr. Max", "opening_hours": "Mo-Fr 07:30-16:00", "operator": "Dr.Max 601 s.r.o.", "payment:cash": "yes", "payment:coins": "yes", "payment:credit_cards": "yes", "payment:debit_cards": "yes", "phone": "+421 901 961 661", "website": "https://www.drmax.sk/", "wheelchair": "yes"}}, {"type": "node", "id": 1336055391, "lat": 48.707646, "lon": 21.244585, "tags": {"alt_name": "Slne\u010dnica", "amenity": "pharmacy", "brand": "PLUS LEK\u00c1RE\u0147", "brand:wikidata": "Q108369059", "dispensing": "yes", "drive_through": "no", "email": "lekarenke02@lekarneslnecnica.sk", "healthcare": "pharmacy", "level": "1", "name": "PLUS LEK\u00c1RE\u0147", "opening_hours": "Mo-Fr 07:30-16:00", "operator": "PLUS Lek\u00e1rne", "payment:cash": "yes", "payment:coins": "yes", "payment:credit_cards": "yes", "payment:debit_cards": "yes", "phone": "+421 55 642 5025", "website": "https://pluslekaren.sk/", "wheelchair": "yes"}}, {"type": "node", "id": 1345708515, "lat": 48.7154856, "lon": 21.2132133, "tags": {"amenity": "pharmacy", "brand": "Dr. Max", "brand:wikidata": "Q56317371", "brand:wikipedia": "fr:Dr.Max", "dispensing": "yes", "drive_through": "no", "email": "drmax@drmax.sk", "healthcare": "pharmacy", "level": "0", "name": "Dr. Max", "opening_hours": "Mo-Su 08:00-20:00", "operator": "NATURAL-MARKET s.r.o.", "payment:cash": "yes", "payment:coins": "yes", "payment:credit_cards": "yes", "payment:debit_cards": "yes", "phone": "+421 901 961 069", "website": "https://www.drmax.sk/", "wheelchair": "yes"}}, {"type": "node", "id": 1367996834, "lat": 48.7105761, "lon": 21.2327813, "tags": {"amenity": "pharmacy", "brand": "Benu", "brand:wikidata": "Q62562792", "dispensing": "yes", "drive_through": "no", "email": "benu3@benulekaren.sk", "healthcare": "pharmacy", "name": "Benu", "opening_hours": "Mo-Fr 08:00-16:00", "operator": "BENU SK 3, s.r.o.", "payment:cash": "yes", "payment:coins": "yes", "payment:credit_cards": "yes", "payment:debit_cards": "yes", "phone": "+421 918 633 551", "website": "https://www.benulekaren.sk/", "wheelchair": "limited"}}, {"type": "node", "id": 1387861064, "lat": 48.7355895, "lon": 21.2476719, "tags": {"amenity": "pharmacy", "brand": "Benu", "brand:wikidata": "Q62562792", "dispensing": "yes", "drive_through": "no", "email": "benu841@benulekaren.sk", "healthcare": "pharmacy", "level": "0", "name": "Benu", "opening_hours": "Mo-Fr 08:00-16:30; Sa-Su off", "payment:cash": "yes", "payment:coins": "yes", "payment:credit_cards": "yes", "payment:debit_cards": "yes", "phone": "+421 917 212 460", "website": "https://www.benulekaren.sk/lekaren-benu-841", "wheelchair": "yes"}}, {"type": "node", "id": 1473364841, "lat": 48.7206248, "lon": 21.2116905, "tags": {"amenity": "pharmacy", "brand": "Dr. Max", "brand:wikidata": "Q56317371", "brand:wikipedia": "fr:Dr.Max", "dispensing": "yes", "drive_through": "no", "email": "drmax@drmax.sk", "healthcare": "pharmacy", "level": "0", "name": "Dr. Max", "opening_hours": "Mo-Fr 07:30-16:00", "operator": "RECEPIS s.r.o.", "payment:cash": "yes", "payment:coins": "yes", "payment:credit_cards": "yes", "payment:debit_cards": "yes", "phone": "+421 901 961 313", "website": "https://www.drmax.sk/", "wheelchair": "yes"}}, {"type": "node", "id": 1798024917, "lat": 48.7452229, "lon": 21.2458958, "tags": {"amenity": "pharmacy", "dispensing": "yes", "healthcare": "pharmacy", "name": "Pharmacopola", "source": "survey"}}, {"type": "node", "id": 1817644464, "lat": 48.6131026, "lon": 20.9954539, "tags": {"amenity": "pharmacy", "brand": "Dr. Max", "brand:wikidata": "Q56317371", "dispensing": "yes", "healthcare": "pharmacy", "level": "0", "name": "Dr. Max", "opening_hours": "Mo-Fr 07:30-16:00; Sa-Su off", "operator": "TIMPHU, s. r. o.", "website": "https://www.drmax.sk/", "wheelchair": "yes"}}, {"type": "node", "id": 1825401409, "lat": 48.7339699, "lon": 21.2503325, "tags": {"amenity": "pharmacy", "brand": "Dr. Max", "brand:wikidata": "Q56317371", "brand:wikipedia": "fr:Dr.Max", "dispensing": "yes", "drive_through": "no", "email": "drmax@drmax.sk", "healthcare": "pharmacy", "name": "Dr. Max", "opening_hours": "Mo, Th- Fr 07:30-16:00; Tu-We 07:30-18:00", "operator": "Dr.Max 10 s.r.o.", "payment:cash": "yes", "payment:coins": "yes", "payment:credit_cards": "yes", "payment:debit_cards": "yes", "phone": "+421 901 961 105", "website": "https://www.drmax.sk/", "wheelchair": "limited"}}, {"type": "node", "id": 1826047829, "lat": 48.6901815, "lon": 21.283892, "tags": {"amenity": "pharmacy", "dispensing": "yes", "drive_through": "no", "healthcare": "pharmacy", "name": "Fialka", "opening_hours": "Mo-Fr 08:00-16:00", "operator": "Partner", "payment:cash": "yes", "payment:coins": "yes", "payment:credit_cards": "yes", "payment:debit_cards": "yes", "phone": "+421 55 6746 014", "website": "https://www.partner.sk/", "wheelchair": "limited"}}, {"type": "node", "id": 1924177415, "lat": 48.7087904, "lon": 21.2362255, "tags": {"amenity": "pharmacy", "brand": "Schneider", "brand:wikidata": "Q93514377", "dispensing": "yes", "drive_through": "no", "email": "terasa@schneider-lekaren.sk", "healthcare": "pharmacy", "name": "Schneider", "opening_hours": "Mo-We 07:45-16:15; Th 07:45-17:00; Fr 07:45-15:30", "operator": "Schneider Lek\u00e1re\u0148", "payment:cash": "yes", "payment:coins": "yes", "payment:credit_cards": "yes", "payment:debit_cards": "yes", "phone": "+421 902 954 952", "website": "https://www.schneider-lekaren.sk/"}}, {"type": "node", "id": 2385333669, "lat": 48.6023803, "lon": 21.3491164, "tags": {"amenity": "pharmacy", "healthcare": "pharmacy"}}, {"type": "node", "id": 2964306148, "lat": 48.7150407, "lon": 21.2372686, "tags": {"amenity": "pharmacy", "brand": "Dr. Max", "brand:wikidata": "Q56317371", "brand:wikipedia": "fr:Dr.Max", "dispensing": "yes", "drive_through": "no", "email": "drmax@drmax.sk", "healthcare": "pharmacy", "level": "0", "name": "Dr. Max", "opening_hours": "Mo-Sa 09:00-21:00", "operator": "BLUE-STORE s.r.o.", "payment:cash": "yes", "payment:coins": "yes", "payment:credit_cards": "yes", "payment:debit_cards": "yes", "phone": "+421 901 961 071", "website": "https://www.drmax.sk/", "wheelchair": "yes"}}, {"type": "node", "id": 2966814519, "lat": 48.6990269, "lon": 20.8962327, "tags": {"addr:city": "Medzev", "addr:postcode": "044 25", "addr:street": "Kov\u00e1\u010dska", "amenity": "pharmacy", "healthcare": "pharmacy", "name": "Pharmacy s.r.o."}}, {"type": "node", "id": 3345680040, "lat": 48.6831648, "lon": 20.971048, "tags": {"amenity": "pharmacy", "contact:phone": "+421 55 466 41 12", "name": "U Premon\u0161tr\u00e1tov", "opening_hours": "Mo-Fr 07:00-15:30;Sa-Su off", "operator": "Mgr. Katar\u00edna Prestlov\u00e1"}}, {"type": "node", "id": 3452063222, "lat": 48.7260526, "lon": 21.245491, "tags": {"amenity": "pharmacy", "brand": "Dr. Max", "brand:wikidata": "Q56317371", "dispensing": "yes", "drive_through": "no", "email": "drmax@drmax.sk", "healthcare": "pharmacy", "level": "1", "name": "Dr. Max", "opening_hours": "Mo-Fr 07:00-15:30", "operator": "Dr.Max 139 s.r.o.", "payment:cash": "yes", "payment:coins": "yes", "payment:credit_cards": "yes", "payment:debit_cards": "yes", "phone": "+421 901 961 330", "website": "https://www.drmax.sk/", "wheelchair": "yes"}}, {"type": "node", "id": 3462282188, "lat": 48.562733, "lon": 20.838467, "tags": {"amenity": "pharmacy", "drive_through": "no", "source": "turistautak.hu", "source:date": "2009-10-06", "url": "http://turistautak.hu/poi.php?id=76094"}}, {"type": "node", "id": 3662173982, "lat": 48.6334243, "lon": 21.1705303, "tags": {"alt_name": "Harman\u010dek", "amenity": "pharmacy", "brand": "Va\u0161a Lek\u00e1re\u0148", "brand:wikidata": "Q108368884", "dispensing": "yes", "drive_through": "no", "email": "l.harmancek@gmail.com", "healthcare": "pharmacy", "level": "0", "name": "Va\u0161a Lek\u00e1re\u0148", "opening_hours": "Mo-Fr 08:00-16:00", "operator": "Va\u0161a lek\u00e1re\u0148", "phone": "+421 55 632 0004", "website": "https://www.vasalekaren.sk/", "wheelchair": "yes"}}, {"type": "node", "id": 3798165499, "lat": 48.7393786, "lon": 21.2511887, "tags": {"amenity": "pharmacy", "check_date:opening_hours": "2023-12-20", "dispensing": "yes", "drive_through": "no", "email": "uspasitelake@gmail.com", "healthcare": "pharmacy", "level": "0", "name": "U Spasite\u013ea", "opening_hours": "Mo-Fr 07:30-18:00; Sa 08:00-12:00", "operator": "Partner", "payment:cash": "yes", "payment:coins": "yes", "payment:credit_cards": "yes", "payment:debit_cards": "yes", "phone": "+421 908 023 066", "website": "https://www.partner.sk/", "wheelchair": "yes"}}, {"type": "node", "id": 4176597599, "lat": 48.7288675, "lon": 21.2426948, "tags": {"amenity": "pharmacy", "brand": "Benu", "brand:wikidata": "Q62562792", "dispensing": "yes", "drive_through": "no", "email": "benu78@benulekaren.sk", "healthcare": "pharmacy", "level": "1", "name": "Benu", "opening_hours": "Mo-Fr 08:00-16:00", "operator": "BENU SK 78, s.r.o.", "payment:cash": "yes", "payment:coins": "yes", "payment:credit_cards": "yes", "payment:debit_cards": "yes", "phone": "+421 908 716 825", "website": "https://www.benulekaren.sk/", "wheelchair": "yes"}}, {"type": "node", "id": 4393294093, "lat": 48.6078307, "lon": 21.3236338, "tags": {"amenity": "pharmacy", "healthcare": "pharmacy"}}, {"type": "node", "id": 4450713197, "lat": 48.7184226, "lon": 21.2460349, "tags": {"alt_name": "Lek\u00e1re\u0148 AGEL", "amenity": "pharmacy", "brand": "PLUS LEK\u00c1RE\u0147", "brand:wikidata": "Q108369059", "dispensing": "yes", "drive_through": "no", "email": "lekarencassovar@gmail.com", "healthcare": "pharmacy", "level": "0", "name": "PLUS LEK\u00c1RE\u0147", "opening_hours": "Mo-Fr 09:00-17:00", "operator": "PLUS Lek\u00e1rne", "payment:cash": "yes", "payment:coins": "yes", "payment:credit_cards": "yes", "payment:debit_cards": "yes", "phone": "+421 55 723 4330", "website": "https://pluslekaren.sk/", "wheelchair": "yes"}}, {"type": "node", "id": 4819647935, "lat": 48.7183552, "lon": 21.2637903}, {"type": "node", "id": 4950775697, "lat": 48.7349001, "lon": 21.253677, "tags": {"amenity": "pharmacy", "check_date:opening_hours": "2022-11-25", "dispensing": "yes", "drive_through": "no", "healthcare": "pharmacy", "name": "Kamilka", "opening_hours": "Mo-Fr 07:30-16:00", "wheelchair": "yes"}}, {"type": "node", "id": 4971889720, "lat": 48.6841493, "lon": 21.2849221, "tags": {"amenity": "pharmacy", "brand": "Dr. Max", "brand:wikidata": "Q56317371", "brand:wikipedia": "fr:Dr.Max", "dispensing": "yes", "drive_through": "no", "email": "drmax@drmax.sk", "healthcare": "pharmacy", "name": "Dr. Max", "opening_hours": "Mo-Su 8:00-20:00", "operator": "Dr.Max 48 s.r.o.", "payment:cash": "yes", "payment:coins": "yes", "payment:credit_cards": "yes", "payment:debit_cards": "yes", "phone": "+421 901 961 174", "website": "https://www.drmax.sk/", "wheelchair": "yes"}}, {"type": "node", "id": 4983362074, "lat": 48.721317, "lon": 21.2676534, "tags": {"amenity": "pharmacy", "brand": "Dr. Max", "brand:wikidata": "Q56317371", "brand:wikipedia": "fr:Dr.Max", "dispensing": "yes", "drive_through": "no", "email": "drmax@drmax.sk", "healthcare": "pharmacy", "name": "Dr. Max", "opening_hours": "Mo-Fr 07:00-17:30", "operator": "Dr.Max 59 s.r.o.", "payment:cash": "yes", "payment:coins": "yes", "payment:credit_cards": "yes", "payment:debit_cards": "yes", "phone": "+421 901 961 551", "website": "https://www.drmax.sk/", "wheelchair": "yes"}}, {"type": "node", "id": 5047593816, "lat": 48.7411409, "lon": 21.2673896, "tags": {"amenity": "pharmacy", "brand": "Dr. Max", "brand:wikidata": "Q56317371", "brand:wikipedia": "fr:Dr.Max", "dispensing": "yes", "drive_through": "no", "email": "drmax@drmax.sk", "healthcare": "pharmacy", "name": "Dr. Max", "opening_hours": "Mo-Su 08:00-20:00", "operator": "Dr.Max 130 T, k.s.", "payment:cash": "yes", "payment:coins": "yes", "payment:credit_cards": "yes", "payment:debit_cards": "yes", "phone": "+421 901 961 291", "website": "https://www.drmax.sk/", "wheelchair": "yes"}}, {"type": "node", "id": 5537450166, "lat": 48.7228564, "lon": 21.2674609}, {"type": "node", "id": 5562501595, "lat": 48.6960895, "lon": 21.2503082}, {"type": "node", "id": 5562501604, "lat": 48.6960819, "lon": 21.2504774}, {"type": "node", "id": 5562501605, "lat": 48.6961099, "lon": 21.2504248}, {"type": "node", "id": 5562501606, "lat": 48.6960596, "lon": 21.2503634}, {"type": "node", "id": 5562502252, "lat": 48.6961315, "lon": 21.2505375}, {"type": "node", "id": 5564685111, "lat": 48.7115972, "lon": 21.2598723, "tags": {"amenity": "pharmacy", "brand": "Schneider", "brand:wikidata": "Q93514377", "dispensing": "yes", "healthcare": "pharmacy", "name": "Schneider", "opening_hours": "Mo-Fr 07:30-16:00", "operator": "Schneider Lek\u00e1re\u0148/Bellis", "website": "https://www.schneider-lekaren.sk/", "wheelchair": "yes"}}, {"type": "node", "id": 5589832297, "lat": 48.7229861, "lon": 21.267528}, {"type": "node", "id": 5604422216, "lat": 48.7124834, "lon": 21.2551962, "tags": {"amenity": "pharmacy", "healthcare": "pharmacy", "name": "OrtoPro", "opening_hours": "Mo-Th 07:30-16:00; We 07:30-18:00; Fr 07:30-14:00"}}, {"type": "node", "id": 5690946813, "lat": 48.7551348, "lon": 21.2675808, "tags": {"amenity": "pharmacy", "brand": "Dr. Max", "brand:wikidata": "Q56317371", "brand:wikipedia": "fr:Dr.Max", "dispensing": "yes", "drive_through": "no", "email": "drmax@drmax.sk", "healthcare": "pharmacy", "level": "1", "name": "Dr. Max", "opening_hours": "Mo-Sa 07:30-19:30", "operator": "Dr.Max 76 s.r.o.", "payment:cash": "yes", "payment:coins": "yes", "payment:credit_cards": "yes", "payment:debit_cards": "yes", "phone": "+421 901 961 207", "website": "https://www.drmax.sk/", "wheelchair": "yes"}}, {"type": "node", "id": 5922098751, "lat": 48.7206764, "lon": 21.2408905, "tags": {"access": "permissive", "entrance": "yes"}}, {"type": "node", "id": 5922098753, "lat": 48.7205848, "lon": 21.240835, "tags": {"access": "permissive", "entrance": "yes"}}, {"type": "node", "id": 6257926691, "lat": 48.7144851, "lon": 21.2162063, "tags": {"amenity": "pharmacy", "brand": "Dr. Max", "brand:wikidata": "Q56317371", "brand:wikipedia": "fr:Dr.Max", "dispensing": "yes", "drive_through": "no", "email": "drmax@drmax.sk", "healthcare": "pharmacy", "name": "Dr. Max", "opening_hours": "Mo-Fr 07:30-18:30", "operator": "PHARMEDIA s.r.o.", "payment:cash": "yes", "payment:coins": "yes", "payment:credit_cards": "yes", "payment:debit_cards": "yes", "phone": "+421 901 961 236", "website": "https://www.drmax.sk/", "wheelchair": "limited"}}, {"type": "node", "id": 6258703988, "lat": 48.7176774, "lon": 21.2562244, "tags": {"amenity": "pharmacy", "brand": "Dr. Max", "brand:wikidata": "Q56317371", "brand:wikipedia": "fr:Dr.Max", "dispensing": "yes", "drive_through": "no", "email": "drmax@drmax.sk", "healthcare": "pharmacy", "name": "Dr. Max", "opening_hours": "Mo-Fr 07:30-16:00", "operator": "Dr.Max 62 s.r.o.", "payment:cash": "yes", "payment:coins": "yes", "payment:credit_cards": "yes", "payment:debit_cards": "yes", "phone": "+421 901 961 523", "website": "https://www.drmax.sk/", "wheelchair": "yes"}}, {"type": "node", "id": 6261450891, "lat": 48.7410077, "lon": 21.2562129, "tags": {"amenity": "pharmacy", "check_date:opening_hours": "2024-10-18", "dispensing": "yes", "drive_through": "no", "email": "lekarenparkanicka@gmail.com", "healthcare": "pharmacy", "level": "0", "name": "Park Ani\u010dka", "opening_hours": "Mo-Sa 08:00-20:00", "operator": "Partner", "payment:cash": "yes", "payment:coins": "yes", "payment:credit_cards": "yes", "payment:debit_cards": "yes", "phone": "+421 55 7287 752", "website": "https://www.partner.sk/", "wheelchair": "yes"}}, {"type": "node", "id": 6264596242, "lat": 48.7289259, "lon": 21.2418216, "tags": {"alt_name": "Betula", "amenity": "pharmacy", "brand": "Benu", "brand:wikidata": "Q62562792", "dispensing": "yes", "drive_through": "no", "email": "benu137@benulekaren.sk", "healthcare": "pharmacy", "name": "Benu", "opening_hours": "Mo-Fr 08:00-16:30", "payment:cash": "yes", "payment:coins": "yes", "payment:credit_cards": "yes", "payment:debit_cards": "yes", "phone": "+421 903 764 524", "website": "https://www.benulekaren.sk/", "wheelchair": "yes"}}, {"type": "node", "id": 6417564822, "lat": 48.7273827, "lon": 21.2519595, "tags": {"alt_name": "Lek\u00e1re\u0148 pri Radnici", "amenity": "pharmacy", "brand": "Va\u0161a Lek\u00e1re\u0148", "brand:wikidata": "Q108368884", "dispensing": "yes", "drive_through": "no", "email": "priradnici.ke@gmail.com", "healthcare": "pharmacy", "level": "0", "name": "Va\u0161a Lek\u00e1re\u0148", "opening_hours": "Mo-Fr 07:30-19:30; Sa 07:30-16:00", "operator": "monstill, s.r.o.", "payment:cash": "yes", "payment:coins": "yes", "payment:credit_cards": "yes", "payment:debit_cards": "yes", "website": "https://www.vasalekaren.sk/", "wheelchair": "yes"}}, {"type": "node", "id": 6427770503, "lat": 48.73268, "lon": 21.2516469, "tags": {"amenity": "pharmacy", "dispensing": "yes", "drive_through": "no", "email": "lekaren.sever.ke@apothekeslovakia.sk", "healthcare": "pharmacy", "name": "Sever", "opening_hours": "Mo-Fr 07:30-17:30", "operator": "PLUS Lek\u00e1rne", "payment:cash": "yes", "payment:coins": "yes", "payment:credit_cards": "yes", "payment:debit_cards": "yes", "phone": "+421 908 798 643", "website": "https://pluslekaren.sk/", "wheelchair": "yes"}}, {"type": "node", "id": 6566279624, "lat": 48.722873, "lon": 21.267445, "tags": {"access": "yes", "door": "yes", "entrance": "staircase", "exit": "emergency", "level": "0;1;2", "wheelchair": "no"}}, {"type": "node", "id": 6727658020, "lat": 48.7228688, "lon": 21.2527058, "tags": {"amenity": "pharmacy", "dispensing": "yes", "drive_through": "no", "email": "cassiake@stonline.sk", "healthcare": "pharmacy", "name": "Cassia", "opening_hours": "Mo-Tu 07:30-17:30; We 07:30-16:00; Th-Fr 07:30-16:00", "operator": "PLUS Lek\u00e1rne", "payment:cash": "yes", "payment:coins": "yes", "payment:credit_cards": "yes", "payment:debit_cards": "yes", "phone": "+421 55 622 1277", "website": "https://pluslekaren.sk/", "wheelchair": "yes"}}, {"type": "node", "id": 6727658021, "lat": 48.732791, "lon": 21.2517013, "tags": {"amenity": "pharmacy", "dispensing": "yes", "drive_through": "no", "email": "lekarenslnecnicake04@gmail.com", "healthcare": "pharmacy", "name": "Slne\u010dnica", "opening_hours": "Mo-Fr 07:30-16:00", "operator": "PLUS Lek\u00e1rne", "payment:cash": "yes", "payment:coins": "yes", "payment:credit_cards": "yes", "payment:debit_cards": "yes", "phone": "+421 55 633 4790", "website": "https://pluslekaren.sk/", "wheelchair": "yes"}}, {"type": "node", "id": 6764185159, "lat": 48.6956684, "lon": 21.2375141}, {"type": "node", "id": 6764185161, "lat": 48.6956857, "lon": 21.237627}, {"type": "node", "id": 6764185162, "lat": 48.6955931, "lon": 21.237585}, {"type": "node", "id": 6764185163, "lat": 48.6956706, "lon": 21.2377845}, {"type": "node", "id": 6764185167, "lat": 48.6957269, "lon": 21.237726, "tags": {"camera:direction": "1", "camera:mount": "ceiling", "camera:type": "fixed", "level": "1", "man_made": "surveillance", "surveillance": "indoor", "surveillance:type": "camera", "surveillance:zone": "shop"}}, {"type": "node", "id": 6764185169, "lat": 48.695706, "lon": 21.2376082}, {"type": "node", "id": 6782401101, "lat": 48.723008, "lon": 21.2676299}, {"type": "node", "id": 6782401108, "lat": 48.723003, "lon": 21.2676063}, {"type": "node", "id": 6782401109, "lat": 48.7230246, "lon": 21.2675954}, {"type": "node", "id": 6782401110, "lat": 48.7230131, "lon": 21.2675391}, {"type": "node", "id": 6782401111, "lat": 48.7229908, "lon": 21.2675499}, {"type": "node", "id": 6782401112, "lat": 48.7229596, "lon": 21.267403}, {"type": "node", "id": 6782401120, "lat": 48.722893, "lon": 21.2676865}, {"type": "node", "id": 6782401121, "lat": 48.7228821, "lon": 21.2676346}, {"type": "node", "id": 6782401122, "lat": 48.7228794, "lon": 21.2676194}, {"type": "node", "id": 6782401123, "lat": 48.7228786, "lon": 21.267611}, {"type": "node", "id": 6782401124, "lat": 48.7228782, "lon": 21.2676028}, {"type": "node", "id": 6782401125, "lat": 48.7228777, "lon": 21.2675766}, {"type": "node", "id": 6782401126, "lat": 48.7228773, "lon": 21.2675626}, {"type": "node", "id": 6782401127, "lat": 48.7228755, "lon": 21.2675498}, {"type": "node", "id": 6782401128, "lat": 48.7228729, "lon": 21.2675364}, {"type": "node", "id": 6782401129, "lat": 48.7228698, "lon": 21.267523}, {"type": "node", "id": 6782422583, "lat": 48.7228871, "lon": 21.2676582, "tags": {"access": "yes", "door": "sliding", "entrance": "main", "level": "0", "name": "Apotheka", "wheelchair": "yes"}}, {"type": "node", "id": 6782590097, "lat": 48.7230041, "lon": 21.2676318}, {"type": "node", "id": 6782590170, "lat": 48.7228859, "lon": 21.2674389}, {"type": "node", "id": 6783582439, "lat": 48.7228827, "lon": 21.2674404}, {"type": "node", "id": 6784554227, "lat": 48.7228931, "lon": 21.2674354}, {"type": "node", "id": 6788244029, "lat": 48.6961983, "lon": 21.2506185}, {"type": "node", "id": 6788244031, "lat": 48.6962567, "lon": 21.2505094}, {"type": "node", "id": 6788244033, "lat": 48.6962026, "lon": 21.2504437}, {"type": "node", "id": 6790587150, "lat": 48.7178218, "lon": 21.2624997}, {"type": "node", "id": 6790587151, "lat": 48.7177005, "lon": 21.2624399}, {"type": "node", "id": 6790587152, "lat": 48.7177197, "lon": 21.2624947}, {"type": "node", "id": 6790587153, "lat": 48.7177437, "lon": 21.2625626}, {"type": "node", "id": 6790587154, "lat": 48.7177454, "lon": 21.2623744}, {"type": "node", "id": 6790587155, "lat": 48.7176817, "lon": 21.2623864}, {"type": "node", "id": 6790587156, "lat": 48.717733, "lon": 21.2623449}, {"type": "node", "id": 6790587157, "lat": 48.7177644, "lon": 21.2623597}, {"type": "node", "id": 6790610368, "lat": 48.7182945, "lon": 21.2636435}, {"type": "node", "id": 6790610369, "lat": 48.7182838, "lon": 21.2636856}, {"type": "node", "id": 6790610370, "lat": 48.718252, "lon": 21.2637111}, {"type": "node", "id": 6790610372, "lat": 48.7182745, "lon": 21.2636601}, {"type": "node", "id": 6790610373, "lat": 48.718297, "lon": 21.2638372}, {"type": "node", "id": 6792613770, "lat": 48.7177369, "lon": 21.2623548}, {"type": "node", "id": 6792613771, "lat": 48.7177866, "lon": 21.2624139}, {"type": "node", "id": 7100293304, "lat": 48.7183224, "lon": 21.2638162}, {"type": "node", "id": 7858389589, "lat": 48.7158696, "lon": 21.2496324, "tags": {"alt_name": "Lek\u00e1re\u0148 pri Ar\u00e9ne", "amenity": "pharmacy", "brand": "PLUS LEK\u00c1RE\u0147", "brand:wikidata": "Q108369059", "dispensing": "yes", "drive_through": "no", "email": "lekaren@lpa.sk", "healthcare": "pharmacy", "level": "0", "name": "PLUS LEK\u00c1RE\u0147", "opening_hours": "Mo-Fr 08:00-20:00; Sa 09:00-18:00", "payment:cash": "yes", "payment:coins": "yes", "payment:credit_cards": "yes", "payment:debit_cards": "yes", "phone": "+421 907 757 500", "website": "https://pluslekaren.sk/", "wheelchair": "yes"}}, {"type": "node", "id": 7884886458, "lat": 48.716091, "lon": 21.2312769, "tags": {"amenity": "pharmacy", "brand": "Dr. Max", "brand:wikidata": "Q56317371", "brand:wikipedia": "fr:Dr.Max", "dispensing": "yes", "drive_through": "no", "email": "drmax@drmax.sk", "healthcare": "pharmacy", "name": "Dr. Max", "opening_hours": "Mo-Fr 07:30-16:00", "operator": "Dr.Max 53 s.r.o.", "payment:cash": "yes", "payment:coins": "yes", "payment:credit_cards": "yes", "payment:debit_cards": "yes", "phone": "+421 901 961 179", "website": "https://www.drmax.sk/", "wheelchair": "yes"}}, {"type": "node", "id": 8224519339, "lat": 48.5356483, "lon": 20.7321014, "tags": {"amenity": "pharmacy", "dispensing": "yes", "healthcare": "pharmacy", "name": "Mezei Gy\u00f3gyszert\u00e1r"}}, {"type": "node", "id": 8645207563, "lat": 48.7256199, "lon": 21.2565123}, {"type": "node", "id": 8645207564, "lat": 48.7256532, "lon": 21.2566887}, {"type": "node", "id": 8645207565, "lat": 48.7256716, "lon": 21.256483}, {"type": "node", "id": 8645207566, "lat": 48.7256383, "lon": 21.2565861}, {"type": "node", "id": 8645207567, "lat": 48.7256311, "lon": 21.2565904}, {"type": "node", "id": 8645207571, "lat": 48.7256352, "lon": 21.2565738}, {"type": "node", "id": 9008030485, "lat": 48.7184115, "lon": 21.2317663, "tags": {"amenity": "pharmacy", "brand": "Benu", "brand:wikidata": "Q62562792", "dispensing": "yes", "drive_through": "no", "email": "benu106@benulekaren.sk", "healthcare": "pharmacy", "level": "0", "name": "Benu", "opening_hours": "Mo-Fr 08:00-18:00; Sa 08:00-14:00", "operator": "BENU SK 77, s.r.o.", "payment:cash": "yes", "payment:coins": "yes", "payment:credit_cards": "yes", "payment:debit_cards": "yes", "phone": "+421 910 461 917", "website": "https://www.benulekaren.sk/", "wheelchair": "yes"}}, {"type": "node", "id": 9075868978, "lat": 48.7086752, "lon": 21.2455459, "tags": {"alt_name": "Lek\u00e1re\u0148 Sandra", "amenity": "pharmacy", "brand": "Va\u0161a Lek\u00e1re\u0148", "brand:wikidata": "Q108368884", "dispensing": "yes", "drive_through": "no", "email": "lekarensandra@gmail.com", "healthcare": "pharmacy", "name": "Va\u0161a Lek\u00e1re\u0148", "opening_hours": "Mo-Fr 08:00-20:00; Sa-Su 08:00-12:00,12:30-20:00", "payment:cash": "yes", "payment:coins": "yes", "payment:credit_cards": "yes", "payment:debit_cards": "yes", "phone": "+421 948 097 542", "website": "https://www.facebook.com/Va%C5%A1a-lek%C3%A1re%C5%88-Sandra-110764731430164", "wheelchair": "yes"}}, {"type": "node", "id": 9075868991, "lat": 48.7163283, "lon": 21.2682352, "tags": {"alt_name": "PRIMA LEK\u00c1RE\u0147", "amenity": "pharmacy", "brand": "PLUS LEK\u00c1RE\u0147", "brand:wikidata": "Q108369059", "dispensing": "yes", "drive_through": "no", "email": "primalekarenke@gmail.com", "healthcare": "pharmacy", "name": "PLUS LEK\u00c1RE\u0147", "opening_hours": "Mo-Fr 07:00-17:00", "operator": "PLUS Lek\u00e1rne", "payment:cash": "yes", "payment:coins": "yes", "payment:credit_cards": "yes", "payment:debit_cards": "yes", "phone": "+421 944 985 585", "website": "https://pluslekaren.sk/", "wheelchair": "yes"}}, {"type": "node", "id": 9076024344, "lat": 48.6362387, "lon": 21.1729296, "tags": {"alt_name": "Lek\u00e1re\u0148 Petra", "amenity": "pharmacy", "brand": "Va\u0161a Lek\u00e1re\u0148", "brand:wikidata": "Q108368884", "dispensing": "yes", "drive_through": "no", "email": "lekarenpetrake@gmail.com", "healthcare": "pharmacy", "name": "Va\u0161a Lek\u00e1re\u0148", "opening_hours": "Mo-Fr 07:00-15:00", "operator": "Va\u0161a Lek\u00e1re\u0148", "phone": "+421 55 684 2177", "website": "https://www.vasalekaren.sk/"}}, {"type": "node", "id": 9076024346, "lat": 48.7078687, "lon": 21.2599982, "tags": {"alt_name": "Lek\u00e1re\u0148 Zdravomax", "amenity": "pharmacy", "brand": "PLUS LEK\u00c1RE\u0147", "brand:wikidata": "Q108369059", "dispensing": "yes", "drive_through": "no", "email": "lekarenzdravomax@gmail.com", "healthcare": "pharmacy", "name": "PLUS LEK\u00c1RE\u0147", "opening_hours": "Mo-Fr 07:30-16:00", "phone": "+421 55 676 4875", "website": "https://pluslekaren.sk/"}}, {"type": "node", "id": 9076024348, "lat": 48.7085938, "lon": 21.223611, "tags": {"alt_name": "Lek\u00e1re\u0148 Izis", "amenity": "pharmacy", "brand": "Va\u0161a Lek\u00e1re\u0148", "brand:wikidata": "Q108368884", "dispensing": "yes", "drive_through": "no", "email": "lekareniziske@gmail.com", "healthcare": "pharmacy", "name": "IZIS Lek\u00e1re\u0148", "opening_hours": "Mo-Fr 07:00-18:30; Sa 08:00-14:00", "operator": "Va\u0161a Lek\u00e1re\u0148", "payment:cash": "yes", "payment:coins": "yes", "payment:credit_cards": "yes", "payment:debit_cards": "yes", "phone": "+421 55 632 0345", "website": "https://www.vasalekaren.sk/"}}, {"type": "node", "id": 9076024377, "lat": 48.7137518, "lon": 21.230948, "tags": {"alt_name": "Lek\u00e1re\u0148 pri Datase", "amenity": "pharmacy", "brand": "Va\u0161a Lek\u00e1re\u0148", "brand:wikidata": "Q108368884", "dispensing": "yes", "drive_through": "no", "email": "lekarenpridatase@gmail.com", "healthcare": "pharmacy", "name": "Va\u0161a Lek\u00e1re\u0148", "opening_hours": "Mo-Fr 08:00-19:00; Sa 08:00-12:30", "operator": "Va\u0161a Lek\u00e1re\u0148", "payment:cash": "yes", "payment:coins": "yes", "payment:credit_cards": "yes", "payment:debit_cards": "yes", "phone": "+421 55 685 3238", "website": "https://www.vasalekaren.sk/"}}, {"type": "node", "id": 9076024378, "lat": 48.7226105, "lon": 21.2378842, "tags": {"alt_name": "Verejn\u00e1 lek\u00e1re\u0148 V\u010dielka pri DFN", "amenity": "pharmacy", "brand": "Va\u0161a Lek\u00e1re\u0148", "brand:wikidata": "Q108368884", "dispensing": "yes", "drive_through": "no", "email": "lekaren.vcielka@dfnkosice.sk", "healthcare": "pharmacy", "name": "Va\u0161a Lek\u00e1re\u0148", "opening_hours": "Mo-Fr 07:00-15:30", "operator": "Va\u0161a Lek\u00e1re\u0148", "payment:cash": "yes", "payment:coins": "yes", "payment:credit_cards": "yes", "payment:debit_cards": "yes", "phone": "+421 55 235 3401", "website": "https://www.vasalekaren.sk/"}}, {"type": "node", "id": 9076024379, "lat": 48.7282556, "lon": 21.2600477, "tags": {"alt_name": "Gram", "amenity": "pharmacy", "brand": "Va\u0161a Lek\u00e1re\u0148", "brand:wikidata": "Q108368884", "dispensing": "yes", "drive_through": "no", "email": "lekaren@gramkosice.sk", "healthcare": "pharmacy", "name": "Va\u0161a Lek\u00e1re\u0148", "opening_hours": "Mo-Fr 07:30-17:00", "operator": "Va\u0161a Lek\u00e1re\u0148", "payment:cash": "yes", "payment:coins": "yes", "payment:credit_cards": "yes", "payment:debit_cards": "yes", "phone": "+421 55 799 9403", "website": "https://www.vasalekaren.sk/"}}, {"type": "node", "id": 9572490484, "lat": 48.6897034, "lon": 21.2844286, "tags": {"amenity": "pharmacy", "brand": "Dr. Max", "brand:wikidata": "Q56317371", "brand:wikipedia": "fr:Dr.Max", "check_date:opening_hours": "2023-05-05", "dispensing": "yes", "drive_through": "no", "email": "drmax@drmax.sk", "healthcare": "pharmacy", "name": "Dr. Max", "opening_hours": "Mo-Fr 07:30-17:30", "operator": "Dr.Max 188 s.r.o.", "payment:cash": "yes", "payment:coins": "yes", "payment:credit_cards": "yes", "payment:debit_cards": "yes", "phone": "+421 901 961 388", "website": "https://www.drmax.sk/", "wheelchair": "yes"}}, {"type": "node", "id": 9632985361, "lat": 48.3848662, "lon": 21.2162264, "tags": {"amenity": "pharmacy", "healthcare": "pharmacy", "name": "Gy\u00f3gyszert\u00e1r"}}, {"type": "node", "id": 10299341691, "lat": 48.7963057, "lon": 21.2429586, "tags": {"amenity": "pharmacy", "dispensing": "yes", "email": "lekgranula@gmail.com", "opening_hours": "Mo-Fr 08:00-13:00; We 08:00-10:30", "phone": "+421 55 699 8232"}}, {"type": "node", "id": 10572460892, "lat": 48.7200428, "lon": 21.2167897, "tags": {"amenity": "pharmacy", "brand": "PLUS LEK\u00c1RE\u0147", "brand:wikidata": "Q108369059", "dispensing": "yes", "drive_through": "no", "email": "lekareneuforia@gmail.com", "healthcare": "pharmacy", "name": "PLUS LEK\u00c1RE\u0147", "opening_hours": "Mo-Su 08:00-20:00", "operator": "LE BUSINESS, s.r.o.", "payment:cash": "yes", "payment:coins": "yes", "payment:credit_cards": "yes", "payment:debit_cards": "yes", "phone": "+421 903 445 654", "website": "https://pluslekaren.sk/", "wheelchair": "yes"}}, {"type": "node", "id": 10572460893, "lat": 48.725401, "lon": 21.2503425, "tags": {"alt_name": "PRIMA", "amenity": "pharmacy", "brand": "PLUS LEK\u00c1RE\u0147", "brand:wikidata": "Q108369059", "dispensing": "yes", "drive_through": "no", "email": "primalekarenke1@gmail.com", "healthcare": "pharmacy", "level": "0", "name": "PLUS LEK\u00c1RE\u0147", "opening_hours": "Mo-Fr 07:00-16:00", "phone": "+421 911 113 930", "website": "https://pluslekaren.sk/", "wheelchair": "yes"}}, {"type": "node", "id": 11348822262, "lat": 48.6933173, "lon": 21.2811221, "tags": {"alt_name": "Lek\u00e1re\u0148 Jazero", "amenity": "pharmacy", "brand": "Va\u0161a Lek\u00e1re\u0148", "brand:wikidata": "Q108368884", "dispensing": "yes", "drive_through": "no", "email": "lekarenjazero@gmail.com", "healthcare": "pharmacy", "name": "Va\u0161a Lek\u00e1re\u0148", "opening_hours": "Mo-Fr 07:30-18:30", "phone": "+421 903 270 654"}}, {"type": "node", "id": 11373004961, "lat": 48.718794, "lon": 21.2385587, "tags": {"amenity": "pharmacy", "healthcare": "pharmacy", "name": "Partner", "opening_hours": "Mo-Fr 08:00-17:00"}}, {"type": "node", "id": 11513687584, "lat": 48.7163828, "lon": 21.2101686, "tags": {"amenity": "pharmacy", "brand": "Benu", "brand:wikidata": "Q62562792", "dispensing": "yes", "drive_through": "no", "healthcare": "pharmacy", "name": "Benu", "opening_hours": "Mo-Fr 08:00-18:00", "website": "https://www.benulekaren.sk/"}}, {"type": "node", "id": 11513687586, "lat": 48.7338527, "lon": 21.2839656, "tags": {"alt_name": "Betula", "amenity": "pharmacy", "brand": "Benu", "brand:wikidata": "Q62562792", "dispensing": "yes", "drive_through": "no", "email": "benu98@benulekaren.sk", "healthcare": "pharmacy", "name": "Benu", "opening_hours": "Mo-Fr 08:00-18:00; Sa 08:00-12:00", "payment:cash": "yes", "payment:coins": "yes", "payment:credit_cards": "yes", "payment:debit_cards": "yes", "phone": "+421 902 046 731", "website": "https://www.benulekaren.sk/", "wheelchair": "yes"}}, {"type": "node", "id": 11513709836, "lat": 48.6424558, "lon": 21.1725316, "tags": {"amenity": "pharmacy", "brand": "Dr. Max", "brand:wikidata": "Q56317371", "dispensing": "yes", "drive_through": "no", "email": "drmax@drmax.sk", "healthcare": "pharmacy", "mobile": "+421 901 961 484", "name": "Dr. Max", "opening_hours": "Mo-Fr 07:30-16:00", "operator": "\u0160acaPharm s.r.o.", "website": "https://www.drmax.sk/", "wheelchair": "yes"}}, {"type": "node", "id": 11513709837, "lat": 48.6858563, "lon": 21.2660039, "tags": {"amenity": "pharmacy", "brand": "Dr. Max", "brand:wikidata": "Q56317371", "dispensing": "yes", "drive_through": "no", "email": "drmax@drmax.sk", "healthcare": "pharmacy", "mobile": "+421 901 961 483", "name": "Dr. Max", "opening_hours": "Mo-Fr 08:00-19:00; Sa 08:00-12:00", "operator": "PharmMedica s.r.o.", "website": "https://www.drmax.sk/", "wheelchair": "yes"}}, {"type": "node", "id": 11513709838, "lat": 48.6764129, "lon": 21.2995503, "tags": {"amenity": "pharmacy", "brand": "Dr. Max", "brand:wikidata": "Q56317371", "dispensing": "yes", "drive_through": "no", "email": "drmax@drmax.sk", "healthcare": "pharmacy", "mobile": "+421 901 961 481", "name": "Dr. Max", "opening_hours": "Mo-Su 08:00-20:00", "operator": "Ban\u00edkMedica s.r.o.", "website": "https://www.drmax.sk/", "wheelchair": "yes"}}, {"type": "node", "id": 11513709839, "lat": 48.7112612, "lon": 21.2600373, "tags": {"amenity": "pharmacy", "brand": "Dr. Max", "brand:wikidata": "Q56317371", "dispensing": "yes", "drive_through": "no", "email": "drmax@drmax.sk", "healthcare": "pharmacy", "mobile": "+421 901 961 165", "name": "Dr. Max", "opening_hours": "Mo-Fr 08:00-18:00; Sa 08:00-12:00", "operator": "Victus 4, s.r.o.", "website": "https://www.drmax.sk/", "wheelchair": "yes"}}, {"type": "node", "id": 11513709840, "lat": 48.7228127, "lon": 21.2484931, "tags": {"amenity": "pharmacy", "brand": "Dr. Max", "brand:wikidata": "Q56317371", "dispensing": "yes", "drive_through": "no", "email": "drmax@drmax.sk", "healthcare": "pharmacy", "mobile": "+421 901 961 480", "name": "Dr. Max", "opening_hours": "Mo-Fr 08:00-19:00; Sa 08:00-12:00", "operator": "SlovMedica s.r.o.", "website": "https://www.drmax.sk/", "wheelchair": "yes"}}, {"type": "node", "id": 11528834088, "lat": 48.7076913, "lon": 21.2571095, "tags": {"amenity": "pharmacy", "brand": "Va\u0161a Lek\u00e1re\u0148", "brand:wikidata": "Q108368884", "dispensing": "yes", "drive_through": "no", "email": "lekaren.ra@unlp.sk", "healthcare": "pharmacy", "name": "Va\u0161a Lek\u00e1re\u0148", "opening_hours": "Mo-Fr 07:30-15:30", "operator": "Va\u0161a Lek\u00e1re\u0148", "phone": "+421 55 615 2985", "website": "https://www.vasalekaren.sk/"}}, {"type": "node", "id": 11528834089, "lat": 48.7213633, "lon": 21.2390358, "tags": {"alt_name": "Lek\u00e1re\u0148 V\u010dielka", "amenity": "pharmacy", "brand": "Va\u0161a Lek\u00e1re\u0148", "brand:wikidata": "Q108368884", "dispensing": "yes", "drive_through": "no", "email": "lekaren.vcielka@dfnkosice.sk", "healthcare": "pharmacy", "name": "V\u010dielka", "opening_hours": "Mo-Fr 07:00-15:30", "operator": "Va\u0161a Lek\u00e1re\u0148", "phone": "+421 55 235 3401", "website": "https://www.vasalekaren.sk/"}}, {"type": "node", "id": 11528834090, "lat": 48.7207181, "lon": 21.2541674, "tags": {"alt_name": "Lek\u00e1re\u0148 Dominik", "amenity": "pharmacy", "brand": "Va\u0161a Lek\u00e1re\u0148", "brand:wikidata": "Q108368884", "dispensing": "yes", "drive_through": "no", "email": "lekarendominik@gmail.com", "healthcare": "pharmacy", "name": "Va\u0161a Lek\u00e1re\u0148", "opening_hours": "Mo-Fr 08:00-17:00; Sa 08:00-12:00", "operator": "Va\u0161a Lek\u00e1re\u0148", "phone": "+421 910 184 144", "website": "https://www.vasalekaren.sk/"}}, {"type": "node", "id": 12158353660, "lat": 48.7127794, "lon": 21.2117019, "tags": {"amenity": "pharmacy", "brand": "Benu", "brand:wikidata": "Q62562792", "dispensing": "yes", "drive_through": "no", "email": "benu152@benulekaren.sk", "healthcare": "pharmacy", "name": "Benu", "opening_hours": "Mo-Fr 08:00-18:00; Sa 08:00-12:00", "phone": "+421 904 348 106", "website": "https://www.benulekaren.sk/"}}, {"type": "node", "id": 12718036364, "lat": 48.7408615, "lon": 21.266431, "tags": {"amenity": "pharmacy", "brand": "Benu", "brand:wikidata": "Q62562792", "dispensing": "yes", "drive_through": "no", "email": "kosice.trolejbusova@benulekaren.sk", "healthcare": "pharmacy", "name": "Benu", "opening_hours": "Mo-Sa 08:00-21:00; Su 08:00-20:00", "phone": "+421 911 939 755", "website": "https://www.benulekaren.sk/lekaren-benu-845", "wheelchair": "yes"}}, {"type": "node", "id": 12890498854, "lat": 48.7205632, "lon": 21.2409572}, {"type": "node", "id": 12890498855, "lat": 48.7206657, "lon": 21.2410133}, {"type": "node", "id": 12925608623, "lat": 48.7099885, "lon": 21.2555832, "tags": {"amenity": "pharmacy", "healthcare": "pharmacy", "name": "Vitae"}}, {"type": "node", "id": 13021508166, "lat": 48.7185199, "lon": 21.246255, "tags": {"amenity": "pharmacy", "brand": "Benu", "brand:wikidata": "Q62562792", "dispensing": "yes", "drive_through": "no", "email": "benu852@benulekaren.sk", "healthcare": "pharmacy", "level": "0", "name": "Benu", "opening_hours": "Mo-Fr 07:30-18:00; Sa 08:00-13:00; Su off", "phone": "+421 905 638 411", "website": "https://www.benulekaren.sk/"}}, {"type": "node", "id": 13094950840, "lat": 48.6806279, "lon": 21.2888455, "tags": {"amenity": "pharmacy", "brand": "Dr. Max", "brand:wikidata": "Q56317371", "dispensing": "yes", "drive_through": "no", "email": "drmax@drmax.sk", "healthcare": "pharmacy", "name": "Dr. Max", "opening_hours": "Mo-Su 08:00-20:00", "operator": "Dr.Max 176 s.r.o.", "phone": "+421 901 961 361", "website": "https://www.drmax.sk/"}}, {"type": "node", "id": 13094991297, "lat": 48.6426028, "lon": 21.1727218, "tags": {"amenity": "pharmacy", "brand": "Agel", "brand:wikidata": "Q41365932", "dispensing": "yes", "drive_through": "no", "healthcare": "pharmacy", "name": "Nemocni\u010dn\u00e1 lek\u00e1re\u0148", "phone": "+421 55 7234 480", "website": "https://nemocnicakosicesaca.agel.sk/pracoviska/nelozkova-cast/lekaren.html"}}, {"type": "node", "id": 13095965297, "lat": 48.6245687, "lon": 21.1917249, "tags": {"amenity": "pharmacy", "brand": "Agel", "brand:wikidata": "Q41365932", "dispensing": "yes", "drive_through": "no", "healthcare": "pharmacy", "name": "Agel"}}, {"type": "node", "id": 13095965298, "lat": 48.6291408, "lon": 21.1735435, "tags": {"alt_name": "Lek\u00e1re\u0148 \u0160aca", "amenity": "pharmacy", "brand": "PLUS LEK\u00c1RE\u0147", "brand:wikidata": "Q108369059", "dispensing": "yes", "drive_through": "no", "healthcare": "pharmacy", "name": "PLUS LEK\u00c1RE\u0147", "opening_hours": "Mo-Su 08:00-20:00", "phone": "+421 911 832 352", "website": "https://pluslekaren.sk/"}}, {"type": "node", "id": 13095965299, "lat": 48.6295867, "lon": 21.1735301, "tags": {"alt_name": "Lek\u00e1re\u0148 Verbena", "amenity": "pharmacy", "brand": "PLUS LEK\u00c1RE\u0147", "brand:wikidata": "Q108369059", "dispensing": "yes", "drive_through": "no", "email": "verbena@lm-pharmacy.sk", "healthcare": "pharmacy", "name": "PLUS LEK\u00c1RE\u0147", "opening_hours": "Mo-Fr 07:00-15:00", "phone": "+421 55 3810 243", "website": "https://pluslekaren.sk/"}}, {"type": "node", "id": 13095986501, "lat": 48.6891208, "lon": 21.283608, "tags": {"alt_name": "Lek\u00e1re\u0148 Fialka", "amenity": "pharmacy", "brand": "PLUS LEK\u00c1RE\u0147", "brand:wikidata": "Q108369059", "dispensing": "yes", "drive_through": "no", "email": "lekarenfialka@gmail.com", "healthcare": "pharmacy", "name": "PLUS LEK\u00c1RE\u0147", "opening_hours": "Mo-Fr 08:00-16:00", "phone": "+421 55 6746 014", "website": "https://pluslekaren.sk/"}}, {"type": "node", "id": 13096034246, "lat": 48.716068, "lon": 21.2309691, "tags": {"alt_name": "Lek\u00e1re\u0148 SYNDIPHARMA", "amenity": "pharmacy", "brand": "PLUS LEK\u00c1RE\u0147", "brand:wikidata": "Q108369059", "dispensing": "yes", "drive_through": "no", "email": "l.syndipharma@bnc.sk", "healthcare": "pharmacy", "name": "PLUS LEK\u00c1RE\u0147", "opening_hours": "Mo-Fr 07:30-16:00", "phone": "+421 55 286 1296", "website": "https://pluslekaren.sk/"}}, {"type": "node", "id": 13096042017, "lat": 48.7405708, "lon": 21.2632081, "tags": {"alt_name": "Lek\u00e1re\u0148 VIP", "amenity": "pharmacy", "brand": "PLUS LEK\u00c1RE\u0147", "brand:wikidata": "Q108369059", "dispensing": "yes", "drive_through": "no", "email": "lekaren@viplekaren.sk", "healthcare": "pharmacy", "name": "PLUS LEK\u00c1RE\u0147", "opening_hours": "Mo-Su 08:00-20:00", "phone": "+421 55 307 7830", "website": "https://pluslekaren.sk/"}}, {"type": "node", "id": 13096052975, "lat": 48.7213983, "lon": 21.2384391, "tags": {"alt_name": "ZORA", "amenity": "pharmacy", "brand": "PLUS LEK\u00c1RE\u0147", "brand:wikidata": "Q108369059", "dispensing": "yes", "drive_through": "no", "email": "lekaren@poliklinikazapad.sk", "healthcare": "pharmacy", "name": "PLUS LEK\u00c1RE\u0147", "opening_hours": "Mo-Fr 08:00-16:00", "phone": "+421 55 685 3499", "website": "https://pluslekaren.sk/"}}, {"type": "node", "id": 13098245026, "lat": 48.7143444, "lon": 21.2626478, "tags": {"amenity": "pharmacy", "brand": "Va\u0161a Lek\u00e1re\u0148", "brand:wikidata": "Q108368884", "dispensing": "yes", "drive_through": "no", "email": "lekarenprispitali@gmail.com", "healthcare": "pharmacy", "name": "Lek\u00e1re\u0148 pri \u0160pit\u00e1li", "opening_hours": "Mo-Fr 07:30-17:30", "operator": "Va\u0161a Lek\u00e1re\u0148", "phone": "+421 948 101 896", "website": "https://www.vasalekaren.sk/"}}, {"type": "node", "id": 13113032563, "lat": 48.4198014, "lon": 21.1748692, "tags": {"addr:city": "Garadna", "addr:housenumber": "23", "addr:postcode": "3873", "addr:street": "F\u0151 \u00fat", "amenity": "pharmacy", "healthcare": "pharmacy", "name": "Szent Antal Gy\u00f6gyszert\u00e1r"}}, {"type": "way", "id": 51016872, "nodes": [650553667, 650553669, 650553671, 5922098753, 5922098751, 650553680, 650553682, 12890498855, 650553684, 650553687, 650553672, 650553689, 12890498854, 650553667], "tags": {"amenity": "pharmacy", "building": "yes", "dispensing": "yes", "drive_through": "no", "healthcare": "pharmacy", "name": "Miliana", "opening_hours": "Mo-Fr 07:30-16:00", "source": "kapor2", "wheelchair": "limited"}}, {"type": "way", "id": 720922118, "nodes": [6764185159, 6764185162, 6764185163, 6764185167, 6764185161, 6764185169, 6764185159], "tags": {"amenity": "pharmacy", "area": "yes", "brand": "Dr. Max", "brand:wikidata": "Q56317371", "brand:wikipedia": "fr:Dr.Max", "dispensing": "yes", "drive_through": "no", "email": "drmax@drmax.sk", "healthcare": "pharmacy", "indoor": "room", "level": "1", "name": "Dr. Max", "opening_hours": "Mo-Su 09:00-21:00", "operator": "Lek\u00e1re\u0148 OPTIMA KE, s.r.o.", "payment:cash": "yes", "payment:coins": "yes", "payment:credit_cards": "yes", "payment:debit_cards": "yes", "phone": "+421 901 961 609", "room": "shop", "website": "https://www.drmax.sk/", "wheelchair": "yes"}}, {"type": "way", "id": 723086455, "nodes": [6782401112, 6784554227, 6782590170, 6783582439, 6566279624, 621920450, 5537450166, 6782401129, 6782401128, 6782401127, 6782401126, 6782401125, 6782401124, 6782401123, 6782401122, 6782401121, 6782422583, 6782401120, 6782590097, 6782401101, 6782401108, 6782401109, 6782401110, 6782401111, 5589832297, 6782401112], "tags": {"air_conditioning": "yes", "alt_name": "APOTHEKA", "amenity": "pharmacy", "brand": "PLUS LEK\u00c1RE\u0147", "brand:wikidata": "Q108369059", "dispensing": "yes", "drive_through": "no", "email": "lekaren@stanicakosice.sk", "healthcare": "pharmacy", "indoor": "room", "level": "0", "name": "PLUS LEK\u00c1RE\u0147", "opening_hours": "Mo-Fr 07:00-20:00; Sa-Su 07:00-19:00", "operator": "APOTHEKA KO\u0160ICE, s.r.o.", "payment:cash": "yes", "payment:coins": "yes", "payment:credit_cards": "yes", "payment:debit_cards": "yes", "phone": "+421 918 117 425", "ref:vatin": "SK2024026796", "room": "shop", "stroller": "yes", "website": "https://www.partner.sk/", "wheelchair": "yes"}}, {"type": "way", "id": 723982032, "nodes": [6788244031, 6788244033, 5562501595, 5562501606, 5562501605, 5562501604, 5562502252, 6788244029, 6788244031], "tags": {"amenity": "pharmacy", "brand": "Benu", "brand:wikidata": "Q62562792", "dispensing": "yes", "drive_through": "no", "email": "benu9@benulekaren.sk", "healthcare": "pharmacy", "indoor": "room", "level": "0", "name": "Benu", "opening_hours": "Mo-Su 08:00-20:00", "operator": "BENU SK 9, s.r.o.", "payment:cash": "yes", "payment:coins": "yes", "payment:credit_cards": "yes", "payment:debit_cards": "yes", "phone": "+421 905 821 913", "room": "shop", "website": "https://www.benulekaren.sk/", "wheelchair": "yes"}}, {"type": "way", "id": 724055704, "nodes": [6790587150, 6792613771, 6790587157, 6790587154, 6792613770, 6790587156, 6790587155, 6790587151, 6790587152, 6790587153, 6790587150], "tags": {"amenity": "pharmacy", "brand": "Dr. Max", "brand:wikidata": "Q56317371", "brand:wikipedia": "fr:Dr.Max", "dispensing": "yes", "drive_through": "no", "email": "drmax@drmax.sk", "healthcare": "pharmacy", "indoor": "room", "level": "0", "name": "Dr. Max", "opening_hours": "Mo-Su 09:00-21:00", "operator": "Dr.Max 67, s.r.o.", "payment:cash": "yes", "payment:coins": "yes", "payment:credit_cards": "yes", "payment:debit_cards": "yes", "phone": "+421 901 961 118", "room": "shop", "start_date": "2021-12-22", "website": "https://www.drmax.sk/", "wheelchair": "yes"}}, {"type": "way", "id": 724055735, "nodes": [6790610368, 6790610372, 6790610369, 6790610370, 6790610373, 7100293304, 4819647935, 6790610368], "tags": {"air_conditioning": "yes", "amenity": "pharmacy", "brand": "Benu", "brand:wikidata": "Q62562792", "currency:EUR": "yes", "dispensing": "yes", "drive_through": "no", "email": "benu145@benulekaren.sk", "healthcare": "pharmacy", "indoor": "room", "level": "0", "name": "Benu", "opening_hours": "Mo-Su 09:00-21:00", "payment:cash": "yes", "payment:coins": "yes", "payment:credit_cards": "yes", "payment:debit_cards": "yes", "phone": "+421 910 461 896", "room": "shop", "stroller": "yes", "website": "https://www.benulekaren.sk/", "wheelchair": "yes"}}, {"type": "way", "id": 932636399, "nodes": [8645207565, 8645207563, 8645207571, 8645207566, 8645207567, 8645207564, 280459134, 8645207565], "tags": {"air_conditioning": "yes", "amenity": "pharmacy", "brand": "Benu", "brand:wikidata": "Q62562792", "currency:EUR": "yes", "dispensing": "yes", "drive_through": "no", "email": "benu66@benulekaren.sk", "healthcare": "pharmacy", "indoor": "room", "level": "0", "name": "Benu", "opening_hours": "Mo-Su 09:00-21:00", "payment:cash": "yes", "payment:coins": "yes", "payment:credit_cards": "yes", "payment:debit_cards": "yes", "phone": "+421 901 905 213", "room": "shop", "stroller": "yes", "website": "https://www.benulekaren.sk/", "wheelchair": "yes"}}]}