{"version": 0.6, "generator": "Overpass API 0.7.62.8 e802775f", "osm3s": {"timestamp_osm_base": "2025-10-06T07:57:45Z", "copyright": "The data included in this document is from www.openstreetmap.org. The data is made available under ODbL."}, "elements": [{"type": "node", "id": 259949286, "lat": 48.3091368, "lon": 18.086349, "tags": {"amenity": "pharmacy", "dispensing": "yes", "healthcare": "pharmacy", "name": "D+D"}}, {"type": "node", "id": 259949292, "lat": 48.3106215, "lon": 18.0860682, "tags": {"amenity": "pharmacy", "dispensing": "yes", "healthcare": "pharmacy"}}, {"type": "node", "id": 386823244, "lat": 48.3158527, "lon": 18.0909517, "tags": {"amenity": "pharmacy", "healthcare": "pharmacy"}}, {"type": "node", "id": 386823249, "lat": 48.3022637, "lon": 18.0874083, "tags": {"amenity": "pharmacy", "healthcare": "pharmacy", "name": "Lek\u00e1re\u0148 Dami"}}, {"type": "node", "id": 386823250, "lat": 48.3023863, "lon": 18.0871377, "tags": {"amenity": "pharmacy", "healthcare": "pharmacy", "name": "Lek\u00e1re\u0148 Iris"}}, {"type": "node", "id": 469731055, "lat": 48.3106186, "lon": 18.108743, "tags": {"amenity": "pharmacy", "healthcare": "pharmacy", "level": "0", "name": "T\u00edlia"}}, {"type": "node", "id": 469797371, "lat": 48.3089036, "lon": 18.1079456, "tags": {"amenity": "pharmacy", "healthcare": "pharmacy", "name": "Lek\u00e1re\u0148 Chrenov\u00e1"}}, {"type": "node", "id": 472354086, "lat": 48.3132834, "lon": 18.1073001, "tags": {"amenity": "pharmacy", "dispensing": "yes", "healthcare": "pharmacy", "name": "Lek\u00e1re\u0148 u Valent\u00edna"}}, {"type": "node", "id": 506235194, "lat": 48.2199872, "lon": 18.6059319, "tags": {"amenity": "pharmacy", "check_date:opening_hours": "2023-12-14", "name": "Lek\u00e1re\u0148 Bellis", "opening_hours": "Mo,Tu 07:00-15:30; We 07:00-17:00; Th,Fr 07:00-15:30", "wheelchair": "no"}}, {"type": "node", "id": 506652564, "lat": 48.2155421, "lon": 18.5969714, "tags": {"amenity": "pharmacy", "name": "Lek\u00e1re\u0148 Melissa"}}, {"type": "node", "id": 519819109, "lat": 48.2094541, "lon": 18.60412, "tags": {"amenity": "pharmacy", "drive_through": "no", "healthcare": "pharmacy", "name": "APIS", "opening_hours": "Mo-Fr 06:00-17:00", "phone": "+421366312473", "wheelchair": "yes"}}, {"type": "node", "id": 549908518, "lat": 48.4942592, "lon": 18.0479428, "tags": {"amenity": "pharmacy", "name": "Kamilka"}}, {"type": "node", "id": 558866799, "lat": 48.5333807, "lon": 18.0981056, "tags": {"amenity": "pharmacy", "name": "Ampulka"}}, {"type": "node", "id": 653234861, "lat": 48.3016443, "lon": 18.0857584, "tags": {"amenity": "pharmacy", "healthcare": "pharmacy", "name": "Nemocni\u010dn\u00e1 lek\u00e1re\u0148"}}, {"type": "node", "id": 671646723, "lat": 48.2957746, "lon": 18.5196276, "tags": {"amenity": "pharmacy", "check_date:opening_hours": "2023-04-27", "name": "Anthylis", "opening_hours": "Mo-Fr 08:00-16:00", "wheelchair": "yes"}}, {"type": "node", "id": 712607620, "lat": 48.3044211, "lon": 18.08394, "tags": {"amenity": "pharmacy", "healthcare": "pharmacy"}}, {"type": "node", "id": 725504754, "lat": 48.2431408, "lon": 18.3054491}, {"type": "node", "id": 725505147, "lat": 48.24325, "lon": 18.3054588}, {"type": "node", "id": 725509198, "lat": 48.2432186, "lon": 18.3054787}, {"type": "node", "id": 725517738, "lat": 48.2432868, "lon": 18.3051133}, {"type": "node", "id": 725525262, "lat": 48.2431629, "lon": 18.3054517}, {"type": "node", "id": 725533756, "lat": 48.243161, "lon": 18.3054888}, {"type": "node", "id": 725537491, "lat": 48.243269, "lon": 18.305461}, {"type": "node", "id": 725544157, "lat": 48.2431542, "lon": 18.3051884}, {"type": "node", "id": 725546274, "lat": 48.2431877, "lon": 18.3051018}, {"type": "node", "id": 725557608, "lat": 48.2432488, "lon": 18.3054822}, {"type": "node", "id": 725559173, "lat": 48.2431831, "lon": 18.3051918}, {"type": "node", "id": 725559355, "lat": 48.2432177, "lon": 18.3054953}, {"type": "node", "id": 728275693, "lat": 48.2897486, "lon": 18.1347461}, {"type": "node", "id": 728277012, "lat": 48.2897282, "lon": 18.1346097}, {"type": "node", "id": 728277758, "lat": 48.2896654, "lon": 18.1347507}, {"type": "node", "id": 728278627, "lat": 48.2897728, "lon": 18.1347933}, {"type": "node", "id": 728279517, "lat": 48.2896627, "lon": 18.1346857}, {"type": "node", "id": 728279857, "lat": 48.2896935, "lon": 18.1348055}, {"type": "node", "id": 728280761, "lat": 48.2898046, "lon": 18.1347574}, {"type": "node", "id": 728281101, "lat": 48.2896846, "lon": 18.1347305}, {"type": "node", "id": 729147627, "lat": 48.4122268, "lon": 18.0836694}, {"type": "node", "id": 729147914, "lat": 48.4121897, "lon": 18.0836921}, {"type": "node", "id": 729148884, "lat": 48.4121524, "lon": 18.0838441}, {"type": "node", "id": 729149796, "lat": 48.4121673, "lon": 18.0837696}, {"type": "node", "id": 729150098, "lat": 48.4122188, "lon": 18.0837053}, {"type": "node", "id": 729151149, "lat": 48.4122731, "lon": 18.0836877}, {"type": "node", "id": 729154309, "lat": 48.4121523, "lon": 18.0837835}, {"type": "node", "id": 729154734, "lat": 48.412172, "lon": 18.0837724}, {"type": "node", "id": 729155591, "lat": 48.4122649, "lon": 18.0837215}, {"type": "node", "id": 729157717, "lat": 48.4121628, "lon": 18.0837885}, {"type": "node", "id": 729159250, "lat": 48.4122255, "lon": 18.0838772}, {"type": "node", "id": 729161214, "lat": 48.4121586, "lon": 18.0838136}, {"type": "node", "id": 729162066, "lat": 48.4121471, "lon": 18.0838096}, {"type": "node", "id": 729720094, "lat": 48.3316441, "lon": 18.1247552}, {"type": "node", "id": 729723378, "lat": 48.3314963, "lon": 18.1246242}, {"type": "node", "id": 729725565, "lat": 48.3316316, "lon": 18.1244888}, {"type": "node", "id": 729727930, "lat": 48.3315825, "lon": 18.1248178}, {"type": "node", "id": 729732241, "lat": 48.3316307, "lon": 18.1247249}, {"type": "node", "id": 831814880, "lat": 48.2584617, "lon": 18.7399698, "tags": {"amenity": "pharmacy", "dispensing": "yes", "name": "Aviceum"}}, {"type": "node", "id": 919593438, "lat": 48.3129309, "lon": 18.0915342, "tags": {"amenity": "pharmacy", "dispensing": "yes", "healthcare": "pharmacy", "name": "Homeo"}}, {"type": "node", "id": 977539254, "lat": 48.3169832, "lon": 18.1040553, "tags": {"amenity": "pharmacy", "brand": "Dr. Max", "brand:wikidata": "Q56317371", "dispensing": "yes", "healthcare": "pharmacy", "layer": "0", "name": "Dr. Max", "opening_hours": "Mo-Su 09:00-21:00"}}, {"type": "node", "id": 988592302, "lat": 48.3519961, "lon": 18.7218009, "tags": {"amenity": "pharmacy", "healthcare": "pharmacy", "name": "U sv. Jakuba", "wheelchair": "no"}}, {"type": "node", "id": 1103354781, "lat": 48.3149609, "lon": 18.0874872, "tags": {"amenity": "pharmacy", "healthcare": "pharmacy", "name": "Zdravotn\u00edcke potreby"}}, {"type": "node", "id": 1106458566, "lat": 48.424633, "lon": 18.6385208, "tags": {"amenity": "pharmacy"}}, {"type": "node", "id": 1106458730, "lat": 48.4149833, "lon": 18.6412389, "tags": {"amenity": "pharmacy", "dispensing": "yes", "name": "Lek\u00e1re\u0148 Medea"}}, {"type": "node", "id": 1106458965, "lat": 48.4250139, "lon": 18.6382472, "tags": {"amenity": "pharmacy"}}, {"type": "node", "id": 1107513898, "lat": 48.3106116, "lon": 18.0882417, "tags": {"amenity": "pharmacy", "healthcare": "pharmacy", "name": "Homeo u sv. Antona"}}, {"type": "node", "id": 1198771928, "lat": 48.3114974, "lon": 18.0981247, "tags": {"amenity": "pharmacy", "healthcare": "pharmacy", "name": "Compharm", "opening_hours": "Mo-Fr 08:00-17:30; Sa 08:00-12:00"}}, {"type": "node", "id": 1212832360, "lat": 48.4967807, "lon": 18.1599197, "tags": {"amenity": "pharmacy"}}, {"type": "node", "id": 1257802188, "lat": 48.2203334, "lon": 18.6083584, "tags": {"amenity": "pharmacy", "dispensing": "yes", "name": "Lek\u00e1re\u0148 Aesculap"}}, {"type": "node", "id": 1260956548, "lat": 48.2176794, "lon": 18.6048221, "tags": {"amenity": "pharmacy", "name": "Lek\u00e1re\u0148 Salvator", "source": "survey"}}, {"type": "node", "id": 1266577476, "lat": 48.2155132, "lon": 18.6065899, "tags": {"amenity": "pharmacy", "brand": "Dr. Max", "brand:wikidata": "Q56317371", "healthcare": "pharmacy", "name": "Dr. Max", "wheelchair": "yes"}}, {"type": "node", "id": 1291062724, "lat": 48.311541, "lon": 18.0812588, "tags": {"amenity": "pharmacy", "dispensing": "yes", "healthcare": "pharmacy", "name": "Lek\u00e1re\u0148 P\u00e1rovce"}}, {"type": "node", "id": 1366915541, "lat": 48.2193025, "lon": 18.6042657, "tags": {"amenity": "pharmacy", "dispensing": "yes", "name": "Pharmapuls"}}, {"type": "node", "id": 1388263826, "lat": 48.2227488, "lon": 18.6131367, "tags": {"amenity": "pharmacy", "name": "Arnica"}}, {"type": "node", "id": 1390633358, "lat": 48.2235642, "lon": 18.5979445, "tags": {"amenity": "pharmacy", "brand": "Dr. Max", "brand:wikidata": "Q56317371", "dispensing": "yes", "healthcare": "pharmacy", "level": "0", "name": "Dr. Max", "opening_hours": "Mo-Su 08:00-20:00", "operator": "STARLINE s.r.o.", "website": "https://www.drmax.sk/", "wheelchair": "yes"}}, {"type": "node", "id": 1440920089, "lat": 48.3031489, "lon": 18.0848605, "tags": {"amenity": "pharmacy", "brand": "Dr. Max", "brand:wikidata": "Q56317371", "dispensing": "yes", "healthcare": "pharmacy", "name": "Dr. Max", "opening_hours": "Mo-Fr 07:00-15:30", "source": "survey"}}, {"type": "node", "id": 1457011769, "lat": 48.3117065, "lon": 18.0835199, "tags": {"amenity": "pharmacy", "dispensing": "yes", "healthcare": "pharmacy"}}, {"type": "node", "id": 1474417249, "lat": 48.3082918, "lon": 18.1104654, "tags": {"amenity": "pharmacy", "healthcare": "pharmacy", "name": "Lek\u00e1re\u0148 pri hvezd\u00e1rni"}}, {"type": "node", "id": 1727590951, "lat": 48.3085104, "lon": 18.086822, "tags": {"amenity": "pharmacy", "healthcare": "pharmacy", "name": "Zdravotn\u00edcke potreby"}}, {"type": "node", "id": 1826152969, "lat": 48.3874227, "lon": 18.3838158, "tags": {"addr:city": "Zlat\u00e9 Moravce", "addr:postcode": "95301", "addr:street": "Hviezdoslavova", "amenity": "pharmacy", "name": "Lek\u00e1re\u0148 TULIP"}}, {"type": "node", "id": 1826153582, "lat": 48.3847201, "lon": 18.3993735, "tags": {"addr:city": "Zlat\u00e9 Moravce", "addr:postcode": "95301", "addr:street": "Bernol\u00e1kova", "amenity": "pharmacy", "name": "Lek\u00e1re\u0148 u \u0160KORPI\u00d3NA"}}, {"type": "node", "id": 1826183022, "lat": 48.3835606, "lon": 18.3959622, "tags": {"amenity": "pharmacy", "name": "Lek\u00e1re\u0148 IRIS", "opening_hours": "Mo-Fr 07:00-17:00", "source": "survey"}}, {"type": "node", "id": 2316220201, "lat": 48.6068562, "lon": 18.4375937, "tags": {"amenity": "pharmacy"}}, {"type": "node", "id": 2503549442, "lat": 48.3186656, "lon": 18.5202101, "tags": {"amenity": "pharmacy", "dispensing": "no", "email": "bylinka.lekaren@gmail.com", "name": "Lek\u00e1re\u0148 u sv. Filipa", "operator": "Lek\u00e1re\u0148 Bukviarovci s.r.o.", "phone": "+421 911 038 030"}}, {"type": "node", "id": 2612077557, "lat": 48.3839273, "lon": 18.3976677, "tags": {"addr:city": "Zlat\u00e9 Moravce", "addr:postcode": "95301", "addr:street": "Bernol\u00e1kova", "amenity": "pharmacy", "healthcare": "pharmacy", "name": "Lek\u00e1re\u0148 OLIVA"}}, {"type": "node", "id": 2631083265, "lat": 48.2897604, "lon": 18.5625723, "tags": {"addr:city": "Rybn\u00edk", "addr:postcode": "93523", "addr:street": "Hlavn\u00e1", "amenity": "pharmacy", "name": "Zdravie", "opening_hours": "Mo-Fr 08:00-12:00,14:00-16:00", "source": "survey", "wheelchair": "yes"}}, {"type": "node", "id": 2667699742, "lat": 48.3845412, "lon": 18.3887285, "tags": {"addr:city": "Zlat\u00e9 Moravce", "addr:street": "Hviezdoslavova", "amenity": "pharmacy", "brand": "Dr. Max"}}, {"type": "node", "id": 2668616656, "lat": 48.3849322, "lon": 18.3924452, "tags": {"addr:city": "Zlat\u00e9 Moravce", "addr:conscriptionnumber": "295", "addr:housenumber": "295/54", "addr:postcode": "95301", "addr:street": "\u017dupn\u00e1", "addr:streetnumber": "54", "amenity": "pharmacy", "name": "Lek\u00e1re\u0148 U zlat\u00e9ho hada", "opening_hours": "Mo-Fr 07:30-17:00; Sa 08:00-12:00"}}, {"type": "node", "id": 2892516117, "lat": 48.3066976, "lon": 18.0851029, "tags": {"amenity": "pharmacy", "healthcare": "pharmacy", "name": "N\u00e1dej"}}, {"type": "node", "id": 2919360164, "lat": 48.3253185, "lon": 18.0947561, "tags": {"amenity": "pharmacy", "brand": "PLUS LEK\u00c1RE\u0147", "brand:wikidata": "Q108369059", "dispensing": "yes", "healthcare": "pharmacy", "name": "PLUS LEK\u00c1RE\u0147", "opening_hours": "Mo-Fr 07:30-16:00", "operator": "pluslekaren", "website": "https://pluslekaren.sk/lekaren/alexia/"}}, {"type": "node", "id": 2949861270, "lat": 48.3088992, "lon": 18.0862901, "tags": {"amenity": "pharmacy", "brand": "Dr. Max", "brand:wikidata": "Q56317371", "dispensing": "yes", "drive_through": "no", "healthcare": "pharmacy", "name": "Dr. Max", "source": "survey"}}, {"type": "node", "id": 2949861273, "lat": 48.3087372, "lon": 18.0862571, "tags": {"amenity": "pharmacy", "drive_through": "no", "healthcare": "pharmacy", "name": "Mojalek\u00e1re\u0148 Extra", "opening_hours": "Mo-Sa 08:00-17:00", "source": "survey"}}, {"type": "node", "id": 2992823643, "lat": 48.2190549, "lon": 18.6067958, "tags": {"amenity": "pharmacy", "brand": "Dr. Max", "brand:wikidata": "Q56317371", "check_date:opening_hours": "2025-04-28", "healthcare": "pharmacy", "name": "Dr. Max", "opening_hours": "Mo-Fr 07:30-16:00", "source": "survey", "wheelchair": "limited"}}, {"type": "node", "id": 3048130122, "lat": 48.2448063, "lon": 18.5351648, "tags": {"amenity": "pharmacy", "name": "Lek\u00e1re\u0148 Tekov", "opening_hours": "Mo,Tu,Th,Fr 07:30-15:30; We 09:00-17:00", "source": "survey", "wheelchair": "yes"}}, {"type": "node", "id": 3050152523, "lat": 48.202643, "lon": 18.5210236, "tags": {"amenity": "pharmacy", "name": "HEDERA", "opening_hours": "Mo-We,Fr 07:30-16:00; Th 07:30-15:00", "phone": "+421 36 6395117", "source": "survey"}}, {"type": "node", "id": 3050668492, "lat": 48.2798787, "lon": 18.6409078, "tags": {"amenity": "pharmacy", "name": "Salix", "source": "survey"}}, {"type": "node", "id": 3320651997, "lat": 48.5533112, "lon": 18.1761666, "tags": {"amenity": "pharmacy", "name": "Lek\u00e1re\u0148 Meridies"}}, {"type": "node", "id": 3339435180, "lat": 48.5523071, "lon": 18.1678763, "tags": {"amenity": "pharmacy", "name": "Lek\u00e1re\u0148 v Nemocnici"}}, {"type": "node", "id": 4089557174, "lat": 48.424901, "lon": 18.6392967, "tags": {"amenity": "pharmacy", "name": "Dr.Max"}}, {"type": "node", "id": 4115905556, "lat": 48.4187259, "lon": 18.4122046, "tags": {"amenity": "pharmacy", "name": "Anima", "opening_hours": "Mo-Fr 07:30-15:30", "source": "survey"}}, {"type": "node", "id": 4178720827, "lat": 48.5386895, "lon": 18.2027057, "tags": {"amenity": "pharmacy", "name": "Alchemilka"}}, {"type": "node", "id": 4921360886, "lat": 48.3909007, "lon": 18.3938116, "tags": {"amenity": "pharmacy", "brand": "Benu", "brand:wikidata": "Q62562792", "healthcare": "pharmacy", "name": "Benu", "opening_hours": "Mo-Su 08:00-20:00"}}, {"type": "node", "id": 5310834821, "lat": 48.1477697, "lon": 18.2841426, "tags": {"amenity": "pharmacy"}}, {"type": "node", "id": 6089879885, "lat": 48.2431796, "lon": 18.3040875, "tags": {"amenity": "pharmacy", "name": "Lek\u00e1re\u0148 Artemis", "name:en": "pharmacy Artemis"}}, {"type": "node", "id": 6814502532, "lat": 48.3278728, "lon": 18.1162517, "tags": {"amenity": "pharmacy", "brand": "Dr. Max", "brand:wikidata": "Q56317371", "contact:email": "drmax185@drmax.sk", "contact:phone": "+421901061185", "contact:website": "https://www.e-vuc.sk/nsk/zdravotnictvo/lekarne-a-vydajne-zp/nitra/lekaren-dr.-max-12.html?page_id=151994", "drive_through": "no", "healthcare": "pharmacy", "name": "Dr. Max", "opening_hours": "Mo-Fr 08:00-18:00"}}, {"type": "node", "id": 8316953997, "lat": 48.1873762, "lon": 18.2074599, "tags": {"amenity": "pharmacy", "healthcare": "pharmacy"}}, {"type": "node", "id": 9255343537, "lat": 48.2952582, "lon": 18.5170759, "tags": {"amenity": "pharmacy", "email": "salixtlmace@gmail.com", "mobile": "+421 919 186 660", "name": "Salix", "opening_hours": "Mo-Fr 07:30-12:00,12:30-16:30", "website": "https://www.facebook.com/Lek%C3%A1re%C5%88-Salix-Tlma%C4%8De-469431006522777/", "wheelchair": "limited"}}, {"type": "node", "id": 9356693458, "lat": 48.2230069, "lon": 18.6143639, "tags": {"amenity": "pharmacy", "name": "Plus Lek\u00e1re\u0148", "opening_hours": "Mo-Fr 07:00-15:00", "wheelchair": "yes"}}, {"type": "node", "id": 9356693459, "lat": 48.2215382, "lon": 18.6113516, "tags": {"amenity": "pharmacy"}}, {"type": "node", "id": 9568208755, "lat": 48.3087147, "lon": 18.0856058, "tags": {"amenity": "pharmacy", "brand": "Dr. Max", "brand:wikidata": "Q56317371", "brand:wikipedia": "fr:Dr.Max", "dispensing": "yes", "drive_through": "no", "healthcare": "pharmacy", "name": "Dr. Max", "opening_hours": "Mo-Su 08:00-20:00"}}, {"type": "node", "id": 10140218234, "lat": 48.238419, "lon": 18.118823, "tags": {"amenity": "pharmacy", "healthcare": "pharmacy"}}, {"type": "node", "id": 10221281387, "lat": 48.3190007, "lon": 18.1162535, "tags": {"amenity": "pharmacy", "drive_through": "no", "healthcare": "pharmacy", "name": "Dr. Max"}}, {"type": "node", "id": 10566188210, "lat": 48.2695997, "lon": 18.1864245, "tags": {"amenity": "pharmacy", "dispensing": "yes", "name": "Melisa", "opening_hours": "Mo-Fr 07:00-15:00", "operator": "PharmDr. Gabriela Dilhoffov\u00e1", "phone": "+421 37 658 1115"}}, {"type": "node", "id": 11330742044, "lat": 48.3197857, "lon": 18.0929915, "tags": {"amenity": "pharmacy", "brand": "Dr. Max", "brand:wikidata": "Q56317371", "healthcare": "pharmacy", "name": "Dr. Max", "source": "survey"}}, {"type": "node", "id": 11552237899, "lat": 48.3364783, "lon": 18.3559958, "tags": {"amenity": "pharmacy", "dispensing": "yes", "phone": "+421 37 6334139"}}, {"type": "node", "id": 11948496367, "lat": 48.3004241, "lon": 18.0910072, "tags": {"addr:city": "Nitra", "addr:housenumber": "597/16", "addr:postcode": "94901", "addr:street": "Kasalova", "amenity": "pharmacy", "healthcare": "pharmacy", "name": "Pr\u00edrodn\u00e1 farm\u00e1cia u sv. Hildegardy"}}, {"type": "node", "id": 12103384812, "lat": 48.1550954, "lon": 18.1790068, "tags": {"amenity": "pharmacy", "healthcare": "pharmacy", "name": "Lek\u00e1re\u0148 REMEDIA"}}, {"type": "node", "id": 12433864217, "lat": 48.2183199, "lon": 18.6066026, "tags": {"amenity": "pharmacy", "brand": "Benu", "brand:wikidata": "Q62562792", "healthcare": "pharmacy", "name": "Benu", "opening_hours": "Mo-Su 09:00-20:00"}}, {"type": "node", "id": 12509319163, "lat": 48.3173105, "lon": 18.1031919, "tags": {"amenity": "pharmacy", "drive_through": "no", "healthcare": "pharmacy", "layer": "1", "name": "ECOPHYTA"}}, {"type": "node", "id": 12608991868, "lat": 48.2162964, "lon": 18.6283436, "tags": {"amenity": "pharmacy", "brand": "Benu", "brand:wikidata": "Q62562792", "contact:email": "benu120@benulekaren.sk", "contact:phone": "+421 904 405 355", "healthcare": "pharmacy", "name": "Benu", "opening_hours": "Mo-Su 08:00-20:00", "website": "https://www.benulekaren.sk/benu-120"}}, {"type": "node", "id": 12914264142, "lat": 48.331677, "lon": 18.1246785}, {"type": "node", "id": 12914264143, "lat": 48.3316428, "lon": 18.1246012}, {"type": "node", "id": 12914264144, "lat": 48.3316695, "lon": 18.1245745}, {"type": "node", "id": 13008624760, "lat": 48.3071926, "lon": 18.0863916, "tags": {"amenity": "pharmacy", "brand": "Benu", "brand:wikidata": "Q62562792", "healthcare": "pharmacy", "level": "0", "name": "Benu Lek\u00e1re\u0148", "opening_hours": "Mo-Su 09:00-21:00"}}, {"type": "way", "id": 58551679, "nodes": [725504754, 725544157, 725559173, 725546274, 725517738, 725537491, 725505147, 725557608, 725509198, 725559355, 725533756, 725525262, 725504754], "tags": {"addr:city": "Vr\u00e1ble", "addr:conscriptionnumber": "1211", "addr:country": "SK", "addr:housenumber": "1211/31", "addr:postcode": "95201", "addr:street": "Moravsk\u00e1", "addr:streetnumber": "31", "addr:suburb": "Vr\u00e1ble", "amenity": "pharmacy", "building": "yes", "import": "budovy201004", "ref:minvskaddress": "36414092", "source": "kapor2", "source:addr": "minvskaddress 2025-01"}}, {"type": "way", "id": 58762032, "nodes": [728279517, 728277012, 728280761, 728278627, 728275693, 728279857, 728277758, 728281101, 728279517], "tags": {"addr:city": "Nitra", "addr:conscriptionnumber": "175", "addr:country": "SK", "addr:housenumber": "175/7", "addr:postcode": "94907", "addr:street": "Hlavn\u00e1", "addr:streetnumber": "7", "addr:suburb": "Jan\u00edkovce", "amenity": "pharmacy", "building": "yes", "healthcare": "pharmacy", "import": "budovy201004", "name": "Lek\u00e1re\u0148 u Eli\u0161ky", "ref:minvskaddress": "18347791", "source": "kapor2", "source:addr": "minvskaddress 2024-02"}}, {"type": "way", "id": 58853597, "nodes": [729148884, 729161214, 729162066, 729154309, 729157717, 729149796, 729154734, 729147914, 729150098, 729147627, 729151149, 729155591, 729159250, 729148884], "tags": {"addr:city": "V\u00fd\u010dapy-Opatovce", "addr:conscriptionnumber": "480", "addr:country": "SK", "addr:housenumber": "480/8", "addr:postcode": "95144", "addr:street": "V\u00fd\u010dapsk\u00e1", "addr:streetnumber": "8", "amenity": "pharmacy", "building": "commercial", "dispensing": "yes", "import": "budovy201004", "name": "Sv. Cyrila a Metoda", "opening_hours": "Mo-Fr 08:00-14:00", "phone": "+421 37 77 952 03", "ref:minvskaddress": "10541564", "source": "kapor2", "source:addr": "minvskaddress 2024-01"}}, {"type": "way", "id": 58890005, "nodes": [729727930, 729723378, 729725565, 12914264144, 12914264143, 12914264142, 729732241, 729720094, 729727930], "tags": {"addr:city": "Nitrianske Hrn\u010diarovce", "addr:conscriptionnumber": "41", "addr:country": "SK", "addr:housenumber": "41/139", "addr:postcode": "95101", "addr:street": "Jeleneck\u00e1", "addr:streetnumber": "139", "amenity": "pharmacy", "building": "commercial", "dispensing": "yes", "healthcare": "pharmacy", "import": "budovy201004", "name": "Lek\u00e1re\u0148 Michala Archaniela", "ref:minvskaddress": "18333381", "source": "kapor2;local knowledge", "source:addr": "minvskaddress 2022-11"}}]}