{"version": 0.6, "generator": "Overpass API 0.7.62.8 e802775f", "osm3s": {"timestamp_osm_base": "2025-10-06T07:39:15Z", "copyright": "The data included in this document is from www.openstreetmap.org. The data is made available under ODbL."}, "elements": [{"type": "node", "id": 739471181, "lat": 40.5604709, "lon": 17.8081835, "tags": {"amenity": "pharmacy", "dispensing": "yes", "name": "Farmacia Antonucci"}}, {"type": "node", "id": 2410448131, "lat": 40.5547522, "lon": 17.7182702, "tags": {"addr:city": "Latiano", "addr:housenumber": "52", "addr:postcode": "72022", "addr:street": "Via Ten. Attilio Spinelli", "amenity": "pharmacy", "dispensing": "yes", "name": "Farmacia Altavilla"}}, {"type": "node", "id": 2410448132, "lat": 40.5536588, "lon": 17.714955, "tags": {"amenity": "pharmacy", "dispensing": "yes", "name": "farmacia De Franciscis"}}, {"type": "node", "id": 2410448134, "lat": 40.5525257, "lon": 17.7169934, "tags": {"amenity": "pharmacy", "dispensing": "yes", "name": "farmacia Colazzo"}}, {"type": "node", "id": 2410448135, "lat": 40.5512582, "lon": 17.7234173, "tags": {"amenity": "pharmacy", "dispensing": "yes", "name": "farmacia Rigliano"}}, {"type": "node", "id": 2441396171, "lat": 40.4722262, "lon": 17.9645603, "tags": {"addr:housenumber": "2", "addr:postcode": "72020", "addr:street": "Largo Regina Margherita", "amenity": "pharmacy", "check_date": "2025-03-13", "dispensing": "yes", "drive_through": "no", "healthcare": "pharmacy", "name": "Farmacia Leo", "payment:cash": "yes", "payment:credit_cards": "yes", "payment:debit_cards": "yes", "phone": "+390831 619700", "wheelchair": "yes"}}, {"type": "node", "id": 2441397197, "lat": 40.4725066, "lon": 17.9670424, "tags": {"addr:city": "Cellino San Marco", "addr:housenumber": "46", "addr:postcode": "72020", "addr:street": "Via Berlinguer", "amenity": "pharmacy", "check_date": "2025-03-13", "dispensing": "yes", "drive_through": "no", "healthcare": "pharmacy", "name": "Farmacia Moscagiuri"}}, {"type": "node", "id": 3191898413, "lat": 40.6377153, "lon": 17.9440915, "tags": {"addr:housenumber": "11", "addr:street": "Via Ferrante Fornari", "amenity": "pharmacy", "dispensing": "yes", "drive_through": "no", "healthcare": "pharmacy", "name": "Farmacia Dottor Perrino"}}, {"type": "node", "id": 3514878480, "lat": 40.6448221, "lon": 17.9401159, "tags": {"amenity": "pharmacy", "dispensing": "yes", "name": "Farmacia Santa Maria del Casale", "wheelchair": "no"}}, {"type": "node", "id": 3514884109, "lat": 40.6484618, "lon": 17.9445961, "tags": {"addr:city": "Brindisi", "addr:housenumber": "41", "addr:postcode": "72100", "addr:street": "Viale Duca degli Abruzzi", "amenity": "pharmacy", "check_date:opening_hours": "2023-11-09", "dispensing": "yes", "drive_through": "no", "name": "Farmacia Casale", "opening_hours": "Mo-Fr 08:30-13:00,16:30-20:00", "phone": "+39 0831 418847", "wheelchair": "yes"}}, {"type": "node", "id": 3514886151, "lat": 40.638155, "lon": 17.9464992, "tags": {"amenity": "pharmacy", "contact:phone": "+39 0831 597926", "dispensing": "yes", "healthcare": "pharmacy", "name": "Farmacia Africa Orientale"}}, {"type": "node", "id": 3514894314, "lat": 40.624417, "lon": 17.9407941, "tags": {"amenity": "pharmacy", "dispensing": "yes", "healthcare": "pharmacy", "name": "Farmacia Cecere"}}, {"type": "node", "id": 3515212157, "lat": 40.6303216, "lon": 17.9527013, "tags": {"addr:housenumber": "5", "addr:street": "Via Sele", "amenity": "pharmacy", "dispensing": "yes", "healthcare": "pharmacy", "name": "Farmacia Dottor Brunetti"}}, {"type": "node", "id": 3515238237, "lat": 40.6372052, "lon": 17.9412818, "tags": {"addr:housenumber": "58", "addr:street": "Via Carmine", "amenity": "pharmacy", "contact:phone": "+39 0831 523043", "dispensing": "yes", "healthcare": "pharmacy", "opening_hours": "Mo-Sa 08:30-13:00,16:30-20:00"}}, {"type": "node", "id": 3515266503, "lat": 40.632243, "lon": 17.9362582, "tags": {"addr:housenumber": "19", "addr:street": "Via Mecenate", "amenity": "pharmacy", "contact:phone": "+39 0831 524188", "dispensing": "yes", "name": "Farmacia Rizzo", "opening_hours": "Mo-Sa 08:00-13:00,16:30-20:00"}}, {"type": "node", "id": 3515272742, "lat": 40.6340936, "lon": 17.942975, "tags": {"addr:housenumber": "112", "addr:street": "Corso Roma", "alt_name": "Farmacia Nuzzaci di Corso Roma", "amenity": "pharmacy", "contact:phone": "+39 0831 523995", "dispensing": "yes", "healthcare": "pharmacy", "name": "Farmacia Corso Roma", "note": "il dataset riporta PIVA cessata: 00176100741 - Farmacia operante a maggio 2020", "operator": "Napolitano Paola e Delle Donne F. S.N.C.", "ref:msal": "12938", "ref:vatin": "IT02355390747"}}, {"type": "node", "id": 3515272763, "lat": 40.6376134, "lon": 17.9427694, "tags": {"addr:housenumber": "61", "addr:street": "Via San Lorenzo da Brindisi", "amenity": "pharmacy", "dispensing": "yes", "drive_through": "no", "healthcare": "pharmacy", "name": "Farmacia Favia"}}, {"type": "node", "id": 3515276547, "lat": 40.6275665, "lon": 17.9321667, "tags": {"addr:housenumber": "66", "addr:street": "Via Sicilia", "amenity": "pharmacy", "contact:phone": "+39 0831 581196", "dispensing": "yes", "healthcare": "pharmacy", "name": "Farmacia Sant'Angelo"}}, {"type": "node", "id": 3515292164, "lat": 40.6331958, "lon": 17.9320615, "tags": {"addr:housenumber": "168", "addr:street": "Via Appia", "amenity": "pharmacy", "contact:phone": "+39 0831 260373", "dispensing": "yes", "healthcare": "pharmacy", "name": "Dottor Rubino"}}, {"type": "node", "id": 3759075159, "lat": 40.4967072, "lon": 18.1225022, "tags": {"addr:city": "Trepuzzi", "addr:hamlet": "Casalabate", "addr:postcode": "73100", "addr:street": "Via Trepuzzi", "amenity": "pharmacy", "name": "Farmacia Comunale"}}, {"type": "node", "id": 4081091870, "lat": 40.6555935, "lon": 17.704816, "tags": {"amenity": "pharmacy", "name": "Farmacia Dott. Epifani Angelo"}}, {"type": "node", "id": 4083069817, "lat": 40.6570409, "lon": 17.7062578, "tags": {"amenity": "pharmacy", "name": "Farmacia Lamendola Luigi Della Dottoressa Carla Lamendola"}}, {"type": "node", "id": 4083074178, "lat": 40.6630134, "lon": 17.697552, "tags": {"amenity": "pharmacy", "name": "Farmacia Lorusso Stefania"}}, {"type": "node", "id": 4083083792, "lat": 40.6574112, "lon": 17.7039139, "tags": {"amenity": "pharmacy", "name": "Farmacia Epifani Rosaria"}}, {"type": "node", "id": 4083114940, "lat": 40.6570993, "lon": 17.7084252, "tags": {"amenity": "pharmacy", "name": "Farmacia De Vito Snc del Dr. Fabio De Vito & C."}}, {"type": "node", "id": 4212662536, "lat": 40.7056491, "lon": 17.6592906, "tags": {"amenity": "pharmacy", "name": "Farmacia Leo Dr.Ada"}}, {"type": "node", "id": 4213527646, "lat": 40.7088805, "lon": 17.6628585, "tags": {"amenity": "pharmacy", "healthcare": "pharmacy", "name": "Farmacia Filomena Raffaele"}}, {"type": "node", "id": 4213844675, "lat": 40.7029014, "lon": 17.6581852, "tags": {"amenity": "pharmacy", "name": "Farmacia Dott.Ssa Maria Pompea Lamendola"}}, {"type": "node", "id": 4217629564, "lat": 40.632352, "lon": 17.6308745, "tags": {"amenity": "pharmacy", "name": "De Vito Aldo"}}, {"type": "node", "id": 4270148390, "lat": 40.6488455, "lon": 17.9157181, "tags": {"amenity": "pharmacy", "dispensing": "yes", "name": "Farmacia Strippoli Dottor Francesco"}}, {"type": "node", "id": 4657568275, "lat": 40.5501248, "lon": 17.7133079, "tags": {"addr:city": "Latiano", "addr:housenumber": "104", "addr:postcode": "72022", "addr:street": "Via Francavilla", "amenity": "pharmacy", "dispensing": "yes", "name": "Farmacia Bartolo Longo"}}, {"type": "node", "id": 4703738025, "lat": 40.4370554, "lon": 17.7344577, "tags": {"amenity": "pharmacy", "dispensing": "yes", "name": "Farmacia Dottor Acierno"}}, {"type": "node", "id": 4703746467, "lat": 40.4357948, "lon": 17.7355216, "tags": {"amenity": "pharmacy", "dispensing": "yes", "name": "Farmacia Musa"}}, {"type": "node", "id": 4704009417, "lat": 40.4376109, "lon": 17.7335834, "tags": {"amenity": "pharmacy", "name": "parafarmacia Volpe"}}, {"type": "node", "id": 5154922029, "lat": 40.6496938, "lon": 17.7073612, "tags": {"amenity": "pharmacy", "name": "Farmacia dei Normanni"}}, {"type": "node", "id": 5736877425, "lat": 40.499936, "lon": 17.6431916, "tags": {"addr:city": "Oria", "addr:housenumber": "14", "addr:postcode": "72024", "addr:street": "Piazza Lama", "amenity": "pharmacy", "healthcare": "pharmacy", "name": "Manisco Capozza Dr. Silvia", "phone": "+39 0831 845086"}}, {"type": "node", "id": 5736889858, "lat": 40.4964839, "lon": 17.6438895, "tags": {"addr:city": "Oria", "addr:housenumber": "31/a", "addr:postcode": "72024", "addr:street": "Piazza Lorch", "amenity": "pharmacy", "dispensing": "no", "drive_through": "no", "healthcare": "pharmacy", "name": "Dottoressa Musto", "phone": "+39 0831 845081"}}, {"type": "node", "id": 5738082132, "lat": 40.4968199, "lon": 17.6403194, "tags": {"addr:city": "Oria", "addr:housenumber": "139/140", "addr:postcode": "72024", "addr:street": "Via Dragonetti Bonifacio", "amenity": "pharmacy", "dispensing": "yes", "drive_through": "no", "email": "farmaciavitalesas@gmail.com", "healthcare": "pharmacy", "name": "Farmacia Vitale SAS di Valentina Vitale", "phone": "+30 0831 816391"}}, {"type": "node", "id": 5738113565, "lat": 40.498459, "lon": 17.6459412, "tags": {"addr:city": "Oria", "addr:housenumber": "72", "addr:postcode": "72024", "addr:street": "Via Mario Pagano", "amenity": "pharmacy", "dispensing": "yes", "healthcare": "pharmacy", "name": "Pistone Dr. Leonardo", "phone": "+39 0831 845024"}}, {"type": "node", "id": 6040180985, "lat": 40.6362487, "lon": 17.9441136, "tags": {"addr:housenumber": "57", "addr:street": "Corso Umberto I", "amenity": "pharmacy", "contact:phone": "+39 0831 521522", "dispensing": "yes", "drive_through": "no", "healthcare": "pharmacy", "name": "Farmacia Tinelli"}}, {"type": "node", "id": 6044550887, "lat": 40.6359, "lon": 17.9301215, "tags": {"amenity": "pharmacy", "dispensing": "yes", "drive_through": "no", "name": "Farmacia Cappuccini"}}, {"type": "node", "id": 6055531663, "lat": 40.6369055, "lon": 17.9256146, "tags": {"amenity": "pharmacy", "dispensing": "yes", "name": "Farmacia Minnuta"}}, {"type": "node", "id": 6088245487, "lat": 40.6368544, "lon": 17.9450603, "tags": {"addr:housenumber": "24", "addr:street": "Corso Umberto primo", "amenity": "pharmacy", "dispensing": "yes", "drive_through": "no", "healthcare": "pharmacy", "name": "Farmacia Rosa Cannalire", "website": "www.farmaciarosacannalire.it", "wheelchair": "yes"}}, {"type": "node", "id": 6088760802, "lat": 40.6083132, "lon": 17.950659, "tags": {"addr:housenumber": "24", "addr:street": "Via delle Mimose", "amenity": "pharmacy", "contact:phone": "+39 0831 548430", "dispensing": "yes", "name": "Farmacia comunale La Rosa"}}, {"type": "node", "id": 6090341857, "lat": 40.6278573, "lon": 17.9238276, "tags": {"amenity": "pharmacy", "dispensing": "no", "healthcare": "pharmacy", "name": "Parafarmacia Dottor Roberto Ianne"}}, {"type": "node", "id": 6090482216, "lat": 40.6330832, "lon": 17.9415797, "tags": {"amenity": "pharmacy", "dispensing": "no", "healthcare": "pharmacy", "name": "Parafarmacia del Centro"}}, {"type": "node", "id": 6090647954, "lat": 40.6203943, "lon": 17.9267478, "tags": {"amenity": "pharmacy", "dispensing": "yes", "name": "Farmacia Sant'Elia", "wheelchair": "yes"}}, {"type": "node", "id": 6090691853, "lat": 40.6303268, "lon": 17.9346228, "tags": {"amenity": "pharmacy", "dispensing": "yes", "healthcare": "pharmacy", "name": "Farmacia Commenda", "opening_hours": "Mo-Fr 08:30-13:00,16:30-22:00; Sa 08:30-13:00,16:30-20:00"}}, {"type": "node", "id": 6090691865, "lat": 40.6236858, "lon": 17.9314845, "tags": {"addr:housenumber": "87", "addr:street": "Via Sant\u2019Angelo", "amenity": "pharmacy", "contact:phone": "+39 0831 542999", "dispensing": "yes", "healthcare": "pharmacy", "name": "Farmacia Doria"}}, {"type": "node", "id": 6091001662, "lat": 40.6237154, "lon": 17.9409135, "tags": {"amenity": "pharmacy", "dispensing": "no", "healthcare": "pharmacy", "name": "Parafarmacia Bona Salus"}}, {"type": "node", "id": 6091001664, "lat": 40.6294092, "lon": 17.9382313, "tags": {"amenity": "pharmacy", "dispensing": "yes", "healthcare": "pharmacy", "name": "Nuova Farmacia amica"}}, {"type": "node", "id": 6093290314, "lat": 40.6206614, "lon": 17.9166032, "tags": {"amenity": "pharmacy", "contact:phone": "+39 0831 542472", "dispensing": "yes", "name": "Farmacia Raffaello"}}, {"type": "node", "id": 6127136183, "lat": 40.6263481, "lon": 17.9277791, "tags": {"amenity": "pharmacy", "dispensing": "yes", "healthcare": "pharmacy", "name": "Farmacia Santa Chiara"}}, {"type": "node", "id": 6150196991, "lat": 40.6302808, "lon": 17.9253504, "tags": {"addr:housenumber": "2", "addr:street": "Via Grazia Balsamo", "amenity": "pharmacy", "contact:phone": "+39 0831 526829", "dispensing": "yes", "name": "Farmacia Comunale Cappuccini", "opening_hours": "Mo-Sa 08:30-20:30", "wheelchair": "yes"}}, {"type": "node", "id": 6199513154, "lat": 40.6267583, "lon": 17.9241259, "tags": {"amenity": "pharmacy", "dispensing": "yes", "healthcare": "pharmacy", "name": "Sanifarm"}}, {"type": "node", "id": 6254449348, "lat": 40.6556192, "lon": 17.7112685, "tags": {"amenity": "pharmacy", "dispensing": "no", "name": "Parafarmacia Dottoressa Giorgia Cacciapaglia"}}, {"type": "node", "id": 6270033777, "lat": 40.5450388, "lon": 17.9491697, "tags": {"amenity": "pharmacy", "dispensing": "yes", "healthcare": "pharmacy", "name": "Farmacia Madonna del Giardino"}}, {"type": "node", "id": 6327946129, "lat": 40.5582409, "lon": 17.8187487, "tags": {"amenity": "pharmacy", "dispensing": "yes", "name": "Farmacia Dottori Rutigliano"}}, {"type": "node", "id": 6328524155, "lat": 40.561916, "lon": 17.806723, "tags": {"amenity": "pharmacy", "dispensing": "yes", "name": "Farmacia Savino"}}, {"type": "node", "id": 6434003488, "lat": 40.5578899, "lon": 17.8103804, "tags": {"amenity": "pharmacy", "dispensing": "yes", "name": "Farmacie Uniclub", "wheelchair": "yes"}}, {"type": "node", "id": 6542893963, "lat": 40.4208261, "lon": 17.8406288, "tags": {"addr:housenumber": "82", "addr:street": "Via Mesagne", "amenity": "pharmacy", "dispensing": "yes", "healthcare": "pharmacy", "name": "Farmacia nuova"}}, {"type": "node", "id": 6702503254, "lat": 40.5008549, "lon": 17.6360212, "tags": {"addr:city": "Oria", "addr:housenumber": "61a", "addr:postcode": "72024", "addr:street": "Via Francavilla", "amenity": "pharmacy", "healthcare": "pharmacy", "name": "Farmacia Santi Medici"}}, {"type": "node", "id": 6991022906, "lat": 40.4317671, "lon": 17.7358536, "tags": {"amenity": "pharmacy", "dispensing": "yes", "name": "Farmacia Santa Lucia"}}, {"type": "node", "id": 7061245830, "lat": 40.4821716, "lon": 18.0557869, "tags": {"amenity": "pharmacy", "dispensing": "yes", "name": "Farmacia Largo Osanna"}}, {"type": "node", "id": 7099959523, "lat": 40.5639332, "lon": 17.8044424, "tags": {"amenity": "pharmacy", "dispensing": "yes", "name": "Farmacia Spalletta"}}, {"type": "node", "id": 7100152890, "lat": 40.5616135, "lon": 17.8113599, "tags": {"amenity": "pharmacy", "check_date": "2025-03-22", "dispensing": "yes", "name": "Farmacia De Luca"}}, {"type": "node", "id": 7522008320, "lat": 40.7058365, "lon": 17.6627393, "tags": {"amenity": "pharmacy", "dispensing": "yes", "healthcare": "pharmacy", "name": "Farmacia Colucci", "phone": "+39 0831 994261"}}, {"type": "node", "id": 8207022027, "lat": 40.580657, "lon": 17.836702, "tags": {"amenity": "pharmacy", "dispensing": "no", "healthcare": "pharmacy"}}, {"type": "node", "id": 8362621111, "lat": 40.5602282, "lon": 17.8043613, "tags": {"addr:city": "Mesagne", "addr:housenumber": "73", "addr:postcode": "72023", "addr:street": "Via Guglielmo Marconi", "amenity": "pharmacy", "dispensing": "yes", "drive_through": "no", "healthcare": "pharmacy", "name": "Farmacia Ricupero", "opening_hours": "Mo-Sa 08:00-13:00,16:00-20:00", "phone": "+39 0831 734724", "website": "https://www.farmaciaricupero.it/"}}, {"type": "node", "id": 8365480889, "lat": 40.5558729, "lon": 17.8094172, "tags": {"amenity": "pharmacy", "dispensing": "yes", "name": "Farmacia Sant'Antonio"}}, {"type": "node", "id": 8365490732, "lat": 40.6539829, "lon": 17.7102921, "tags": {"amenity": "pharmacy", "dispensing": "no", "name": "Parafarmacia Farmavita"}}, {"type": "node", "id": 8440744835, "lat": 40.4907666, "lon": 17.9964396, "tags": {"amenity": "pharmacy", "dispensing": "yes", "healthcare": "pharmacy", "name": "Farmacia Galatola"}}, {"type": "node", "id": 8440744837, "lat": 40.4911939, "lon": 17.9963075, "tags": {"amenity": "pharmacy", "dispensing": "no", "healthcare": "pharmacy", "name": "Parafarmacia San Giovanni"}}, {"type": "node", "id": 8470619688, "lat": 40.5584539, "lon": 17.8004795, "tags": {"amenity": "pharmacy", "dispensing": "yes", "name": "Farmacia Nocera"}}, {"type": "node", "id": 8495074064, "lat": 40.4856418, "lon": 18.0516174, "tags": {"amenity": "pharmacy", "dispensing": "yes", "name": "Farmacia Dottoressa Giordano"}}, {"type": "node", "id": 9045159567, "lat": 40.4664171, "lon": 17.7407359, "tags": {"amenity": "pharmacy", "dispensing": "yes", "name": "Farmacia Dottoressa Annabella Franzoso"}}, {"type": "node", "id": 9064279242, "lat": 40.5058246, "lon": 17.6517691, "tags": {"amenity": "pharmacy", "dispensing": "yes", "healthcare": "pharmacy"}}, {"type": "node", "id": 9178786138, "lat": 40.5012268, "lon": 17.6419752, "tags": {"addr:housenumber": "75", "addr:street": "Via Giacinto D'Oria", "amenity": "pharmacy", "dispensing": "no"}}, {"type": "node", "id": 9178786139, "lat": 40.5019108, "lon": 17.6419898, "tags": {"amenity": "pharmacy", "dispensing": "no"}}, {"type": "node", "id": 9198014490, "lat": 40.4478299, "lon": 17.9234507, "tags": {"amenity": "pharmacy", "dispensing": "yes"}}, {"type": "node", "id": 9239036875, "lat": 40.4183379, "lon": 17.8392756, "tags": {"addr:housenumber": "12", "addr:postcode": "72026", "addr:street": "Corso Umberto I", "amenity": "pharmacy", "dispensing": "yes", "healthcare": "pharmacy", "name": "Farmacia della Piazza", "phone": "0831666014"}}, {"type": "node", "id": 9239036883, "lat": 40.4182062, "lon": 17.8357793, "tags": {"amenity": "pharmacy", "dispensing": "yes", "healthcare": "pharmacy"}}, {"type": "node", "id": 9251034277, "lat": 40.4485208, "lon": 17.9220405, "tags": {"amenity": "pharmacy", "dispensing": "yes", "name": "Farmacia Zaurito"}}, {"type": "node", "id": 9251197162, "lat": 40.7127482, "lon": 17.6599981, "tags": {"amenity": "pharmacy", "dispensing": "yes", "healthcare": "pharmacy", "name": "Farmacia degli Angeli"}}, {"type": "node", "id": 9258347173, "lat": 40.6328348, "lon": 17.6322865, "tags": {"addr:city": "San Michele Salentino", "addr:housenumber": "88", "addr:postcode": "72018", "addr:street": "Via Tagliaferro", "amenity": "pharmacy", "dispensing": "yes", "healthcare": "pharmacy", "name": "Farmacia San Michele", "ref:msal": "019291", "ref:vatin": "2489190740", "start_date": "2016-10-01"}}, {"type": "node", "id": 9290953377, "lat": 40.4374763, "lon": 18.032978, "tags": {"amenity": "pharmacy", "dispensing": "yes"}}, {"type": "node", "id": 9290953385, "lat": 40.4353226, "lon": 18.0405177, "tags": {"addr:housenumber": "54", "addr:street": "Via Brindisi", "amenity": "pharmacy", "dispensing": "yes", "name": "Farmacia Valzano"}}, {"type": "node", "id": 9863833072, "lat": 40.4639551, "lon": 17.7411894, "tags": {"amenity": "pharmacy", "dispensing": "yes", "name": "Farmacia Dottor Salvatore Leo"}}, {"type": "node", "id": 10000258483, "lat": 40.4955845, "lon": 17.9950127, "tags": {"amenity": "pharmacy", "dispensing": "yes", "name": "Farmacia Angeli custodi", "wheelchair": "yes"}}, {"type": "node", "id": 10000258486, "lat": 40.496957, "lon": 17.9943744, "tags": {"amenity": "pharmacy", "dispensing": "no", "name": "Parafarmacia San Giovanni", "start_date": "2022", "wheelchair": "yes"}}, {"type": "node", "id": 10796698747, "lat": 40.4470968, "lon": 17.9238649, "tags": {"amenity": "pharmacy", "dispensing": "no"}}, {"type": "node", "id": 10796849632, "lat": 40.553758, "lon": 17.7164063, "tags": {"amenity": "pharmacy", "dispensing": "no"}}, {"type": "node", "id": 11045314424, "lat": 40.7055232, "lon": 17.6634107, "tags": {"amenity": "pharmacy", "dispensing": "no"}}, {"type": "node", "id": 11046869701, "lat": 40.399985, "lon": 17.6326491, "tags": {"amenity": "pharmacy", "dispensing": "yes", "healthcare": "pharmacy"}}, {"type": "node", "id": 11202896708, "lat": 40.6313636, "lon": 17.9385966, "tags": {"amenity": "pharmacy", "check_date": "2024-03-12", "dispensing": "no", "drive_through": "no", "healthcare": "pharmacy", "name": "BenPharma"}}, {"type": "node", "id": 11379506443, "lat": 40.4852876, "lon": 18.0015738, "tags": {"amenity": "pharmacy", "healthcare": "pharmacy", "name": "Farmacia Cavaliere"}}, {"type": "node", "id": 11395678472, "lat": 40.3978007, "lon": 17.6367188, "tags": {"amenity": "pharmacy", "healthcare": "pharmacy"}}, {"type": "node", "id": 11396418901, "lat": 40.400812, "lon": 17.6404189, "tags": {"amenity": "pharmacy", "healthcare": "pharmacy", "name": "Luparelli"}}, {"type": "node", "id": 11397421996, "lat": 40.3917177, "lon": 17.6375622, "tags": {"amenity": "pharmacy", "healthcare": "pharmacy"}}, {"type": "node", "id": 11423684012, "lat": 40.4366613, "lon": 17.7354567, "tags": {"amenity": "pharmacy", "dispensing": "no", "name": "Parafarmacia Dottoressa Volpe"}}, {"type": "node", "id": 11479866591, "lat": 40.4628536, "lon": 17.7365188, "tags": {"amenity": "pharmacy", "dispensing": "no", "name": "Parafarmacia De Gaetano"}}, {"type": "node", "id": 11877079858, "lat": 40.4738021, "lon": 17.7399822, "tags": {"amenity": "pharmacy", "dispensing": "yes", "name": "Farmacia Santa Susanna"}}, {"type": "node", "id": 11959100150, "lat": 40.5011573, "lon": 17.6421278, "tags": {"amenity": "pharmacy", "dispensing": "no", "name": "Parafarmacia Parasanitaria"}}]}