{"version": 0.6, "generator": "Overpass API 0.7.62.8 e802775f", "osm3s": {"timestamp_osm_base": "2025-10-06T08:53:43Z", "copyright": "The data included in this document is from www.openstreetmap.org. The data is made available under ODbL."}, "elements": [{"type": "node", "id": 2292435691, "lat": 36.8328046, "lon": 28.6405399, "tags": {"amenity": "pharmacy", "healthcare": "pharmacy", "name": "Eczane K\u00fcnkc\u00fc"}}, {"type": "node", "id": 2292435696, "lat": 36.834145, "lon": 28.6430151, "tags": {"amenity": "pharmacy", "healthcare": "pharmacy", "name": "Eczane Kaunos"}}, {"type": "node", "id": 2292435697, "lat": 36.834365, "lon": 28.6428466, "tags": {"amenity": "pharmacy", "healthcare": "pharmacy", "name": "Eczane Balc\u0131"}}, {"type": "node", "id": 9976094606, "lat": 36.974206, "lon": 28.5962695, "tags": {"amenity": "pharmacy", "healthcare": "pharmacy", "name": "D\u00f6\u011f\u00fcsbelen Eczanesi", "phone": "+90 252 265 2699"}}, {"type": "node", "id": 10826276378, "lat": 36.8384187, "lon": 28.7647223, "tags": {"amenity": "pharmacy", "healthcare": "pharmacy", "name": "Eczane Dilek"}}, {"type": "node", "id": 10826276379, "lat": 36.8374896, "lon": 28.763259, "tags": {"amenity": "pharmacy", "healthcare": "pharmacy", "name": "Eczane Okur", "phone": "+90 0252 2829460"}}, {"type": "node", "id": 10826276380, "lat": 36.8374127, "lon": 28.7631674, "tags": {"amenity": "pharmacy", "healthcare": "pharmacy", "name": "Eczane Vitamin"}}, {"type": "node", "id": 10826276381, "lat": 36.8373323, "lon": 28.7630714, "tags": {"amenity": "pharmacy", "healthcare": "pharmacy", "name": "Eczane Derman"}}, {"type": "node", "id": 10826276382, "lat": 36.8372488, "lon": 28.7634523, "tags": {"amenity": "pharmacy", "healthcare": "pharmacy", "name": "Eczane Ege"}}, {"type": "node", "id": 10862073123, "lat": 36.8427374, "lon": 28.7572392, "tags": {"amenity": "pharmacy", "healthcare": "pharmacy", "name": "Eczane Hilal"}}, {"type": "node", "id": 10862073131, "lat": 36.8374529, "lon": 28.762914, "tags": {"amenity": "pharmacy", "healthcare": "pharmacy", "name": "Eczane Deva"}}, {"type": "node", "id": 10862073133, "lat": 36.8370302, "lon": 28.7641205, "tags": {"amenity": "pharmacy", "healthcare": "pharmacy", "name": "Eczane Yeni"}}, {"type": "node", "id": 10862073134, "lat": 36.8371245, "lon": 28.7641881, "tags": {"amenity": "pharmacy", "healthcare": "pharmacy", "name": "Eczane Deniz"}}, {"type": "node", "id": 10862073136, "lat": 36.8368215, "lon": 28.7640119, "tags": {"amenity": "pharmacy", "healthcare": "pharmacy", "name": "Eczane P\u0131nar", "phone": "+90 0252 2825190"}}, {"type": "node", "id": 10916574370, "lat": 36.8399018, "lon": 28.7633077, "tags": {"amenity": "pharmacy", "healthcare": "pharmacy", "name": "Eczane Daka", "phone": "+90 0252 2822220"}}, {"type": "node", "id": 10917746304, "lat": 36.8372949, "lon": 28.7643043, "tags": {"amenity": "pharmacy", "healthcare": "pharmacy", "name": "Eczane \u00d6nder"}}, {"type": "node", "id": 10944590783, "lat": 36.8364897, "lon": 28.7639817, "tags": {"amenity": "pharmacy", "healthcare": "pharmacy", "name": "Eczane Salt\u0131k"}}, {"type": "node", "id": 10959452635, "lat": 36.8443088, "lon": 28.7686501, "tags": {"amenity": "pharmacy", "healthcare": "pharmacy", "name": "Eczane \u00c7\u00f6ll\u00fco\u011flu"}}, {"type": "node", "id": 10959452678, "lat": 36.9807081, "lon": 28.6791789, "tags": {"amenity": "pharmacy", "healthcare": "pharmacy", "name": "Eczane S\u0131la"}}, {"type": "node", "id": 10976531490, "lat": 36.8366162, "lon": 28.7662878, "tags": {"amenity": "pharmacy", "healthcare": "pharmacy", "name": "Eczane Nergiz"}}, {"type": "node", "id": 10976531492, "lat": 36.837498, "lon": 28.7673068, "tags": {"amenity": "pharmacy", "healthcare": "pharmacy", "name": "Eczane Ya\u015far"}}, {"type": "node", "id": 10982415806, "lat": 36.9754746, "lon": 28.6877313, "tags": {"amenity": "pharmacy", "healthcare": "pharmacy", "name": "Eczane Can \u00d6zsoy", "phone": "+90 252 262 5488"}}, {"type": "node", "id": 10982424305, "lat": 36.9856426, "lon": 28.666785, "tags": {"amenity": "pharmacy", "name": "Yeni Eczanesi", "phone": "+90 252 274 0060"}}, {"type": "node", "id": 11015779175, "lat": 36.9654506, "lon": 28.6890487, "tags": {"amenity": "pharmacy", "healthcare": "pharmacy", "name": "Eczane \u0130stanbul"}}, {"type": "node", "id": 11015779187, "lat": 36.9602541, "lon": 28.6884035, "tags": {"amenity": "pharmacy", "healthcare": "pharmacy", "name": "Eczane Arslan"}}, {"type": "node", "id": 11015781621, "lat": 36.9581676, "lon": 28.6886363, "tags": {"amenity": "pharmacy", "healthcare": "pharmacy", "name": "Eczane Cem"}}, {"type": "node", "id": 11015781626, "lat": 36.9578601, "lon": 28.6890309, "tags": {"amenity": "pharmacy", "healthcare": "pharmacy", "name": "Eczane Ceylan"}}, {"type": "node", "id": 11025947542, "lat": 36.9807591, "lon": 28.6789169, "tags": {"amenity": "pharmacy", "healthcare": "pharmacy", "name": "Eczane Cemre"}}, {"type": "node", "id": 11025947551, "lat": 36.9754778, "lon": 28.6876723, "tags": {"amenity": "pharmacy", "healthcare": "pharmacy", "name": "Eczane \u015eifa"}}, {"type": "node", "id": 11049586063, "lat": 37.0148797, "lon": 28.4623362, "tags": {"amenity": "pharmacy", "healthcare": "pharmacy", "name": "P\u0131nar Eczanesi", "phone": "+90 252 248 5034"}}, {"type": "node", "id": 11049603997, "lat": 36.9754811, "lon": 28.6876106, "tags": {"amenity": "pharmacy", "healthcare": "pharmacy", "name": "Eczane P\u0131nar"}}, {"type": "node", "id": 11049603998, "lat": 36.9754846, "lon": 28.6875442, "tags": {"amenity": "pharmacy", "healthcare": "pharmacy", "name": "Eczane Do\u011fa"}}, {"type": "node", "id": 11061188009, "lat": 36.8382915, "lon": 28.7654575, "tags": {"amenity": "pharmacy", "healthcare": "pharmacy", "name": "Eczane Ortaca"}}, {"type": "node", "id": 11076385293, "lat": 36.837191, "lon": 28.764231, "tags": {"amenity": "pharmacy", "healthcare": "pharmacy", "name": "Eczane G\u00fcne\u015f"}}, {"type": "node", "id": 11076415496, "lat": 36.9086717, "lon": 28.7725206, "tags": {"amenity": "pharmacy", "healthcare": "pharmacy", "name": "Eczane Beyobas\u0131"}}, {"type": "node", "id": 11118840482, "lat": 36.8372481, "lon": 28.7632785, "tags": {"amenity": "pharmacy", "healthcare": "pharmacy", "name": "Eczane Tando\u011fan"}}, {"type": "node", "id": 11205081461, "lat": 36.8328897, "lon": 28.6406228, "tags": {"amenity": "pharmacy", "healthcare": "pharmacy", "name": "Eczane Dalyan"}}, {"type": "node", "id": 11212515617, "lat": 36.7847409, "lon": 28.8098039, "tags": {"amenity": "pharmacy", "healthcare": "pharmacy"}}, {"type": "node", "id": 11332658504, "lat": 36.9089171, "lon": 28.7728957, "tags": {"amenity": "pharmacy", "healthcare": "pharmacy", "name": "Eczane Yasemin"}}, {"type": "node", "id": 11663165470, "lat": 37.1018186, "lon": 28.4143606, "tags": {"amenity": "pharmacy", "healthcare": "pharmacy", "name": "Yener Eczanesi", "phone": "+90 252 242 1278"}}, {"type": "node", "id": 11663165471, "lat": 37.102611, "lon": 28.4173083, "tags": {"amenity": "pharmacy", "healthcare": "pharmacy", "name": "\u00d6zg\u00fcr Eczanesi", "phone": "+90 252 242 3334"}}, {"type": "node", "id": 11663165472, "lat": 37.0479527, "lon": 28.3670229, "tags": {"amenity": "pharmacy", "healthcare": "pharmacy", "name": "Karya Eczanesi", "phone": "+90 252 246 6363"}}, {"type": "node", "id": 11663180869, "lat": 37.1028574, "lon": 28.4167499, "tags": {"amenity": "pharmacy", "healthcare": "pharmacy", "name": "Ula Eczanesi", "phone": "+90 252 242 3095"}}, {"type": "node", "id": 11663180969, "lat": 37.1025654, "lon": 28.4170255, "tags": {"amenity": "pharmacy", "healthcare": "pharmacy", "name": "\u015eener Eczanesi", "phone": "+90 252 242 3538"}}, {"type": "node", "id": 11663181069, "lat": 37.0162712, "lon": 28.3487207, "tags": {"amenity": "pharmacy", "name": "G\u00f6k\u00e7ek\u00f6y Eczanesi", "phone": "+90 252 245 4242"}}, {"type": "node", "id": 13172865901, "lat": 36.8433968, "lon": 28.7681878, "tags": {"amenity": "pharmacy", "healthcare": "pharmacy", "name": "Eczane Vitamin"}}]}