{"version": 0.6, "generator": "Overpass API 0.7.62.8 e802775f", "osm3s": {"timestamp_osm_base": "2025-10-06T08:52:35Z", "copyright": "The data included in this document is from www.openstreetmap.org. The data is made available under ODbL."}, "elements": [{"type": "node", "id": 4332248664, "lat": 47.8705887, "lon": 25.6105216, "tags": {"amenity": "pharmacy", "name": "Farmacia Oana-Maria", "opening_hours": "Mo-Fr 08:00-16:00; Sa 08:00-12:00"}}, {"type": "node", "id": 4618842186, "lat": 47.4774148, "lon": 25.2791058, "tags": {"addr:city": "Cioc\u0103ne\u0219ti", "addr:postcode": "727120", "addr:street": "Strada Principal\u0103", "amenity": "pharmacy", "name": "Farmacie"}}, {"type": "node", "id": 5393713987, "lat": 47.8720629, "lon": 25.6140287, "tags": {"amenity": "pharmacy", "name": "Farmacie Iliu\u021b \u0218tefan Constantin", "opening_hours": "Mo-Fr 08:30-17:00; Sa-Su 09:00-14:00", "phone": "+40 742743813"}}, {"type": "node", "id": 10860780689, "lat": 47.7799435, "lon": 25.7113335}, {"type": "node", "id": 10860780690, "lat": 47.7798349, "lon": 25.7113699}, {"type": "node", "id": 10860780691, "lat": 47.7798697, "lon": 25.7115999}, {"type": "node", "id": 10860780692, "lat": 47.7799783, "lon": 25.7115635}, {"type": "way", "id": 1167783852, "nodes": [10860780689, 10860780690, 10860780691, 10860780692, 10860780689], "tags": {"amenity": "pharmacy", "building": "yes", "healthcare": "pharmacy", "opening_hours": "Mo-Fr 09:30-13:00, 14:00-17:30; Sa 11:00-13:00, 14:00-17:00"}}]}