{"version": 0.6, "generator": "Overpass API 0.7.62.8 e802775f", "osm3s": {"timestamp_osm_base": "2025-10-06T08:12:00Z", "copyright": "The data included in this document is from www.openstreetmap.org. The data is made available under ODbL."}, "elements": [{"type": "node", "id": 461208402, "lat": 42.8910472, "lon": 22.0754376, "tags": {"amenity": "pharmacy", "dispensing": "no"}}, {"type": "node", "id": 461964802, "lat": 42.8919019, "lon": 22.0722711, "tags": {"amenity": "pharmacy", "dispensing": "no"}}, {"type": "node", "id": 1133094176, "lat": 42.9949814, "lon": 21.9481337, "tags": {"amenity": "pharmacy", "healthcare": "pharmacy"}}, {"type": "node", "id": 1133094177, "lat": 42.9945292, "lon": 21.9344599, "tags": {"amenity": "pharmacy", "healthcare": "pharmacy"}}, {"type": "node", "id": 1133094181, "lat": 42.9945096, "lon": 21.945076, "tags": {"amenity": "pharmacy", "healthcare": "pharmacy"}}, {"type": "node", "id": 3473593923, "lat": 42.7057058, "lon": 22.0642979, "tags": {"amenity": "pharmacy", "healthcare": "pharmacy"}}, {"type": "node", "id": 5057261556, "lat": 42.9984574, "lon": 21.9409443, "tags": {"amenity": "pharmacy", "healthcare": "pharmacy"}}, {"type": "node", "id": 6812666794, "lat": 42.7062547, "lon": 22.0652331, "tags": {"amenity": "pharmacy"}}, {"type": "node", "id": 8165394994, "lat": 42.9647561, "lon": 22.1277034, "tags": {"amenity": "pharmacy", "dispensing": "yes", "healthcare": "pharmacy"}}, {"type": "node", "id": 12853898330, "lat": 43.0025171, "lon": 21.9785248, "tags": {"amenity": "pharmacy", "healthcare": "pharmacy"}}, {"type": "node", "id": 13157569019, "lat": 42.8129378, "lon": 22.2974306, "tags": {"addr:city": "\u0426\u0440\u043d\u0430 \u0422\u0440\u0430\u0432\u0430", "addr:housenumber": "15", "addr:postcode": "16215", "addr:street": "\u0421\u0440\u0435\u0442\u0435\u043d\u0430 \u041a\u0430\u0440\u0438\u045b\u0430", "amenity": "pharmacy", "drive_through": "no", "healthcare": "pharmacy", "int_name": "Apoteka", "name": "\u0410\u043f\u043e\u0442\u0435\u043a\u0430", "name:en": "Pharmacy", "name:sr": "\u0410\u043f\u043e\u0442\u0435\u043a\u0430", "name:sr-Latn": "Apoteka"}}]}