{"version": 0.6, "generator": "Overpass API 0.7.62.8 e802775f", "osm3s": {"timestamp_osm_base": "2025-10-06T08:11:00Z", "copyright": "The data included in this document is from www.openstreetmap.org. The data is made available under ODbL."}, "elements": [{"type": "node", "id": 254536551, "lat": 49.039396, "lon": 19.7270357, "tags": {"amenity": "pharmacy", "dispensing": "yes", "drive_through": "no", "healthcare": "pharmacy", "name": "Lek\u00e1re\u0148 na Hradnej", "opening_hours": "\"po-pia 06:30-17:00 sobota 08:00-12:00\""}}, {"type": "node", "id": 256570757, "lat": 49.0861328, "lon": 19.6113651, "tags": {"addr:city": "Liptovsk\u00fd Mikul\u00e1\u0161", "addr:housenumber": "1", "addr:postcode": "03101", "addr:street": "N\u00e1mestie mieru", "amenity": "pharmacy", "dispensing": "yes", "name": "Apotheke", "opening_hours": "Mo - Fr 8:00-19:00, Sa 8:00-16:00, Su 9:00-14:00", "phone": "+4210905713833"}}, {"type": "node", "id": 256570761, "lat": 49.0810447, "lon": 19.6137318, "tags": {"amenity": "pharmacy", "brand": "Dr. Max", "brand:wikidata": "Q56317371", "brand:wikipedia": "fr:Dr.Max", "dispensing": "yes", "healthcare": "pharmacy", "name": "Dr. Max", "operator": "Dr.Max", "wheelchair": "yes"}}, {"type": "node", "id": 679014754, "lat": 49.0869368, "lon": 19.6048192, "tags": {"amenity": "pharmacy", "name": "Slnko"}}, {"type": "node", "id": 679014756, "lat": 49.0863183, "lon": 19.6059447, "tags": {"amenity": "pharmacy", "dispensing": "yes", "drive_through": "no", "healthcare": "pharmacy", "name": "Lek\u00e1re\u0148 u Jakuba", "phone": "+421 919 218 732", "source": "survey"}}, {"type": "node", "id": 679014762, "lat": 49.0856995, "lon": 19.6096345, "tags": {"amenity": "pharmacy"}}, {"type": "node", "id": 826799444, "lat": 49.2125417, "lon": 19.3045884, "tags": {"amenity": "pharmacy", "brand": "Benu", "brand:wikidata": "Q62562792", "dispensing": "yes", "healthcare": "pharmacy", "name": "Benu"}}, {"type": "node", "id": 868175698, "lat": 49.0991657, "lon": 19.4173867}, {"type": "node", "id": 868175709, "lat": 49.0990647, "lon": 19.4175003}, {"type": "node", "id": 868175712, "lat": 49.0990596, "lon": 19.4175875}, {"type": "node", "id": 868175716, "lat": 49.0989758, "lon": 19.4175773}, {"type": "node", "id": 868175721, "lat": 49.0989878, "lon": 19.4173748}, {"type": "node", "id": 868175728, "lat": 49.0990206, "lon": 19.4173768}, {"type": "node", "id": 868175733, "lat": 49.0990216, "lon": 19.417351}, {"type": "node", "id": 868175759, "lat": 49.0990692, "lon": 19.4173558}, {"type": "node", "id": 868175764, "lat": 49.0990681, "lon": 19.4173816}, {"type": "node", "id": 869485966, "lat": 49.0832709, "lon": 19.3026187}, {"type": "node", "id": 869486579, "lat": 49.0833219, "lon": 19.302578}, {"type": "node", "id": 869493454, "lat": 49.0738865, "lon": 19.3148269}, {"type": "node", "id": 869496406, "lat": 49.0833588, "lon": 19.3025486}, {"type": "node", "id": 869496557, "lat": 49.0738974, "lon": 19.314791}, {"type": "node", "id": 869497087, "lat": 49.083313, "lon": 19.3024156}, {"type": "node", "id": 869499803, "lat": 49.0737593, "lon": 19.3148027}, {"type": "node", "id": 869505880, "lat": 49.07387, "lon": 19.3148819}, {"type": "node", "id": 869511977, "lat": 49.0738022, "lon": 19.3146625}, {"type": "node", "id": 869514238, "lat": 49.083224, "lon": 19.302487}, {"type": "node", "id": 869527107, "lat": 49.0739129, "lon": 19.3147407}, {"type": "node", "id": 869528527, "lat": 49.0832567, "lon": 19.3025834}, {"type": "node", "id": 869532977, "lat": 49.0833111, "lon": 19.3025864}, {"type": "node", "id": 933530043, "lat": 49.0991628, "lon": 19.4175152}, {"type": "node", "id": 975433535, "lat": 49.0857226, "lon": 19.2991491, "tags": {"amenity": "pharmacy", "healthcare": "pharmacy"}}, {"type": "node", "id": 1330514090, "lat": 49.0837736, "lon": 19.6135066, "tags": {"amenity": "pharmacy", "dispensing": "yes", "name": "APIA"}}, {"type": "node", "id": 1332528259, "lat": 49.1200177, "lon": 19.1669281, "tags": {"amenity": "pharmacy", "brand": "Dr. Max", "brand:wikidata": "Q56317371", "dispensing": "yes", "healthcare": "pharmacy", "level": "0", "name": "Dr. Max", "operator": "Dr.Max 21 s.r.o.", "website": "https://www.drmax.sk/", "wheelchair": "no"}}, {"type": "node", "id": 3112357000, "lat": 49.1943544, "lon": 19.1977018, "tags": {"amenity": "pharmacy", "dispensing": "yes", "name": "Pedag"}}, {"type": "node", "id": 3257244397, "lat": 49.1152762, "lon": 19.039302}, {"type": "node", "id": 3257244423, "lat": 49.1152984, "lon": 19.0395441}, {"type": "node", "id": 3257244442, "lat": 49.1153128, "lon": 19.0395394}, {"type": "node", "id": 3257244448, "lat": 49.1153164, "lon": 19.039591}, {"type": "node", "id": 3257244563, "lat": 49.1153275, "lon": 19.0392908}, {"type": "node", "id": 3257244590, "lat": 49.1153534, "lon": 19.0395827}, {"type": "node", "id": 3274939325, "lat": 49.0710242, "lon": 19.3141205, "tags": {"amenity": "pharmacy", "brand": "Dr. Max", "brand:wikidata": "Q56317371", "healthcare": "pharmacy", "name": "Dr. Max"}}, {"type": "node", "id": 3274939326, "lat": 49.0824913, "lon": 19.3029823, "tags": {"amenity": "pharmacy", "healthcare": "pharmacy", "name": "Sinuhe"}}, {"type": "node", "id": 3301299805, "lat": 49.082684, "lon": 19.2988136, "tags": {"amenity": "pharmacy", "healthcare": "pharmacy", "name": "Centrum", "opening_hours": "Mo-Fr 07:30-17:00"}}, {"type": "node", "id": 3608305454, "lat": 49.083654, "lon": 19.2832163, "tags": {"amenity": "pharmacy", "brand": "Schneider", "brand:wikidata": "Q93514377", "healthcare": "pharmacy", "name": "Schneider", "opening_hours": "09:00-20:00", "operator": "SCHNEIDER"}}, {"type": "node", "id": 3913499034, "lat": 49.0833473, "lon": 19.3043735, "tags": {"amenity": "pharmacy", "healthcare": "pharmacy", "name": "Questa"}}, {"type": "node", "id": 3918735801, "lat": 49.0810507, "lon": 19.3049265, "tags": {"amenity": "pharmacy", "healthcare": "pharmacy", "name": "Star\u00e1 lek\u00e1re\u0148"}}, {"type": "node", "id": 3942930447, "lat": 49.0654298, "lon": 19.3003748, "tags": {"amenity": "pharmacy", "name": "Zuzana"}}, {"type": "node", "id": 4196182613, "lat": 49.0771689, "lon": 19.3039328, "tags": {"amenity": "pharmacy", "dispensing": "yes", "healthcare": "pharmacy", "name": "Lek\u00e1re\u0148 Sophia", "phone": "+421 44 381 12 70"}}, {"type": "node", "id": 4285725445, "lat": 49.0386576, "lon": 19.7210319, "tags": {"amenity": "pharmacy", "drive_through": "no", "healthcare": "pharmacy", "name": "Lek\u00e1re\u0148 Pharmacia", "opening_hours": "Mo-Sa 07:00-17:00", "source": "survey"}}, {"type": "node", "id": 4289915440, "lat": 49.0376855, "lon": 19.7177412, "tags": {"amenity": "pharmacy", "drive_through": "no", "healthcare": "pharmacy", "name": "Lek\u00e1re\u0148 V\u010dielka", "source": "survey"}}, {"type": "node", "id": 4357823746, "lat": 49.0829681, "lon": 19.3016538, "tags": {"amenity": "pharmacy", "healthcare": "pharmacy"}}, {"type": "node", "id": 4842599641, "lat": 49.1196298, "lon": 19.1680151, "tags": {"amenity": "pharmacy", "name": "Diana"}}, {"type": "node", "id": 4888205533, "lat": 49.0830915, "lon": 19.3026131, "tags": {"amenity": "pharmacy", "healthcare": "pharmacy", "name": "Astra"}}, {"type": "node", "id": 4895120758, "lat": 49.0498998, "lon": 19.4832753, "tags": {"amenity": "pharmacy"}}, {"type": "node", "id": 5099962797, "lat": 49.1198852, "lon": 19.1677442, "tags": {"amenity": "pharmacy"}}, {"type": "node", "id": 5495768936, "lat": 49.0850642, "lon": 19.3017474, "tags": {"amenity": "pharmacy", "healthcare": "pharmacy"}}, {"type": "node", "id": 5864439233, "lat": 49.2151114, "lon": 19.299595, "tags": {"amenity": "pharmacy", "brand": "Dr. Max", "brand:wikidata": "Q56317371", "dispensing": "yes", "healthcare": "pharmacy", "name": "Dr. Max"}}, {"type": "node", "id": 5864439236, "lat": 49.2146933, "lon": 19.2978716, "tags": {"amenity": "pharmacy", "brand": "Schneider", "brand:wikidata": "Q93514377", "dispensing": "yes", "healthcare": "pharmacy", "location": "indoor", "name": "Schneider"}}, {"type": "node", "id": 5864453562, "lat": 49.2121806, "lon": 19.29643, "tags": {"amenity": "pharmacy", "dispensing": "yes", "healthcare": "pharmacy", "name": "Via Natura"}}, {"type": "node", "id": 5864462323, "lat": 49.2093386, "lon": 19.2955348, "tags": {"amenity": "pharmacy", "dispensing": "yes", "healthcare": "pharmacy", "name": "Nika"}}, {"type": "node", "id": 5864462326, "lat": 49.2090978, "lon": 19.2964543, "tags": {"amenity": "pharmacy", "dispensing": "yes", "healthcare": "pharmacy", "name": "U Anjela"}}, {"type": "node", "id": 5864942068, "lat": 49.2131954, "lon": 19.3059601, "tags": {"amenity": "pharmacy", "dispensing": "yes", "healthcare": "pharmacy", "name": "Azitea", "toilets:wheelchair": "no", "wheelchair": "yes"}}, {"type": "node", "id": 5864982434, "lat": 49.2132068, "lon": 19.3031304, "tags": {"amenity": "pharmacy", "brand": "Dr. Max", "brand:wikidata": "Q56317371", "dispensing": "yes", "healthcare": "pharmacy", "name": "Dr. Max"}}, {"type": "node", "id": 5864982435, "lat": 49.2134354, "lon": 19.3034167, "tags": {"amenity": "pharmacy", "dispensing": "yes", "healthcare": "pharmacy", "name": "Lek\u00e1re\u0148 Anna"}}, {"type": "node", "id": 5865145535, "lat": 49.3350615, "lon": 19.5532261, "tags": {"amenity": "pharmacy", "dispensing": "yes", "healthcare": "pharmacy", "name": "Inspe"}}, {"type": "node", "id": 5865173769, "lat": 49.3280927, "lon": 19.5510764, "tags": {"amenity": "pharmacy", "dispensing": "yes", "healthcare": "pharmacy", "name": "Lek\u00e1re\u0148 Medvedzie"}}, {"type": "node", "id": 6019791152, "lat": 49.2142223, "lon": 19.3031024, "tags": {"amenity": "pharmacy", "brand": "Naj. lek\u00e1re\u0148", "dispensing": "yes", "healthcare": "pharmacy", "name": "Naj. lek\u00e1re\u0148"}}, {"type": "node", "id": 6042370876, "lat": 49.2140023, "lon": 19.2970731, "tags": {"amenity": "pharmacy", "healthcare": "pharmacy", "name": "MEX", "status": "closed"}}, {"type": "node", "id": 7099416485, "lat": 48.9507836, "lon": 19.2719754, "tags": {"amenity": "pharmacy"}}, {"type": "node", "id": 7260615089, "lat": 49.0848857, "lon": 19.5993625, "tags": {"amenity": "pharmacy", "contact:website": "http://nemocnica2.skyweb.sk/verejna-lekaren/", "name": "Lek\u00e1re\u0148 Liptovskej nemocnice"}}, {"type": "node", "id": 8949355747, "lat": 49.0398277, "lon": 19.7253028, "tags": {"amenity": "pharmacy", "brand": "Dr. Max", "brand:wikidata": "Q56317371", "healthcare": "pharmacy", "name": "Dr. Max"}}, {"type": "node", "id": 11143200969, "lat": 49.3330115, "lon": 19.5552912, "tags": {"amenity": "pharmacy", "brand": "Dr. Max", "brand:wikidata": "Q56317371", "healthcare": "pharmacy", "name": "Dr. Max"}}, {"type": "node", "id": 11145606882, "lat": 49.3221021, "lon": 19.5426858, "tags": {"amenity": "pharmacy", "brand": "Dr. Max", "brand:wikidata": "Q56317371", "healthcare": "pharmacy", "name": "Dr. Max"}}, {"type": "node", "id": 11243625336, "lat": 49.0775226, "lon": 19.6504503, "tags": {"addr:city": "Liptovsk\u00fd Mikul\u00e1\u0161", "addr:conscriptionnumber": "1173", "addr:country": "SK", "addr:housenumber": "1173/7", "addr:postcode": "031 04", "addr:street": "Smre\u010dianska", "addr:streetnumber": "7", "addr:suburb": "Podbreziny", "amenity": "pharmacy", "brand": "Benu", "brand:wikidata": "Q62562792", "healthcare": "pharmacy", "name": "Benu", "ref:minvskaddress": "7103068665", "start_date": "2023-11-15"}}, {"type": "node", "id": 11690026899, "lat": 49.270241, "lon": 19.6075678, "tags": {"addr:housenumber": "1", "addr:street": "Ni\u017en\u00e9 Brehy", "amenity": "pharmacy", "name": "Lek\u00e1re\u0148 ARNIKA MEDI", "opening_hours": "Mo-Fr 07:00-15:00"}}, {"type": "node", "id": 12023670226, "lat": 49.0993014, "lon": 19.4340567, "tags": {"amenity": "pharmacy", "name": "Pluslekaren", "source": "Ortofotomozaika SR, survey", "website": "https://www.pluslekaren.sk/lekaren/lekaren-besenova/"}}, {"type": "node", "id": 12063217622, "lat": 49.0841092, "lon": 19.3071917, "tags": {"amenity": "pharmacy", "brand": "Dr. Max", "brand:wikidata": "Q56317371", "healthcare": "pharmacy", "name": "Dr. Max"}}, {"type": "node", "id": 12312124385, "lat": 49.0802023, "lon": 19.6010637, "tags": {"amenity": "pharmacy", "brand": "Dr. Max", "brand:wikidata": "Q56317371", "healthcare": "pharmacy", "name": "Dr. Max"}}, {"type": "node", "id": 13003736615, "lat": 49.0776607, "lon": 19.6047316, "tags": {"amenity": "pharmacy", "brand": "Schneider", "brand:wikidata": "Q93514377", "check_date": "2025-07-16", "healthcare": "pharmacy", "name": "Schneider"}}, {"type": "way", "id": 73172493, "nodes": [868175698, 933530043, 868175709, 868175712, 868175716, 868175721, 868175728, 868175733, 868175759, 868175764, 868175698], "tags": {"addr:city": "Liptovsk\u00e1 Tepl\u00e1", "addr:conscriptionnumber": "30", "addr:housenumber": "30", "addr:place": "Liptovsk\u00e1 Tepl\u00e1", "addr:postcode": "03483", "addr:street": "Na Kamenci", "amenity": "pharmacy", "building": "yes", "healthcare": "pharmacy", "import": "budovy201004", "name": "Lek\u00e1re\u0148 Liptovsk\u00e1 Tepl\u00e1", "opening_hours": "Mo-Fr 07:00-15:00", "source": "kapor2", "source:conscriptionnumber": "kapor2"}}, {"type": "way", "id": 73309306, "nodes": [869505880, 869499803, 869511977, 869527107, 869496557, 869493454, 869505880], "tags": {"amenity": "pharmacy", "building": "yes", "dispensing": "yes", "healthcare": "pharmacy", "source": "kapor2"}}, {"type": "way", "id": 73310173, "nodes": [869528527, 869514238, 869497087, 869496406, 869486579, 869532977, 869485966, 869528527], "tags": {"addr:city": "Ru\u017eomberok", "addr:conscriptionnumber": "5231", "addr:country": "SK", "addr:housenumber": "5231/4A", "addr:postcode": "03401", "addr:street": "Antona Bernol\u00e1ka", "addr:streetnumber": "4A", "addr:suburb": "Ru\u017eomberok", "amenity": "pharmacy", "building": "commercial", "healthcare": "pharmacy", "ref:minvskaddress": "7000275898", "source": "kapor2", "source:addr": "minvskaddress 2024-01"}}, {"type": "way", "id": 319312637, "nodes": [3257244448, 3257244442, 3257244423, 3257244397, 3257244563, 3257244590, 3257244448], "tags": {"addr:city": "Turany", "addr:conscriptionnumber": "251", "addr:country": "SK", "addr:housenumber": "251/2", "addr:postcode": "03853", "addr:street": "Kr\u00ed\u017ena", "addr:streetnumber": "2", "amenity": "pharmacy", "building": "yes", "name": "dr Max", "ref:minvskaddress": "17197290", "source": "kapor2", "source:addr": "minvskaddress 2023-05"}}]}