{"version": 0.6, "generator": "Overpass API 0.7.62.8 e802775f", "osm3s": {"timestamp_osm_base": "2025-10-06T08:31:13Z", "copyright": "The data included in this document is from www.openstreetmap.org. The data is made available under ODbL."}, "elements": [{"type": "node", "id": 1852468766, "lat": 43.7579, "lon": 24.27265, "tags": {"FIXME": "R APO", "amenity": "pharmacy"}}, {"type": "node", "id": 2393839870, "lat": 43.8000074, "lon": 24.085648, "tags": {"amenity": "pharmacy", "name": "Domani farm"}}, {"type": "node", "id": 5079654385, "lat": 43.7738376, "lon": 24.5029494, "tags": {"amenity": "pharmacy", "name": "Corafarm"}}, {"type": "node", "id": 5181279972, "lat": 43.7751101, "lon": 24.4990809, "tags": {"addr:housenumber": "53", "addr:street": "Strada Cuza Vod\u0103", "amenity": "pharmacy", "check_date": "2022-11-07", "healthcare": "pharmacy", "name": "Antofarm", "name:ro": "Antofarm", "opening_hours": "Mo-Fr 08:30-20:00; Sa 08:30-16:00; Su 08:30-13:00", "phone": "+40 349 883 408", "website": "https://antofarm.ro", "wheelchair": "yes"}}, {"type": "node", "id": 5781153334, "lat": 44.0229016, "lon": 24.4526489}, {"type": "node", "id": 5781153335, "lat": 44.0229145, "lon": 24.452875}, {"type": "node", "id": 5781153336, "lat": 44.0228091, "lon": 24.4528866}, {"type": "node", "id": 5781153337, "lat": 44.0227962, "lon": 24.4526605}, {"type": "node", "id": 5809370604, "lat": 43.9068829, "lon": 24.409512, "tags": {"addr:city": "Brastav\u0103\u021bu", "addr:housenumber": "85", "addr:postcode": "237045", "addr:street": "Strada Alexandru Ioan Cuza", "amenity": "pharmacy", "dispensing": "yes", "healthcare": "pharmacy", "name": "Farmacia Farmas", "phone": "+40 249-561 372"}}, {"type": "node", "id": 5813147541, "lat": 43.8435648, "lon": 24.6496881, "tags": {"amenity": "pharmacy", "dispensing": "yes", "healthcare": "pharmacy", "name": "Farmacia Leofarm"}}, {"type": "node", "id": 6579820748, "lat": 43.8101377, "lon": 24.2202988, "tags": {"addr:city": "\u0218tefan cel Mare", "amenity": "pharmacy", "dispensing": "yes", "healthcare": "pharmacy"}}, {"type": "node", "id": 10302221664, "lat": 43.871246, "lon": 24.4141936, "tags": {"addr:city": "Vi\u0219ina Nou\u0103", "addr:street": "Strada Gheorge B\u0103rbuceanu", "amenity": "pharmacy", "dispensing": "yes", "healthcare": "pharmacy"}}, {"type": "node", "id": 10700219724, "lat": 43.7769255, "lon": 24.5009616, "tags": {"amenity": "pharmacy", "brand": "Catena", "brand:wikidata": "Q24035728", "dispensing": "yes", "drive_through": "no", "healthcare": "pharmacy", "name": "Catena"}}, {"type": "node", "id": 10874441425, "lat": 43.9552968, "lon": 24.1665934, "tags": {"amenity": "pharmacy", "healthcare": "pharmacy", "name": "Farmacia Oltfarm"}}, {"type": "node", "id": 10874441430, "lat": 43.9554209, "lon": 24.1665518, "tags": {"addr:city": "Am\u0103r\u0103\u0219tii de Jos", "amenity": "pharmacy", "healthcare": "pharmacy", "name": "Farmacia Amifarm"}}, {"type": "node", "id": 10875076853, "lat": 43.9807066, "lon": 24.1558066, "tags": {"addr:city": "Am\u0103r\u0103\u0219tii de Sus", "addr:street": "Strada Principal\u0103", "amenity": "pharmacy", "healthcare": "pharmacy", "name": "Farmacia D&G Pharm"}}, {"type": "node", "id": 12029052334, "lat": 43.8634454, "lon": 24.6372035, "tags": {"addr:city": "Tia Mare", "addr:street": "Strada Haralambie", "amenity": "pharmacy", "healthcare": "pharmacy", "name": "Chirea Farm"}}, {"type": "node", "id": 12029069813, "lat": 43.8657181, "lon": 24.6359849, "tags": {"addr:city": "Tia Mare", "addr:street": "Strada Mihai Viteazul", "amenity": "pharmacy", "healthcare": "pharmacy", "name": "Farmacia Dimafarm"}}, {"type": "way", "id": 610439495, "nodes": [5781153334, 5781153335, 5781153336, 5781153337, 5781153334], "tags": {"amenity": "pharmacy", "building": "yes", "dispensing": "yes", "healthcare": "pharmacy"}}]}