{"version": 0.6, "generator": "Overpass API 0.7.62.8 e802775f", "osm3s": {"timestamp_osm_base": "2025-10-06T08:40:23Z", "copyright": "The data included in this document is from www.openstreetmap.org. The data is made available under ODbL."}, "elements": [{"type": "node", "id": 476216306, "lat": 53.2354916, "lon": 21.4642025, "tags": {"addr:city": "Kadzid\u0142o", "addr:city:simc": "0511195", "addr:postcode": "07-420", "amenity": "pharmacy", "source": "http://ump.waw.pl/ retrieved 12:40:28 08/23/09 (UMP-Ciechanow/src/POI-Ciechanow.szpitale.pnt-converted.txt)"}}, {"type": "node", "id": 1275866582, "lat": 53.0748915, "lon": 21.587372, "tags": {"addr:city": "Ostro\u0142\u0119ka", "addr:country": "PL", "addr:housenumber": "6", "addr:street": "Genera\u0142a W\u0142adys\u0142awa Sikorskiego", "amenity": "pharmacy", "dispensing": "yes", "name": "Apteka Klemer", "opening_hours": "24/7"}}, {"type": "node", "id": 1290372521, "lat": 53.075039, "lon": 21.5882939, "tags": {"addr:housenumber": "35", "addr:street": "Genera\u0142a W\u0142adys\u0142awa Sikorskiego", "amenity": "pharmacy", "dispensing": "yes", "name": "Apteka Centrum"}}, {"type": "node", "id": 1975120361, "lat": 53.3631339, "lon": 21.5486363, "tags": {"amenity": "pharmacy"}}, {"type": "node", "id": 1975164664, "lat": 53.3648748, "lon": 21.5544889, "tags": {"amenity": "pharmacy", "drive_through": "no", "healthcare": "pharmacy", "operator": "Marchewka Bo\u017cena", "phone": "297725920"}}, {"type": "node", "id": 2929086405, "lat": 53.1761805, "lon": 21.2970462}, {"type": "node", "id": 2929086406, "lat": 53.1762134, "lon": 21.2969074}, {"type": "node", "id": 2929086407, "lat": 53.1762357, "lon": 21.2969221}, {"type": "node", "id": 2929086408, "lat": 53.1762483, "lon": 21.2968689}, {"type": "node", "id": 2929086409, "lat": 53.1762739, "lon": 21.2969479}, {"type": "node", "id": 2929086410, "lat": 53.1762866, "lon": 21.2968941}, {"type": "node", "id": 2929086411, "lat": 53.1762984, "lon": 21.2971239}, {"type": "node", "id": 2929086413, "lat": 53.1763311, "lon": 21.2969857}, {"type": "node", "id": 3241685524, "lat": 53.00446, "lon": 21.30444, "tags": {"addr:city": "Sypniewo", "addr:housenumber": "2C/3", "addr:postcode": "06-216", "addr:street": "W\u0142adys\u0142awa Broniewskiego", "amenity": "pharmacy", "name": "Punkt Apteczny (A. Balcerzak)", "ref:csioz": "1091612"}}, {"type": "node", "id": 4952148831, "lat": 53.0818713, "lon": 21.580825, "tags": {"addr:city": "Ostro\u0142\u0119ka", "addr:postcode": "07-410", "amenity": "pharmacy", "name": "Apteka Nova", "name:en": "Pharmacy Nova", "name:pl": "Apteka Nova", "opening_hours": "Mo-Fr 08:00-20:00; Sa 08:00-15:00"}}, {"type": "node", "id": 6190853390, "lat": 53.2329744, "lon": 21.4661811}, {"type": "node", "id": 6190853391, "lat": 53.2331215, "lon": 21.4660968}, {"type": "node", "id": 6190853392, "lat": 53.2330197, "lon": 21.4658017}, {"type": "node", "id": 6190853393, "lat": 53.2328803, "lon": 21.465862}, {"type": "node", "id": 6190853394, "lat": 53.2328973, "lon": 21.4659386}, {"type": "node", "id": 6190853395, "lat": 53.232924, "lon": 21.4659222}, {"type": "node", "id": 7573474403, "lat": 53.0728474, "lon": 21.5969153, "tags": {"amenity": "pharmacy", "dispensing": "yes", "healthcare": "pharmacy", "name": "Przy \u015bw. Franciszku"}}, {"type": "node", "id": 8731789981, "lat": 53.1763025, "lon": 21.2921699}, {"type": "node", "id": 8731789982, "lat": 53.1763741, "lon": 21.2922056}, {"type": "node", "id": 8731789983, "lat": 53.1763972, "lon": 21.2920797}, {"type": "node", "id": 8731789984, "lat": 53.1763785, "lon": 21.2920704}, {"type": "node", "id": 8731789985, "lat": 53.1763508, "lon": 21.2920562}, {"type": "node", "id": 8731789986, "lat": 53.1763514, "lon": 21.292052}, {"type": "node", "id": 8731789987, "lat": 53.1763076, "lon": 21.2920296}, {"type": "node", "id": 8731789988, "lat": 53.1763076, "lon": 21.2920251}, {"type": "node", "id": 8731789989, "lat": 53.1762525, "lon": 21.2919978}, {"type": "node", "id": 8731789990, "lat": 53.1762366, "lon": 21.2919902}, {"type": "node", "id": 8731789991, "lat": 53.1762301, "lon": 21.2920226}, {"type": "node", "id": 8731789992, "lat": 53.1762138, "lon": 21.2920366}, {"type": "node", "id": 8731789993, "lat": 53.1762223, "lon": 21.2920696}, {"type": "node", "id": 8731789994, "lat": 53.1762367, "lon": 21.2920758}, {"type": "node", "id": 8731789995, "lat": 53.176227, "lon": 21.292132}, {"type": "node", "id": 8731789996, "lat": 53.1762492, "lon": 21.2921431}, {"type": "node", "id": 8731789997, "lat": 53.1762419, "lon": 21.292183}, {"type": "node", "id": 8731789998, "lat": 53.1762953, "lon": 21.2922098}, {"type": "node", "id": 9549636278, "lat": 53.152583, "lon": 21.8268968, "tags": {"addr:city": "Miastkowo", "addr:housenumber": "8", "addr:postcode": "18-413", "addr:street": "\u0141om\u017cy\u0144ska", "amenity": "pharmacy", "dispensing": "yes", "healthcare": "pharmacy", "name": "Punkt Apteczny", "ref:csioz": "1227879"}}, {"type": "node", "id": 9587414493, "lat": 53.0894354, "lon": 21.1242487, "tags": {"addr:city": "Dr\u0105\u017cd\u017cewo", "addr:housenumber": "58A", "addr:postcode": "06-214", "addr:street": "Dr\u0105\u017cd\u017cewo", "amenity": "pharmacy", "name": "Kurpiowska IV", "opening_hours": "Mo-Fr 08:00-16:00", "ref:csioz": "1212435"}}, {"type": "node", "id": 9587414494, "lat": 53.0306798, "lon": 21.1544005, "tags": {"addr:city": "Krasnosielc", "addr:housenumber": "1", "addr:postcode": "06-212", "addr:street": "Ko\u015bcielny", "amenity": "pharmacy", "name": "Apteka (E. Rybacka-Libchaber)", "ref:csioz": "1116252"}}, {"type": "node", "id": 9587414495, "lat": 53.0340841, "lon": 21.1538447, "tags": {"addr:city": "Krasnosielc", "addr:housenumber": "9", "addr:postcode": "06-212", "addr:street": "Mostowa", "amenity": "pharmacy", "name": "Makofarm", "ref:csioz": "1091604"}}, {"type": "node", "id": 9653727430, "lat": 53.2298722, "lon": 21.1447846, "tags": {"addr:housenumber": "41A", "addr:place": "\u017belazna Rz\u0105dowa", "addr:postcode": "06-323", "amenity": "pharmacy", "dispensing": "yes", "name": "Mgr Farm. Anna Andrzejewska", "ref:csioz": "1091759"}}, {"type": "node", "id": 11945906557, "lat": 53.0895737, "lon": 21.5538746, "tags": {"amenity": "pharmacy", "healthcare": "pharmacy", "name": "Apteka przy Fortach"}}, {"type": "node", "id": 12886010273, "lat": 53.233085, "lon": 21.4662631}, {"type": "node", "id": 12886010274, "lat": 53.233018, "lon": 21.4663034}, {"type": "node", "id": 12886010275, "lat": 53.2330128, "lon": 21.4662781}, {"type": "node", "id": 12886010276, "lat": 53.2330077, "lon": 21.4662812}, {"type": "node", "id": 12886010277, "lat": 53.2329951, "lon": 21.4662235}, {"type": "node", "id": 12886010278, "lat": 53.232985, "lon": 21.4662296}, {"type": "node", "id": 12886010279, "lat": 53.2329801, "lon": 21.4661776}, {"type": "node", "id": 12886010280, "lat": 53.2329407, "lon": 21.4658256}, {"type": "node", "id": 12886010281, "lat": 53.2329453, "lon": 21.4658466}, {"type": "node", "id": 12886010282, "lat": 53.2330068, "lon": 21.4657427}, {"type": "node", "id": 12886010283, "lat": 53.2329169, "lon": 21.4657983}, {"type": "node", "id": 12886010284, "lat": 53.2328885, "lon": 21.4656711}, {"type": "node", "id": 12886010285, "lat": 53.2330481, "lon": 21.4655726}, {"type": "node", "id": 12886010286, "lat": 53.2330981, "lon": 21.4657956}, {"type": "node", "id": 12886010287, "lat": 53.2330607, "lon": 21.465818}, {"type": "node", "id": 12886010288, "lat": 53.2330657, "lon": 21.4661306}, {"type": "node", "id": 12886010289, "lat": 53.2330879, "lon": 21.4662326}, {"type": "node", "id": 12886010290, "lat": 53.2330795, "lon": 21.4662377}, {"type": "node", "id": 12950337191, "lat": 53.0808131, "lon": 21.5734959, "tags": {"addr:city": "Ostro\u0142\u0119ka", "addr:housenumber": "5C", "addr:postcode": "07-410", "addr:street": "Genera\u0142a Augusta Emila Fieldorfa \"Nila\"", "amenity": "pharmacy", "level": "0", "name": "Apteka Alfa", "opening_hours": "Mo-Fr 07:30-20:00; Sa 08:00-14:00"}}, {"type": "node", "id": 12951590766, "lat": 53.0810962, "lon": 21.5716089, "tags": {"amenity": "pharmacy", "level": "0", "name": "Apteka DOZ", "opening_hours": "Mo-Fr 08:00-20:00; Sa 08:00-15:00"}}, {"type": "node", "id": 12951670289, "lat": 53.0800092, "lon": 21.5740727, "tags": {"amenity": "pharmacy", "level": "0", "name": "Apteka Rodzinna", "opening_hours": "Mo-Fr 08:00-19:00; Sa 08:00-15:00"}}, {"type": "node", "id": 12996162667, "lat": 53.0810364, "lon": 21.5704817, "tags": {"amenity": "pharmacy", "name": "Apteka Propolis"}}, {"type": "node", "id": 13103397045, "lat": 53.0832497, "lon": 21.5714624, "tags": {"amenity": "pharmacy", "level": "0", "name": "DOZ Apteka", "opening_hours": "Mo-Fr 08:00-19:00; Sa 08:00-15:00", "website": "https://www.doz.pl/"}}, {"type": "way", "id": 289352796, "nodes": [2929086413, 2929086411, 2929086405, 2929086406, 2929086407, 2929086408, 2929086410, 2929086409, 2929086413], "tags": {"addr:city": "Baranowo", "addr:housenumber": "3", "addr:postcode": "06-320", "addr:street": "Mostowa", "amenity": "pharmacy", "building": "detached", "dispensing": "yes", "wheelchair": "yes"}}, {"type": "way", "id": 661270945, "nodes": [12886010290, 12886010289, 12886010288, 6190853391, 12886010287, 12886010286, 12886010285, 12886010284, 12886010283, 12886010282, 6190853392, 12886010281, 12886010280, 6190853393, 6190853394, 6190853395, 12886010279, 6190853390, 12886010278, 12886010277, 12886010276, 12886010275, 12886010274, 12886010273, 12886010290], "tags": {"amenity": "pharmacy", "building": "yes", "building:levels": "2", "dispensing": "yes", "healthcare": "pharmacy", "source:building": "BDOT", "source:geometry": "EGiB"}}, {"type": "way", "id": 942967542, "nodes": [8731789998, 8731789997, 8731789996, 8731789995, 8731789994, 8731789993, 8731789992, 8731789991, 8731789990, 8731789989, 8731789988, 8731789987, 8731789986, 8731789985, 8731789984, 8731789983, 8731789982, 8731789981, 8731789998], "tags": {"addr:city": "Baranowo", "addr:housenumber": "18A", "addr:postcode": "06-320", "addr:street": "Niepodleg\u0142o\u015bci", "amenity": "pharmacy", "building": "yes", "building:levels": "3", "historic": "yes", "opening_hours": "Mo-Fr 08:00-18:00; Sa 08:00-14:00", "source": "www.geoportal.gov.pl"}}]}