{"version": 0.6, "generator": "Overpass API 0.7.62.8 e802775f", "osm3s": {"timestamp_osm_base": "2025-10-06T08:11:00Z", "copyright": "The data included in this document is from www.openstreetmap.org. The data is made available under ODbL."}, "elements": [{"type": "node", "id": 2560149834, "lat": 51.7234566, "lon": 18.1583431}, {"type": "node", "id": 2560149850, "lat": 51.7234852, "lon": 18.1582494}, {"type": "node", "id": 2560149883, "lat": 51.7235265, "lon": 18.1583987}, {"type": "node", "id": 2560149908, "lat": 51.7235551, "lon": 18.1583051}, {"type": "node", "id": 3804092430, "lat": 51.5065677, "lon": 18.118188, "tags": {"amenity": "pharmacy"}}, {"type": "node", "id": 8929300633, "lat": 51.341934, "lon": 18.2529219, "tags": {"amenity": "pharmacy", "dispensing": "yes", "healthcare": "pharmacy", "name": "Fitfarm", "opening_hours": "Mo-Fr 09:00-17:00; Sa 09:00-13:00", "ref:csioz": "1228228"}}, {"type": "node", "id": 9558975511, "lat": 51.644875, "lon": 18.1717093, "tags": {"addr:city": "Godziesze Ma\u0142e", "addr:housenumber": "10", "addr:postcode": "62-872", "addr:street": "Kaliska", "amenity": "pharmacy", "name": "Melisa", "ref:csioz": "1052222"}}, {"type": "node", "id": 9558982996, "lat": 51.7017215, "lon": 18.1598941, "tags": {"addr:housenumber": "62", "addr:place": "Wolica", "addr:postcode": "62-872", "amenity": "pharmacy", "name": "Punkt Apteczny Wolica", "ref:csioz": "1228145"}}, {"type": "node", "id": 9558988262, "lat": 51.6985693, "lon": 18.1473923, "tags": {"addr:housenumber": "113", "addr:place": "Wolica", "addr:postcode": "62-872", "amenity": "pharmacy", "ref:csioz": "1191558"}}, {"type": "node", "id": 9559140090, "lat": 51.514595, "lon": 18.2267636, "tags": {"addr:city": "Kraszewice", "addr:housenumber": "42", "addr:postcode": "63-522", "addr:street": "Wielu\u0144ska", "amenity": "pharmacy", "name": "Optima", "ref:csioz": "1205586"}}, {"type": "node", "id": 9559149981, "lat": 51.5153494, "lon": 18.2255942, "tags": {"addr:city": "Kraszewice", "addr:housenumber": "24A", "addr:postcode": "63-522", "addr:street": "Wielu\u0144ska", "amenity": "pharmacy", "name": "Klasztorna 2", "ref:csioz": "1215928"}}, {"type": "node", "id": 9559149982, "lat": 51.5071573, "lon": 18.1184198, "tags": {"addr:city": "Grab\u00f3w nad Prosn\u0105", "addr:housenumber": "4", "addr:postcode": "63-520", "addr:street": "Kaliska", "amenity": "pharmacy", "name": "Retiro", "ref:csioz": "1051786"}}, {"type": "node", "id": 9559151904, "lat": 51.5075505, "lon": 18.118161, "tags": {"addr:city": "Grab\u00f3w nad Prosn\u0105", "addr:housenumber": "19", "addr:postcode": "63-520", "addr:street": "Kaliska", "amenity": "pharmacy", "name": "Pod Pelikanem", "ref:csioz": "1052956"}}, {"type": "node", "id": 9559168573, "lat": 51.508295, "lon": 18.1195852, "tags": {"addr:city": "Grab\u00f3w nad Prosn\u0105", "addr:housenumber": "2A", "addr:postcode": "63-520", "addr:street": "Wodna", "amenity": "pharmacy", "name": "Optima", "ref:csioz": "1197879"}}, {"type": "node", "id": 9559170591, "lat": 51.5068493, "lon": 18.1172168, "tags": {"addr:city": "GRAB\u00d3W NAD PROSN\u0104", "addr:housenumber": "5", "addr:postcode": "63-520", "addr:street": "KALISKA", "amenity": "pharmacy", "name": "Klasztorna", "ref:csioz": "1052240"}}, {"type": "node", "id": 10281889122, "lat": 51.3756014, "lon": 18.2043557, "tags": {"amenity": "pharmacy", "dispensing": "yes", "healthcare": "pharmacy", "name": "Punkt Apteczny", "ref:csioz": "1025663"}}, {"type": "way", "id": 249410694, "nodes": [2560149850, 2560149908, 2560149883, 2560149834, 2560149850], "tags": {"addr:city": "Sza\u0142e", "addr:housenumber": "101", "addr:postcode": "62-860", "addr:street": "Kaliska", "amenity": "pharmacy", "building": "yes", "name": "Punkt apteczny"}}]}