{"version": 0.6, "generator": "Overpass API 0.7.62.8 e802775f", "osm3s": {"timestamp_osm_base": "2025-10-06T08:53:43Z", "copyright": "The data included in this document is from www.openstreetmap.org. The data is made available under ODbL."}, "elements": [{"type": "node", "id": 6955977588, "lat": 37.6722941, "lon": 28.3112249, "tags": {"addr:city": "Ayd\u0131n", "addr:district": "Bozdo\u011fan", "addr:housenumber": "6", "addr:neighbourhood": "\u00c7ar\u015f\u0131", "addr:postcode": "09760", "addr:street": "Yaz\u0131kent Caddesi", "amenity": "pharmacy", "dispensing": "yes", "healthcare": "pharmacy", "name": "Ege Eczanesi"}}, {"type": "node", "id": 7907208886, "lat": 37.672243, "lon": 28.3108751, "tags": {"addr:city": "Ayd\u0131n", "addr:district": "Bozdo\u011fan", "addr:housenumber": "2/J", "addr:neighbourhood": "\u00c7ar\u015f\u0131", "addr:postcode": "09760", "addr:street": "Yaz\u0131kent Caddesi", "amenity": "pharmacy", "dispensing": "yes", "healthcare": "pharmacy", "name": "Nilg\u00fcn Eczanesi"}}, {"type": "node", "id": 7907208887, "lat": 37.6722487, "lon": 28.3103807, "tags": {"addr:city": "Ayd\u0131n", "addr:district": "Bozdo\u011fan", "addr:housenumber": "3", "addr:neighbourhood": "\u00c7ar\u015f\u0131", "addr:postcode": "09760", "addr:street": "Yaz\u0131kent Caddesi", "amenity": "pharmacy", "dispensing": "yes", "healthcare": "pharmacy", "name": "Halk Eczanesi"}}, {"type": "node", "id": 7907208888, "lat": 37.672263, "lon": 28.3101958, "tags": {"addr:city": "Ayd\u0131n", "addr:district": "Bozdo\u011fan", "addr:housenumber": "11/A", "addr:neighbourhood": "\u00c7ar\u015f\u0131", "addr:postcode": "09760", "addr:street": "Yaz\u0131kent Caddesi", "amenity": "pharmacy", "dispensing": "yes", "healthcare": "pharmacy", "name": "Aysan Eczanesi"}}, {"type": "node", "id": 7907208893, "lat": 37.6725032, "lon": 28.3108626, "tags": {"addr:city": "Ayd\u0131n", "addr:district": "Bozdo\u011fan", "addr:housenumber": "20", "addr:neighbourhood": "\u00c7ar\u015f\u0131", "addr:postcode": "09760", "addr:street": "5. Sokak", "amenity": "pharmacy", "dispensing": "yes", "healthcare": "pharmacy", "name": "G\u00fczel Bozdo\u011fan Eczanesi"}}, {"type": "node", "id": 7907208894, "lat": 37.672532, "lon": 28.3101768, "tags": {"addr:city": "Ayd\u0131n", "addr:district": "Bozdo\u011fan", "addr:housenumber": "7", "addr:neighbourhood": "\u00c7ar\u015f\u0131", "addr:postcode": "09760", "addr:street": "Mu\u011fla Caddesi", "amenity": "pharmacy", "dispensing": "yes", "healthcare": "pharmacy", "name": "O\u011fuz Eczanesi"}}, {"type": "node", "id": 7907208896, "lat": 37.6712456, "lon": 28.3102066, "tags": {"addr:city": "Ayd\u0131n", "addr:district": "Bozdo\u011fan", "addr:housenumber": "33/B", "addr:neighbourhood": "\u00c7ar\u015f\u0131", "addr:postcode": "09760", "addr:street": "Mu\u011fla Caddesi", "amenity": "pharmacy", "dispensing": "yes", "healthcare": "pharmacy", "name": "\u015eebnem Eczanesi"}}, {"type": "node", "id": 7907208897, "lat": 37.6172047, "lon": 28.4060896, "tags": {"amenity": "pharmacy", "dispensing": "yes", "healthcare": "pharmacy", "name": "G\u00fcn Eczanesi", "phone": "+90 256 313 1676"}}, {"type": "node", "id": 11057977205, "lat": 37.911725, "lon": 28.3454083, "tags": {"amenity": "pharmacy", "name": "Yurt Eczanesi", "phone": "+90 256 315 7060"}}, {"type": "node", "id": 11057977206, "lat": 37.9086679, "lon": 28.3175845, "tags": {"amenity": "pharmacy", "name": "Ya\u015fam Eczanesi", "phone": "+90 256 316 0033"}}, {"type": "node", "id": 11057977207, "lat": 37.9053343, "lon": 28.3267758, "tags": {"amenity": "pharmacy", "name": "S\u00fcmer Eczanesi", "phone": "+90 256 313 4759"}}, {"type": "node", "id": 11057977208, "lat": 37.9192504, "lon": 28.3437864, "tags": {"amenity": "pharmacy", "name": "Meltem Eczanesi", "phone": "+90 256 312 9766"}}, {"type": "node", "id": 11057977209, "lat": 37.9192289, "lon": 28.3429686, "tags": {"amenity": "pharmacy", "name": "Derya Eczanesi", "phone": "+90 256 312 8414"}}, {"type": "node", "id": 11057977210, "lat": 37.9269233, "lon": 28.3243977, "tags": {"amenity": "pharmacy", "name": "Nazilli Eczanesi", "phone": "+90 256 315 1735"}}, {"type": "node", "id": 11057977305, "lat": 37.9023144, "lon": 28.322441, "tags": {"amenity": "pharmacy", "name": "Derman Eczanesi", "phone": "+90 256 313 4684"}}, {"type": "node", "id": 11057977306, "lat": 37.905806, "lon": 28.3270218, "tags": {"amenity": "pharmacy", "name": "Sa\u011fl\u0131k Eczanesi", "phone": "+90 256 313 1092"}}, {"type": "node", "id": 11057977405, "lat": 37.9050105, "lon": 28.3196655, "tags": {"amenity": "pharmacy", "name": "\u00dcnl\u00fc Eczanesi", "phone": "+90 256 313 7878"}}, {"type": "node", "id": 11057977406, "lat": 37.9076422, "lon": 28.3181632, "tags": {"amenity": "pharmacy", "name": "Utku Eczanesi", "phone": "+90 256 314 1586"}}, {"type": "node", "id": 11057977407, "lat": 37.9051565, "lon": 28.3267598, "tags": {"amenity": "pharmacy", "name": "Elit Eczanesi", "phone": "+90 256 313 7755"}}, {"type": "node", "id": 11057977408, "lat": 37.9109625, "lon": 28.30929, "tags": {"amenity": "pharmacy", "name": "Bayrakdar Eczanesi", "phone": "+90 256 315 9290"}}, {"type": "node", "id": 11057977409, "lat": 37.9145633, "lon": 28.3338649, "tags": {"amenity": "pharmacy", "name": "Feray Eczanesi", "phone": "+90 256 315 7979"}}, {"type": "node", "id": 11057977410, "lat": 37.9192669, "lon": 28.3435772, "tags": {"amenity": "pharmacy", "name": "Ceyhan Eczanesi", "phone": "+90 256 313 3038"}}, {"type": "node", "id": 11057977411, "lat": 37.9213945, "lon": 28.31995, "tags": {"amenity": "pharmacy", "name": "Menderes Eczanesi", "phone": "+90 256 318 1180"}}, {"type": "node", "id": 11057977412, "lat": 37.9215485, "lon": 28.3194771, "tags": {"amenity": "pharmacy", "name": "\u00c7ank\u0131r Eczanesi", "phone": "+90 256 318 2700"}}, {"type": "node", "id": 11057977413, "lat": 37.9267533, "lon": 28.32417, "tags": {"amenity": "pharmacy", "name": "Elifnur Eczanesi", "phone": "+90 256 318 1800"}}, {"type": "node", "id": 11057977505, "lat": 37.9055335, "lon": 28.3267733, "tags": {"amenity": "pharmacy", "name": "\u015eirinevler Eczanesi", "phone": "+90 256 441 3843"}}, {"type": "node", "id": 11057977506, "lat": 37.9098577, "lon": 28.309069, "tags": {"amenity": "pharmacy", "name": "Melisa Eczanesi", "phone": "+90 256 316 0500"}}, {"type": "node", "id": 11057977805, "lat": 37.9105927, "lon": 28.3241495, "tags": {"amenity": "pharmacy", "name": "G\u00fcven Eczanesi", "phone": "+90 256 315 7067"}}, {"type": "node", "id": 11057977905, "lat": 37.9103266, "lon": 28.3245394, "tags": {"amenity": "pharmacy", "name": "Can Eczanesi", "phone": "+90 256 312 8822"}}, {"type": "node", "id": 11057977906, "lat": 37.9105949, "lon": 28.327331, "tags": {"amenity": "pharmacy", "name": "Nefes Eczanesi", "phone": "+90 256 244 0606"}}, {"type": "node", "id": 11057977907, "lat": 37.9192416, "lon": 28.3433422, "tags": {"amenity": "pharmacy", "name": "Efe Eczanesi", "phone": "+90 256 313 1008"}}, {"type": "node", "id": 11057977908, "lat": 37.9259465, "lon": 28.3246879, "tags": {"amenity": "pharmacy", "name": "Asil Eczanesi", "phone": "+90 256 313 3123"}}, {"type": "node", "id": 11061260608, "lat": 37.9175767, "lon": 28.3207161, "tags": {"amenity": "pharmacy", "name": "Aydo\u011fan Eczanesi", "phone": "+90 256 313 1768"}}, {"type": "node", "id": 11061260609, "lat": 37.9172675, "lon": 28.3197914, "tags": {"amenity": "pharmacy", "name": "\u015eeniz Eczanesi", "phone": "+90 256 315 1293"}}, {"type": "node", "id": 11061260610, "lat": 37.9146897, "lon": 28.3275508, "tags": {"amenity": "pharmacy", "name": "An\u0131t Eczanesi", "phone": "+90 256 313 4760"}}, {"type": "node", "id": 11061260611, "lat": 37.914712, "lon": 28.3253309, "tags": {"amenity": "pharmacy", "name": "Filiz Eczanesi", "phone": "+90 256 313 5474"}}, {"type": "node", "id": 11061260612, "lat": 37.9180187, "lon": 28.327932, "tags": {"amenity": "pharmacy", "name": "Kaynar Eczanesi", "phone": "+90 256 313 1400"}}, {"type": "node", "id": 11061260613, "lat": 37.9174067, "lon": 28.3256182, "tags": {"amenity": "pharmacy", "name": "\u015eifa Eczanesi", "phone": "+90 256 313 1292"}}, {"type": "node", "id": 11061269606, "lat": 37.9181055, "lon": 28.32851, "tags": {"amenity": "pharmacy", "name": "Arpaz Eczanesi", "phone": "+90 256 312 5654"}}, {"type": "node", "id": 11061269607, "lat": 37.9179474, "lon": 28.3285649, "tags": {"amenity": "pharmacy", "name": "\u00c7etinta\u015f Eczanesi", "phone": "+90 256 313 3324"}}, {"type": "node", "id": 11061269608, "lat": 37.9177581, "lon": 28.3276334, "tags": {"amenity": "pharmacy", "dispensing": "yes", "healthcare": "pharmacy", "name": "\u0130rem Eczanesi", "operator": "\u0130rem G\u00fcrsoy", "phone": "+90 256 313 5505"}}, {"type": "node", "id": 11061269609, "lat": 37.9175198, "lon": 28.3263562, "tags": {"amenity": "pharmacy", "name": "Cumhuriyet Eczanesi", "phone": "+90 256 313 1529"}}, {"type": "node", "id": 11061269610, "lat": 37.917499, "lon": 28.326121, "tags": {"amenity": "pharmacy", "name": "\u00d6zge Eczanesi", "phone": "+90 256 313 1300"}}, {"type": "node", "id": 11061269611, "lat": 37.917465, "lon": 28.3246876, "tags": {"amenity": "pharmacy", "name": "Bengi Eczanesi", "phone": "+90 256 312 0506"}}, {"type": "node", "id": 11061269612, "lat": 37.9176303, "lon": 28.3248995, "tags": {"amenity": "pharmacy", "name": "Ba\u015fkan Eczanesi", "phone": "+90 256 313 3937"}}, {"type": "node", "id": 11061275805, "lat": 37.9175839, "lon": 28.3210015, "tags": {"amenity": "pharmacy", "name": "Kardelen Eczanesi", "phone": "+90 256 315 6836"}}, {"type": "node", "id": 11061275806, "lat": 37.917355, "lon": 28.3202623, "tags": {"amenity": "pharmacy", "name": "Aysan Eczanesi", "phone": "+90 256 312 2777"}}, {"type": "node", "id": 11061275807, "lat": 37.9173241, "lon": 28.3199938, "tags": {"amenity": "pharmacy", "name": "Do\u011fa Eczanesi", "phone": "+90 256 315 5526"}}, {"type": "node", "id": 11061275808, "lat": 37.917501, "lon": 28.3197569, "tags": {"amenity": "pharmacy", "name": "\u00d6yk\u00fccan Eczanesi", "phone": "+90 256 312 8511"}}, {"type": "node", "id": 11061275809, "lat": 37.9174797, "lon": 28.319582, "tags": {"amenity": "pharmacy", "name": "Erdem Eczanesi", "phone": "+90 256 313 1386"}}, {"type": "node", "id": 11061275810, "lat": 37.9180116, "lon": 28.3288461, "tags": {"amenity": "pharmacy", "name": "Toprak Eczanesi", "phone": "+90 256 315 6712"}}, {"type": "node", "id": 11061275811, "lat": 37.9179028, "lon": 28.328197, "tags": {"amenity": "pharmacy", "name": "Dikici Eczanesi", "phone": "+90 256 313 4763"}}, {"type": "node", "id": 11061275905, "lat": 37.9172982, "lon": 28.3196405, "tags": {"amenity": "pharmacy", "name": "\u00dclgen Eczanesi", "phone": "+90 256 313 4619"}}, {"type": "node", "id": 11061275906, "lat": 37.9171459, "lon": 28.3188576, "tags": {"amenity": "pharmacy", "name": "Ba\u015fak Eczanesi", "phone": "+90 256 312 3293"}}, {"type": "node", "id": 11061276005, "lat": 37.9174709, "lon": 28.3194179, "tags": {"amenity": "pharmacy", "name": "Cihan Eczanesi", "phone": "+90 256 313 2529"}}, {"type": "node", "id": 11061276006, "lat": 37.9172017, "lon": 28.3191007, "tags": {"amenity": "pharmacy", "name": "Bu\u011fra Eczanesi", "phone": "+90 256 313 3016"}}, {"type": "node", "id": 11061276007, "lat": 37.9152741, "lon": 28.3251026, "tags": {"amenity": "pharmacy", "healthcare": "pharmacy", "name": "Kulako\u011flu Eczanesi", "phone": "+90 256 313 2234"}}, {"type": "node", "id": 11061276008, "lat": 37.9161806, "lon": 28.328174, "tags": {"amenity": "pharmacy", "name": "Emin Eczanesi", "phone": "+90 256 315 9922"}}, {"type": "node", "id": 11061276009, "lat": 37.9174557, "lon": 28.3276297, "tags": {"amenity": "pharmacy", "name": "Hayat Eczanesi", "phone": "+90 256 313 1848"}}, {"type": "node", "id": 11061276010, "lat": 37.9169967, "lon": 28.3261272, "tags": {"amenity": "pharmacy", "name": "Bar\u0131\u015f Eczanesi", "phone": "+90 256 313 2532"}}, {"type": "node", "id": 11061276605, "lat": 37.9178345, "lon": 28.3278665, "tags": {"amenity": "pharmacy", "name": "Pamukkale T\u00fcver Eczanesi", "phone": "+90 256 313 9890"}}, {"type": "node", "id": 11061276606, "lat": 37.9176722, "lon": 28.327108, "tags": {"amenity": "pharmacy", "name": "Mustafa Geben\u00e7 Eczanesi", "phone": "+90 256 313 4764"}}, {"type": "node", "id": 11061330909, "lat": 37.9187898, "lon": 28.3378292, "tags": {"amenity": "pharmacy", "name": "Yal\u00e7\u0131n Eczanesi", "phone": "+90 256 315 9738"}}, {"type": "node", "id": 11061330910, "lat": 37.9188876, "lon": 28.3365581, "tags": {"amenity": "pharmacy", "name": "Esra Eczanesi", "phone": "+90 256 312 0053"}}, {"type": "node", "id": 11061330911, "lat": 37.9188931, "lon": 28.3363105, "tags": {"amenity": "pharmacy", "name": "\u00d6zlem Eczanesi", "phone": "+90 256 313 3325"}}, {"type": "node", "id": 11061330912, "lat": 37.9209437, "lon": 28.3373526, "tags": {"amenity": "pharmacy", "healthcare": "pharmacy", "name": "Algan Eczanesi", "phone": "+90 256 313 5882"}}, {"type": "node", "id": 11061330913, "lat": 37.9202418, "lon": 28.3369037, "tags": {"amenity": "pharmacy", "healthcare": "pharmacy", "name": "G\u00fcrsoy Eczanesi", "phone": "+90 256 313 3757"}}, {"type": "node", "id": 11061330914, "lat": 37.9206204, "lon": 28.3367755, "tags": {"amenity": "pharmacy", "healthcare": "pharmacy", "name": "Nur Eczanesi", "phone": "+90 256 313 9394"}}, {"type": "node", "id": 11061330915, "lat": 37.9206993, "lon": 28.3367674, "tags": {"amenity": "pharmacy", "healthcare": "pharmacy", "name": "\u0130lke Eczanesi", "phone": "+90 256 315 4787"}}, {"type": "node", "id": 11061331109, "lat": 37.9205718, "lon": 28.3372789, "tags": {"amenity": "pharmacy", "healthcare": "pharmacy", "name": "Koray Eczanesi", "phone": "+90 256 315 4800"}}, {"type": "node", "id": 11061331110, "lat": 37.9200157, "lon": 28.3368988, "tags": {"amenity": "pharmacy", "healthcare": "pharmacy", "name": "Zeynep Eczanesi", "phone": "+90 256 312 2540"}}, {"type": "node", "id": 11061331111, "lat": 37.9201116, "lon": 28.3368878, "tags": {"amenity": "pharmacy", "healthcare": "pharmacy", "name": "Murat Eczanesi", "phone": "+90 256 313 2325"}}, {"type": "node", "id": 11061331112, "lat": 37.9204506, "lon": 28.3368378, "tags": {"amenity": "pharmacy", "healthcare": "pharmacy", "name": "Senem Eczanesi", "phone": "+90 256 315 3711"}}, {"type": "node", "id": 11061331113, "lat": 37.9205434, "lon": 28.3368136, "tags": {"amenity": "pharmacy", "healthcare": "pharmacy", "name": "Erg\u00fcl Eczanesi", "phone": "+90 256 315 4896"}}, {"type": "node", "id": 11061341805, "lat": 37.9213075, "lon": 28.3375249, "tags": {"amenity": "pharmacy", "healthcare": "pharmacy", "name": "\u00d6z\u0131rmak Eczanesi", "phone": "+90 256 313 2535"}}, {"type": "node", "id": 11061341806, "lat": 37.9203371, "lon": 28.3368812, "tags": {"amenity": "pharmacy", "healthcare": "pharmacy", "name": "Nevzat Akar Eczanesi", "phone": "+90 256 315 7096"}}, {"type": "node", "id": 11061341807, "lat": 37.9222333, "lon": 28.3381555, "tags": {"amenity": "pharmacy", "healthcare": "pharmacy", "name": "Onur Eczanesi", "phone": "+90 256 313 7632"}}, {"type": "node", "id": 11061341905, "lat": 37.9201118, "lon": 28.3368906, "tags": {"amenity": "pharmacy", "name": "H\u00fcrriyet Eczanesi", "phone": "+90 256 313 2531"}}, {"type": "node", "id": 11061342005, "lat": 37.9207358, "lon": 28.3367087, "tags": {"amenity": "pharmacy", "healthcare": "pharmacy", "name": "Umut Eczanesi", "phone": "+90 256 315 2921"}}, {"type": "node", "id": 11493706774, "lat": 37.888965, "lon": 28.1543458, "tags": {"amenity": "pharmacy", "healthcare": "pharmacy", "name": "Eker Eczanesi", "phone": "+90 256 351 3863"}}, {"type": "node", "id": 11493706775, "lat": 37.8224099, "lon": 28.1927473, "tags": {"amenity": "pharmacy", "name": "Yenipazar Eczanesi", "phone": "+90 256 361 3053"}}, {"type": "node", "id": 11493706776, "lat": 37.8870667, "lon": 28.2141502, "tags": {"amenity": "pharmacy", "name": "\u00d6zden Eczanesi", "phone": "+90 256 356 2780"}}, {"type": "node", "id": 11493706777, "lat": 37.8881984, "lon": 28.2146893, "tags": {"addr:housenumber": "4", "addr:street": "Atat\u00fcrk Caddesi", "amenity": "pharmacy", "name": "At\u00e7a Eczanesi", "phone": "+90 256 356 4545"}}, {"type": "node", "id": 11493728673, "lat": 37.8877802, "lon": 28.1546481, "tags": {"amenity": "pharmacy", "healthcare": "pharmacy", "name": "Maden Eczanesi", "phone": "+90 256 351 3308"}}, {"type": "node", "id": 11493728674, "lat": 37.8239592, "lon": 28.1950944, "tags": {"amenity": "pharmacy", "name": "Ba\u015fak Eczanesi", "phone": "+90 256 361 3292"}}, {"type": "node", "id": 11493733474, "lat": 37.8241824, "lon": 28.2054227, "tags": {"amenity": "pharmacy", "name": "\u00d6zg\u00fcn Eczanesi", "phone": "+90 256 361 4323"}}, {"type": "node", "id": 11493733475, "lat": 37.8859126, "lon": 28.214665, "tags": {"amenity": "pharmacy", "name": "\u015eifa Eczanesi", "phone": "+90 256 356 2656"}}, {"type": "node", "id": 11493734069, "lat": 37.9059544, "lon": 28.2618892, "tags": {"amenity": "pharmacy", "name": "Canan Eczanesi", "phone": "+90 256 347 6868"}}, {"type": "node", "id": 11595809175, "lat": 37.6923679, "lon": 28.3878451, "tags": {"amenity": "pharmacy", "name": "Mert Eczanesi", "phone": "+90 256 422 4047"}}, {"type": "node", "id": 11611360570, "lat": 37.9290053, "lon": 28.3694985, "tags": {"amenity": "pharmacy", "name": "Arslanl\u0131 Eczanesi", "phone": "+90 553 485 4961"}}, {"type": "node", "id": 11611365869, "lat": 37.8282599, "lon": 28.5718909, "tags": {"amenity": "pharmacy", "name": "Yenice Eczanesi", "phone": "+90 256 445 6590"}}, {"type": "node", "id": 11611365870, "lat": 37.979609, "lon": 28.4415713, "tags": {"amenity": "pharmacy", "name": "Demirciler Eczanesi", "phone": "+90 256 338 1111"}}, {"type": "node", "id": 11611365871, "lat": 37.8677118, "lon": 28.4339905, "tags": {"amenity": "pharmacy", "name": "Yi\u011fit Eczanesi", "phone": "+90 256 337 2309"}}, {"type": "node", "id": 11611365872, "lat": 37.9137927, "lon": 28.4621831, "tags": {"amenity": "pharmacy", "name": "Pamuk Eczanesi", "phone": "+90 256 371 4101"}}, {"type": "node", "id": 11611365873, "lat": 37.9137841, "lon": 28.4617494, "tags": {"amenity": "pharmacy", "name": "\u00dcmit Eczanesi", "phone": "+90 256 371 1000"}}, {"type": "node", "id": 11611365874, "lat": 37.9137475, "lon": 28.4614304, "tags": {"amenity": "pharmacy", "name": "Y\u0131lmaz Eczanesi", "phone": "+90 256 371 4504"}}, {"type": "node", "id": 11611365969, "lat": 37.863835, "lon": 28.5412295, "tags": {"amenity": "pharmacy", "name": "G\u00f6k\u00e7en Eczanesi", "phone": "+90 256 373 5225"}}, {"type": "node", "id": 11611365970, "lat": 37.9186531, "lon": 28.5889112, "tags": {"amenity": "pharmacy", "name": "Akay Eczanesi", "phone": "+90 256 387 6105"}}, {"type": "node", "id": 11611365971, "lat": 37.9225483, "lon": 28.5414279, "tags": {"amenity": "pharmacy", "name": "G\u00fcrses Eczanesi", "phone": "+90 256 379 2977"}}, {"type": "node", "id": 11611365972, "lat": 37.92015, "lon": 28.5344897, "tags": {"amenity": "pharmacy", "name": "Pamuk\u00f6ren Eczanesi", "phone": "+90 256 379 2145"}}, {"type": "node", "id": 11611365973, "lat": 37.9257861, "lon": 28.4267587, "tags": {"amenity": "pharmacy", "name": "Limon Eczanesi", "phone": "+90 256 312 4404"}}, {"type": "node", "id": 11611365974, "lat": 37.9134296, "lon": 28.4645488, "tags": {"amenity": "pharmacy", "name": "Y\u0131ld\u0131r\u0131m Eczanesi", "phone": "+90 256 371 3311"}}, {"type": "node", "id": 11611365975, "lat": 37.9140326, "lon": 28.4635288, "tags": {"amenity": "pharmacy", "name": "Emel Eczanesi", "phone": "+90 256 371 3060"}}, {"type": "node", "id": 11611365976, "lat": 37.9140696, "lon": 28.4631719, "tags": {"amenity": "pharmacy", "name": "Tavus Eczanesi", "phone": "+90 256 371 3329"}}, {"type": "node", "id": 11611366069, "lat": 38.0397003, "lon": 28.3858824, "tags": {"amenity": "pharmacy", "name": "Kerem Eczanesi", "phone": "+90 256 349 4111"}}, {"type": "node", "id": 11611536569, "lat": 37.7291919, "lon": 28.6070188, "tags": {"amenity": "pharmacy", "name": "Elele Eczanesi", "phone": "+90 256 441 2205"}}, {"type": "node", "id": 11611536570, "lat": 37.7302839, "lon": 28.6063059, "tags": {"amenity": "pharmacy", "name": "Ya\u011fc\u0131 Eczanesi", "phone": "+90 256 441 1188"}}, {"type": "node", "id": 11611536669, "lat": 37.7302875, "lon": 28.6066404, "tags": {"amenity": "pharmacy", "name": "P\u0131nar Eczanesi", "phone": "+90 256 441 2235"}}]}