{"version": 0.6, "generator": "Overpass API 0.7.62.8 e802775f", "osm3s": {"timestamp_osm_base": "2025-10-06T08:12:00Z", "copyright": "The data included in this document is from www.openstreetmap.org. The data is made available under ODbL."}, "elements": [{"type": "node", "id": 345009446, "lat": 46.5849323, "lon": 20.4763793, "tags": {"amenity": "pharmacy", "healthcare": "pharmacy", "name": "Borosty\u00e1n Patika"}}, {"type": "node", "id": 666206648, "lat": 46.5822471, "lon": 20.3593659, "tags": {"amenity": "pharmacy", "brand": "Pingvin Patika", "brand:wikidata": "Q105626461", "healthcare": "pharmacy", "name": "Pingvin Patika", "name:en": "Penguin Pharmacy", "name:hu": "Pingvin Patika"}}, {"type": "node", "id": 2706924957, "lat": 46.5426505, "lon": 20.8854342, "tags": {"amenity": "pharmacy", "dispensing": "yes", "drive_through": "no", "name": "Korona Gy\u00f3gyszert\u00e1r", "opening_hours": "Mo-Fr 08:00-12:30,15:00-17:00", "payment:cash": "yes", "payment:credit_cards": "yes", "source": "local knowledge", "wheelchair": "limited"}}, {"type": "node", "id": 4397939500, "lat": 46.827469, "lon": 20.64829, "tags": {"addr:city": "Csabacs\u0171d", "addr:housenumber": "46", "addr:postcode": "5551", "addr:street": "Szabads\u00e1g utca", "amenity": "pharmacy", "name": "Korall gy\u00f3gyszert\u00e1r"}}, {"type": "node", "id": 4473458987, "lat": 46.7605622, "lon": 20.7941702, "tags": {"amenity": "pharmacy"}}, {"type": "node", "id": 5602714236, "lat": 46.6709976, "lon": 20.6707977}, {"type": "node", "id": 5602714237, "lat": 46.6710117, "lon": 20.670668}, {"type": "node", "id": 5602714238, "lat": 46.6711785, "lon": 20.6707067}, {"type": "node", "id": 5602714239, "lat": 46.6711644, "lon": 20.6708363}, {"type": "node", "id": 5827469704, "lat": 46.5596561, "lon": 20.662756}, {"type": "node", "id": 5827469705, "lat": 46.5596767, "lon": 20.6628976}, {"type": "node", "id": 5827469706, "lat": 46.5595222, "lon": 20.6630073}, {"type": "node", "id": 5827469707, "lat": 46.559493, "lon": 20.6628144}, {"type": "node", "id": 7390688060, "lat": 46.5771372, "lon": 20.6122068, "tags": {"amenity": "pharmacy", "healthcare": "pharmacy", "name": "Aranyvessz\u0151 patika"}}, {"type": "node", "id": 7472369887, "lat": 46.5589006, "lon": 20.6699615, "tags": {"amenity": "pharmacy", "brand": "Pingvin Patika", "brand:wikidata": "Q105626461", "healthcare": "pharmacy", "name": "Pingvin Patika", "name:en": "Penguin Pharmacy", "name:hu": "Pingvin Patika"}}, {"type": "node", "id": 7543832927, "lat": 46.7947178, "lon": 20.7170201, "tags": {"amenity": "pharmacy", "dispensing": "yes", "healthcare": "pharmacy", "name": "Kardosi Fi\u00f3kgy\u00f3gyszert\u00e1r"}}, {"type": "node", "id": 7566592786, "lat": 46.5582812, "lon": 20.6691957, "tags": {"amenity": "pharmacy", "name": "Csillag patika", "name:en": "Star pharmacy"}}, {"type": "way", "id": 586388008, "nodes": [5602714236, 5602714237, 5602714238, 5602714239, 5602714236], "tags": {"amenity": "pharmacy", "building": "yes", "dispensing": "yes", "healthcare": "pharmacy"}}, {"type": "way", "id": 616340740, "nodes": [5827469704, 5827469705, 5827469706, 5827469707, 5827469704], "tags": {"amenity": "pharmacy", "building": "yes", "dispensing": "yes", "healthcare": "pharmacy", "name": "Csiki Patika"}}]}