{"version": 0.6, "generator": "Overpass API 0.7.62.8 e802775f", "osm3s": {"timestamp_osm_base": "2025-10-06T08:41:25Z", "copyright": "The data included in this document is from www.openstreetmap.org. The data is made available under ODbL."}, "elements": [{"type": "node", "id": 3566599932, "lat": 44.1536606, "lon": 25.7606677, "tags": {"addr:city": "Naipu", "amenity": "pharmacy", "name": "Farmacie"}}, {"type": "node", "id": 6134504686, "lat": 43.9677667, "lon": 25.3336584, "tags": {"amenity": "pharmacy", "name": "Punkt alexandria 5"}}, {"type": "node", "id": 6136726796, "lat": 44.1023451, "lon": 25.5986711, "tags": {"addr:city": "Dr\u0103g\u0103ne\u0219ti-Vla\u0219ca", "addr:street": "\u0218oseaua Videle", "amenity": "pharmacy", "healthcare": "pharmacy", "name": "Farmacia Felicia"}}, {"type": "node", "id": 8866546872, "lat": 43.972532, "lon": 25.3236723, "tags": {"amenity": "pharmacy", "brand": "Farmacia Dona", "brand:wikidata": "Q12726919", "dispensing": "yes", "healthcare": "pharmacy", "name": "Farmacia Dona"}}, {"type": "node", "id": 9790270232, "lat": 43.9666324, "lon": 25.3328443, "tags": {"addr:city": "Alexandria", "addr:street": "Strada Dun\u0103rii", "amenity": "pharmacy", "dispensing": "yes", "healthcare": "pharmacy", "name": "Pharmalex"}}, {"type": "node", "id": 11287821770, "lat": 43.8503917, "lon": 25.4365626, "tags": {"amenity": "pharmacy", "name": "Vitamios"}}, {"type": "node", "id": 11379383569, "lat": 43.9163271, "lon": 25.463292, "tags": {"amenity": "pharmacy", "name": "Bimbofarm"}}, {"type": "node", "id": 13096961596, "lat": 43.845571, "lon": 25.4512797, "tags": {"addr:city": "Cervenia", "addr:housenumber": "1", "addr:street": "Strada Vedea", "amenity": "pharmacy", "healthcare": "pharmacy", "name": "Farmacia Rainnes"}}]}