{"version": 0.6, "generator": "Overpass API 0.7.62.8 e802775f", "osm3s": {"timestamp_osm_base": "2025-10-06T08:53:43Z", "copyright": "The data included in this document is from www.openstreetmap.org. The data is made available under ODbL."}, "elements": [{"type": "node", "id": 5277907132, "lat": 40.9779529, "lon": 27.5110459, "tags": {"amenity": "pharmacy", "healthcare": "pharmacy", "name": "Yeni Eczanesi", "phone": "+90 282 261 1240"}}, {"type": "node", "id": 5509605701, "lat": 40.9733573, "lon": 27.9489371, "tags": {"amenity": "pharmacy", "healthcare": "pharmacy", "name": "\u015eifa Eczanesi"}}, {"type": "node", "id": 5509607562, "lat": 40.9833383, "lon": 27.5705686, "tags": {"amenity": "pharmacy", "healthcare": "pharmacy", "name": "Asl\u0131 Eczanesi", "phone": "+90 282 293 2203"}}, {"type": "node", "id": 5605431418, "lat": 40.9841026, "lon": 27.5162067, "tags": {"addr:housenumber": "1", "amenity": "pharmacy", "healthcare": "pharmacy", "name": "Nazar Medikal"}}, {"type": "node", "id": 5812380986, "lat": 40.9780516, "lon": 27.5114696, "tags": {"addr:city": "Tekirda\u011f", "addr:district": "S\u00fcleymanpa\u015fa", "addr:housenumber": "77", "addr:street": "H\u00fck\u00fcmet Cd.", "amenity": "pharmacy", "dispensing": "yes", "healthcare": "pharmacy", "name": "\u00d6zt\u00fcrk Eczanesi", "phone": "+90 282 261 4030", "source": "local knowledge"}}, {"type": "node", "id": 5818580984, "lat": 40.9798279, "lon": 27.5129759, "tags": {"addr:city": "Tekirda\u011f", "addr:district": "S\u00fcleymanpa\u015fa", "addr:housenumber": "35/A", "addr:neighbourhood": "Ortacami Mahallesi", "addr:street": "Kolordu Caddesi", "amenity": "pharmacy", "dispensing": "yes", "healthcare": "pharmacy", "name": "Emir Eczanesi", "phone": "+90 282 263 0837", "source": "local knowledge"}}, {"type": "node", "id": 5818580986, "lat": 40.9800195, "lon": 27.5132297, "tags": {"addr:city": "Tekirda\u011f", "addr:district": "S\u00fcleymanpa\u015fa", "addr:housenumber": "2", "addr:neighbourhood": "Ortacami Mahallesi", "addr:street": "Hasan Efendi Caddesi", "amenity": "pharmacy", "dispensing": "yes", "healthcare": "pharmacy", "name": "Bayrak Eczanesi", "phone": "+90 282 263 2244", "source": "local knowledge;http://www.eczanebilgileri.com/Eczane_detay.asp?id=3942"}}, {"type": "node", "id": 5818580987, "lat": 40.9802341, "lon": 27.5130622, "tags": {"addr:city": "Tekirda\u011f", "addr:district": "S\u00fcleymanpa\u015fa", "addr:housenumber": "30/A", "addr:neighbourhood": "Eskicami Mahallesi", "addr:street": "Kolordu Caddesi", "amenity": "pharmacy", "dispensing": "yes", "healthcare": "pharmacy", "name": "\u00d6zen Eczanesi", "phone": "+90 282 261 2107", "source": "local knowledge;http://www.treczane.com/tekirdag/merkez/ozen-eczanesi.html"}}, {"type": "node", "id": 5818957103, "lat": 40.9424528, "lon": 27.4869005, "tags": {"addr:city": "Alt\u0131nova", "addr:district": "S\u00fcleymanpa\u015fa", "addr:neighbourhood": "Alt\u0131nova Mahallesi", "amenity": "pharmacy", "dispensing": "yes", "healthcare": "pharmacy", "name": "Alt\u0131nova Eczanesi", "source": "local knowledge"}}, {"type": "node", "id": 5818957104, "lat": 40.9789859, "lon": 27.5130806, "tags": {"addr:city": "Tekirda\u011f", "addr:district": "S\u00fcleymanpa\u015fa", "addr:neighbourhood": "Eskicami Mahallesi", "addr:street": "\u0130brahim Efendi Sokak", "amenity": "pharmacy", "dispensing": "yes", "healthcare": "pharmacy", "name": "Sema Eczanesi", "phone": "+90 282 261 3723", "source": "local knowledge"}}, {"type": "node", "id": 5818957105, "lat": 40.9778245, "lon": 27.5116677, "tags": {"addr:city": "Tekirda\u011f", "addr:district": "S\u00fcleymanpa\u015fa", "addr:housenumber": "10/A", "addr:neighbourhood": "Ertu\u011frul Mahallesi", "addr:postcode": "59100", "addr:street": "H\u00fcseyin Pehlivan Caddesi", "amenity": "pharmacy", "dispensing": "yes", "drive_through": "no", "healthcare": "pharmacy", "name": "E\u015fkinat Eczanesi", "phone": "+90 282 261 47 15", "source": "local knowledge", "wheelchair": "yes"}}, {"type": "node", "id": 5818957106, "lat": 40.9777139, "lon": 27.5137585, "tags": {"addr:city": "Tekirda\u011f", "addr:district": "S\u00fcleymanpa\u015fa", "addr:housenumber": "2/E", "addr:street": "K\u0131z\u0131lay Sokak", "amenity": "pharmacy", "dispensing": "yes", "healthcare": "pharmacy", "name": "Elvan Eczanesi", "phone": "+90 282 261 1304", "source": "local knowledge;http://www.treczane.com/tekirdag/merkez/gurkan-eczanesi.html;2/E;2/3"}}, {"type": "node", "id": 7013443968, "lat": 40.9786101, "lon": 27.5182638, "tags": {"addr:street": "\u00d6rdekli Dere Caddesi", "amenity": "pharmacy", "healthcare": "pharmacy", "name": "Turgutlugil Eczanesi", "phone": "+90 282 260 2494"}}, {"type": "node", "id": 7013475886, "lat": 41.0042601, "lon": 27.8463129, "tags": {"addr:street": "Atat\u00fcrk 38. Sokak", "amenity": "pharmacy", "healthcare": "pharmacy", "name": "Yeni\u00e7iftlik Eczanesi"}}, {"type": "node", "id": 8579124823, "lat": 40.9664921, "lon": 27.4932444, "tags": {"addr:city": "Tekirda\u011f", "addr:district": "S\u00fcleymanpa\u015fa", "addr:housenumber": "56/A", "addr:neighbourhood": "100. Y\u0131l", "addr:postcode": "59100", "addr:street": "U\u011fur Mumcu Caddesi", "amenity": "pharmacy", "healthcare": "pharmacy", "name": "Do\u011fa Eczanesi", "name:en": "Do\u011fa Pharmacy", "phone": "+90 282 261 2527"}}, {"type": "node", "id": 8859274224, "lat": 40.9774783, "lon": 27.502761, "tags": {"amenity": "pharmacy", "healthcare": "pharmacy", "name": "Deva Eczanesi", "phone": "+90 282 263 3311"}}, {"type": "node", "id": 8891055366, "lat": 40.9663507, "lon": 27.4939706, "tags": {"addr:city": "Tekirda\u011f", "addr:district": "S\u00fcleymanpa\u015fa", "addr:housenumber": "39/B", "addr:neighbourhood": "100. Y\u0131l", "addr:postcode": "59100", "addr:street": "Burhan Felek Sokak", "amenity": "pharmacy", "dispensing": "yes", "healthcare": "pharmacy", "name": "G\u00f6ksel Eczanesi", "name:en": "G\u00f6ksel Pharmacy", "phone": "+90 282 262 5976"}}, {"type": "node", "id": 9559244744, "lat": 40.9712944, "lon": 27.4995089, "tags": {"addr:city": "Tekirda\u011f", "addr:district": "S\u00fcleymanpa\u015fa", "addr:housenumber": "5/A", "addr:neighbourhood": "100. Y\u0131l", "addr:postcode": "59100", "addr:street": "H\u00fcseyin Mumcuo\u011flu Caddesi", "amenity": "pharmacy", "dispensing": "yes", "healthcare": "pharmacy", "name": "Emre Eczanesi", "phone": "+90 282 262 1542"}}, {"type": "node", "id": 9597794127, "lat": 40.9773538, "lon": 27.5105061, "tags": {"amenity": "pharmacy", "healthcare": "pharmacy", "name": "Mavi Eczanesi", "phone": "+90 282 260 0529"}}, {"type": "node", "id": 9926699683, "lat": 40.9712486, "lon": 27.4994747, "tags": {"addr:city": "Tekirda\u011f", "addr:district": "S\u00fcleymanpa\u015fa", "addr:housenumber": "3/C", "addr:neighbourhood": "100. Y\u0131l", "addr:postcode": "59100", "addr:street": "H\u00fcseyin Mumcuo\u011flu Caddesi", "amenity": "pharmacy", "dispensing": "yes", "healthcare": "pharmacy", "name": "\u00c7a\u011flayan Eczanesi", "phone": "+90 282 262 8311"}}, {"type": "node", "id": 9938160409, "lat": 40.9652205, "lon": 27.4909909, "tags": {"addr:city": "Tekirda\u011f", "addr:district": "S\u00fcleymanpa\u015fa", "addr:housenumber": "13/1B", "addr:neighbourhood": "100. Y\u0131l", "addr:postcode": "59100", "addr:street": "Laleli Sokak", "amenity": "pharmacy", "dispensing": "yes", "healthcare": "pharmacy", "name": "G\u00f6k\u015fen Serez Eczanesi", "phone": "+90 282 261 5439"}}, {"type": "node", "id": 9970355029, "lat": 40.9714288, "lon": 27.4996162, "tags": {"addr:city": "Tekirda\u011f", "addr:district": "S\u00fcleymanpa\u015fa", "addr:housenumber": "7/A", "addr:neighbourhood": "100. Y\u0131l", "addr:postcode": "59100", "addr:street": "H\u00fcseyin Mumcuo\u011flu Caddesi", "amenity": "pharmacy", "dispensing": "yes", "healthcare": "pharmacy", "name": "\u0130lg\u00fcn Eczanesi", "phone": "+90 282 264 2524"}}, {"type": "node", "id": 10000736263, "lat": 40.9746327, "lon": 27.5088144, "tags": {"amenity": "pharmacy", "healthcare": "pharmacy", "name": "Yasemin Eczanesi", "phone": "+90 282 263 6060"}}, {"type": "node", "id": 10000743401, "lat": 40.9781847, "lon": 27.5124312, "tags": {"amenity": "pharmacy", "healthcare": "pharmacy", "name": "\u015eifa Eczanesi", "phone": "+90 282 261 2308"}}, {"type": "node", "id": 10945705405, "lat": 40.6531755, "lon": 27.6583237, "tags": {"amenity": "pharmacy", "healthcare": "pharmacy", "name": "Canan Eczanesi", "phone": "+90 266 887 7040"}}, {"type": "node", "id": 11541233168, "lat": 40.9777496, "lon": 27.5027351, "tags": {"amenity": "pharmacy", "name": "G\u00fcneyer Eczanesi", "operator": "Ay\u015feg\u00fcl G\u00fcneyer", "phone": "+90 282 263 8964"}}, {"type": "node", "id": 11765571469, "lat": 40.9984499, "lon": 27.5855841, "tags": {"amenity": "pharmacy", "healthcare": "pharmacy", "name": "Burcu Durgut Eczanesi", "phone": "+90 282 293 3355"}}, {"type": "node", "id": 11765571470, "lat": 40.9988867, "lon": 27.585873, "tags": {"amenity": "pharmacy", "healthcare": "pharmacy", "name": "S\u00fcleyman", "name:tr": "S\u00fcleymanpa\u015fa Eczanesi", "phone": "+90 282 262 2234"}}, {"type": "node", "id": 11765571471, "lat": 40.9866464, "lon": 27.5774852, "tags": {"amenity": "pharmacy", "name": "Alanur Eczanesi", "phone": "+90 282 293 2707"}}, {"type": "node", "id": 11765571472, "lat": 40.9833237, "lon": 27.5704695, "tags": {"amenity": "pharmacy", "name": "Meri\u00e7 Eczanesi", "phone": "+90 282 261 0760"}}, {"type": "node", "id": 11765571473, "lat": 40.9894642, "lon": 27.5638367, "tags": {"amenity": "pharmacy", "name": "Rodosto Eczanesi", "phone": "+90 282 293 1150"}}, {"type": "node", "id": 11765571474, "lat": 40.9829665, "lon": 27.5499364, "tags": {"amenity": "pharmacy", "name": "Cenk Eczanesi", "phone": "+90 282 260 0990"}}, {"type": "node", "id": 11765571475, "lat": 40.983037, "lon": 27.5223922, "tags": {"amenity": "pharmacy", "healthcare": "pharmacy", "name": "E\u015fkinat Eczanesi", "phone": "+90 282 261 4715"}}, {"type": "node", "id": 11765571476, "lat": 40.9803319, "lon": 27.5155998, "tags": {"amenity": "pharmacy", "name": "H\u00fclya Eczanesi", "phone": "+90 282 264 0468"}}, {"type": "node", "id": 11765571477, "lat": 40.9829208, "lon": 27.5150378, "tags": {"amenity": "pharmacy", "healthcare": "pharmacy", "name": "Melis Eczanesi", "phone": "+90 282 262 4515"}}, {"type": "node", "id": 11765571478, "lat": 40.9833704, "lon": 27.514048, "tags": {"amenity": "pharmacy", "healthcare": "pharmacy", "name": "Tun\u00e7 Eczanesi", "phone": "+90 282 263 7073"}}, {"type": "node", "id": 11765571569, "lat": 40.9989153, "lon": 27.5861813, "tags": {"amenity": "pharmacy", "healthcare": "pharmacy", "name": "Kiraz Eczanesi", "phone": "+90 282 293 4333"}}, {"type": "node", "id": 11765571570, "lat": 40.9989503, "lon": 27.5866035, "tags": {"amenity": "pharmacy", "healthcare": "pharmacy", "name": "Dora Eczanesi", "phone": "+90 282 293 3360"}}, {"type": "node", "id": 11765571571, "lat": 40.9890675, "lon": 27.5544087, "tags": {"amenity": "pharmacy", "name": "G\u00fclseren Eczanesi", "phone": "+90 282 261 8539"}}, {"type": "node", "id": 11765571572, "lat": 40.982764, "lon": 27.5221956, "tags": {"amenity": "pharmacy", "healthcare": "pharmacy", "name": "Belgin Eczanesi", "phone": "+90 282 262 4071"}}, {"type": "node", "id": 11765571573, "lat": 40.9832554, "lon": 27.514817, "tags": {"amenity": "pharmacy", "healthcare": "pharmacy", "name": "Emin Eczanesi", "phone": "+90 282 264 1851"}}, {"type": "node", "id": 11765571669, "lat": 40.998931, "lon": 27.5863506, "tags": {"amenity": "pharmacy", "healthcare": "pharmacy", "name": "Trakya Eczanesi", "phone": "+90 282 293 3559"}}, {"type": "node", "id": 11765571670, "lat": 40.9893733, "lon": 27.5638972, "tags": {"amenity": "pharmacy", "name": "Gamze Eczanesi", "phone": "+90 282 502 8159"}}, {"type": "node", "id": 11765571671, "lat": 40.9827255, "lon": 27.5220238, "tags": {"amenity": "pharmacy", "healthcare": "pharmacy", "name": "Ekin", "name:tr": "Ekin \u00c7etinkaya Eczanesi", "phone": "+90 282 264 3210"}}, {"type": "node", "id": 11765571769, "lat": 40.9989435, "lon": 27.586489, "tags": {"amenity": "pharmacy", "healthcare": "pharmacy", "name": "Ers\u00f6z Eczanesi", "phone": "+90 282 262 4552"}}, {"type": "node", "id": 11765571869, "lat": 40.9887741, "lon": 27.5771599, "tags": {"amenity": "pharmacy", "name": "\u0130pek Eczanesi", "phone": "+90 282 293 2621"}}, {"type": "node", "id": 11765571870, "lat": 40.9821918, "lon": 27.5485084, "tags": {"amenity": "pharmacy", "healthcare": "pharmacy", "name": "Selis Eczanesi", "phone": "+90 282 262 8640"}}, {"type": "node", "id": 11765572169, "lat": 40.9872892, "lon": 27.577839, "tags": {"amenity": "pharmacy", "name": "Perizat Eczanesi", "phone": "+90 282 293 3839"}}, {"type": "node", "id": 11765572170, "lat": 40.9823568, "lon": 27.5486854, "tags": {"amenity": "pharmacy", "healthcare": "pharmacy", "name": "H\u00fcrriyet Eczanesi", "phone": "+90 282 263 8322"}}, {"type": "node", "id": 11765572171, "lat": 40.9824504, "lon": 27.5224536, "tags": {"amenity": "pharmacy", "healthcare": "pharmacy", "name": "\u00c7iftlik\u00f6n\u00fc Eczanesi", "phone": "+90 282 260 1776"}}, {"type": "node", "id": 11765572172, "lat": 40.9831274, "lon": 27.5224884, "tags": {"amenity": "pharmacy", "healthcare": "pharmacy", "name": "Armada Eczanesi", "phone": "+90 282 261 0664"}}, {"type": "node", "id": 11765572173, "lat": 40.9817199, "lon": 27.5197849, "tags": {"amenity": "pharmacy", "healthcare": "pharmacy", "name": "Aysu Eczanesi", "phone": "+90 282 261 6165"}}, {"type": "node", "id": 11765572174, "lat": 40.9836667, "lon": 27.5164462, "tags": {"amenity": "pharmacy", "healthcare": "pharmacy", "name": "Melike Eczanesi", "phone": "+90 282 263 6549"}}, {"type": "node", "id": 11765572175, "lat": 40.9847698, "lon": 27.5149672, "tags": {"amenity": "pharmacy", "healthcare": "pharmacy", "name": "G\u00f6zde Eczanesi", "phone": "+90 282 260 5655"}}, {"type": "node", "id": 11765572176, "lat": 40.9833267, "lon": 27.5146749, "tags": {"amenity": "pharmacy", "healthcare": "pharmacy", "name": "\u0130rem Duyan Eczanesi", "phone": "+90 282 261 1819"}}, {"type": "node", "id": 11765572177, "lat": 40.9834442, "lon": 27.5142255, "tags": {"amenity": "pharmacy", "healthcare": "pharmacy", "name": "Nevra Eczanesi", "phone": "+90 282 260 0761"}}, {"type": "node", "id": 11765572369, "lat": 40.9803109, "lon": 27.5134491, "tags": {"amenity": "pharmacy", "name": "G\u00f6k\u00e7e Eczanesi", "phone": "+90 282 261 9464"}}, {"type": "node", "id": 11768131269, "lat": 40.9780226, "lon": 27.5130957, "tags": {"amenity": "pharmacy", "name": "\u015eenda Eczanesi", "phone": "+90 282 261 6201"}}, {"type": "node", "id": 11768131270, "lat": 40.9784371, "lon": 27.5132561, "tags": {"amenity": "pharmacy", "name": "G\u00fcl\u00e7ift\u00e7i Eczanesi", "phone": "+90 282 261 3933"}}, {"type": "node", "id": 11768131271, "lat": 40.9788282, "lon": 27.5118953, "tags": {"amenity": "pharmacy", "healthcare": "pharmacy", "name": "Cango Eczanesi", "phone": "+90 282 261 5713"}}, {"type": "node", "id": 11768131272, "lat": 40.9771089, "lon": 27.5067846, "tags": {"amenity": "pharmacy", "healthcare": "pharmacy", "name": "G\u0131lbaz Eczanesi", "phone": "+90 282 261 5438"}}, {"type": "node", "id": 11768131273, "lat": 40.9829122, "lon": 27.4997017, "tags": {"amenity": "pharmacy", "healthcare": "pharmacy", "name": "Ece Eczanesi", "phone": "+90 282 262 9989"}}, {"type": "node", "id": 11768131369, "lat": 40.9782864, "lon": 27.5135232, "tags": {"amenity": "pharmacy", "healthcare": "pharmacy", "name": "Eda Eczanesi", "phone": "+90 282 261 54 37"}}, {"type": "node", "id": 11768131370, "lat": 40.9830431, "lon": 27.4997005, "tags": {"amenity": "pharmacy", "healthcare": "pharmacy", "name": "Hilal Eczanesi", "phone": "+90 282 263 9542"}}, {"type": "node", "id": 11768131469, "lat": 40.9789186, "lon": 27.5111853, "tags": {"amenity": "pharmacy", "healthcare": "pharmacy", "name": "\u00dclker Eczanesi", "phone": "+90 282 260 2379"}}, {"type": "node", "id": 11768131470, "lat": 40.9785304, "lon": 27.510998, "tags": {"amenity": "pharmacy", "healthcare": "pharmacy", "name": "G\u00fclsen Eczanesi", "phone": "+90 282 261 1817"}}, {"type": "node", "id": 11768131471, "lat": 40.9775399, "lon": 27.5099659, "tags": {"amenity": "pharmacy", "healthcare": "pharmacy", "name": "Derman Eczanesi", "phone": "+90 282 262 5876"}}, {"type": "node", "id": 11768131472, "lat": 40.976386, "lon": 27.506668, "tags": {"amenity": "pharmacy", "healthcare": "pharmacy", "name": "\u015eafak Eczanesi", "phone": "+90 282 262 0660"}}, {"type": "node", "id": 11768131473, "lat": 40.9750256, "lon": 27.5090585, "tags": {"amenity": "pharmacy", "healthcare": "pharmacy", "name": "\u00c7etinkaya Eczanesi", "phone": "+90 282 263 4300"}}, {"type": "node", "id": 11768131569, "lat": 40.9791277, "lon": 27.5114718, "tags": {"amenity": "pharmacy", "healthcare": "pharmacy", "name": "Duygu Eczanesi", "phone": "+90 282 262 4764"}}, {"type": "node", "id": 11768131570, "lat": 40.9778406, "lon": 27.5108687, "tags": {"amenity": "pharmacy", "healthcare": "pharmacy", "name": "\u00dczmezo\u011flu Eczanesi", "phone": "+90 282 261 2239"}}, {"type": "node", "id": 11768131571, "lat": 40.9775829, "lon": 27.5100713, "tags": {"amenity": "pharmacy", "healthcare": "pharmacy", "name": "Sevimli Eczanesi", "phone": "+90 282 261 5993"}}, {"type": "node", "id": 11768131572, "lat": 40.9788822, "lon": 27.5082388, "tags": {"amenity": "pharmacy", "healthcare": "pharmacy", "name": "Pelin Eczanesi", "phone": "+90 282 264 0110"}}, {"type": "node", "id": 11768131573, "lat": 40.9830249, "lon": 27.4992305, "tags": {"addr:housenumber": "4", "addr:street": "Sa\u011fl\u0131k\u00e7\u0131 Sokak", "amenity": "pharmacy", "healthcare": "pharmacy", "name": "\u00c7\u0131nar Eczanesi", "phone": "+90 282 263 1979"}}, {"type": "node", "id": 11768131669, "lat": 40.9764637, "lon": 27.5068304, "tags": {"amenity": "pharmacy", "healthcare": "pharmacy", "name": "Ba\u015fak Eczanesi", "phone": "+90 282 262 7235"}}, {"type": "node", "id": 11768131769, "lat": 40.9665319, "lon": 27.4993592, "tags": {"addr:street": "Veteriner Sokak", "amenity": "pharmacy", "healthcare": "pharmacy", "name": "Turhan Eczanesi", "phone": "+90 282 263 7605"}}, {"type": "node", "id": 11770642070, "lat": 40.9770408, "lon": 27.4947671, "tags": {"amenity": "pharmacy", "healthcare": "pharmacy", "name": "\u0130lhan Eczanesi", "phone": "+90 282 262 1998"}}, {"type": "node", "id": 11770642071, "lat": 40.9735108, "lon": 27.4937677, "tags": {"amenity": "pharmacy", "healthcare": "pharmacy", "name": "Lal Eczanesi", "phone": "+90 282 502 0392"}}, {"type": "node", "id": 11770642072, "lat": 40.9428024, "lon": 27.4852788, "tags": {"addr:city": "Alt\u0131nova", "addr:district": "S\u00fcleymanpa\u015fa", "addr:neighbourhood": "Alt\u0131nova Mahallesi", "amenity": "pharmacy", "healthcare": "pharmacy", "name": "Narin Eczanesi", "phone": "+90 543 123 1059"}}, {"type": "node", "id": 11770645369, "lat": 40.9763149, "lon": 27.494597, "tags": {"amenity": "pharmacy", "healthcare": "pharmacy", "name": "\u00d6zge Eczanesi", "phone": "+90 282 264 0494"}}, {"type": "node", "id": 11770645370, "lat": 40.9429872, "lon": 27.485279, "tags": {"addr:city": "Alt\u0131nova", "addr:district": "S\u00fcleymanpa\u015fa", "addr:neighbourhood": "Alt\u0131nova Mahallesi", "amenity": "pharmacy", "healthcare": "pharmacy", "name": "\u015een Eczanesi", "phone": "+90 282 243 8000"}}, {"type": "node", "id": 11770645469, "lat": 40.9764557, "lon": 27.4943803, "tags": {"amenity": "pharmacy", "healthcare": "pharmacy", "name": "Erkan Eczanesi", "phone": "+90 282 264 0848"}}, {"type": "node", "id": 11770645569, "lat": 40.9765903, "lon": 27.4944006, "tags": {"amenity": "pharmacy", "healthcare": "pharmacy", "name": "Seyran Eczanesi", "phone": "+90 282 263 8419"}}, {"type": "node", "id": 11770645570, "lat": 40.9472402, "lon": 27.4887621, "tags": {"amenity": "pharmacy", "healthcare": "pharmacy", "name": "\u015eehnur Eczanesi", "phone": "+90 282 243 8812"}}, {"type": "node", "id": 11770645571, "lat": 40.9436357, "lon": 27.4874145, "tags": {"addr:city": "Alt\u0131nova", "addr:district": "S\u00fcleymanpa\u015fa", "addr:neighbourhood": "Alt\u0131nova Mahallesi", "amenity": "pharmacy", "healthcare": "pharmacy", "name": "Alt\u0131nova Eczanesi", "phone": "+90 282 243 7521"}}, {"type": "node", "id": 11770645572, "lat": 40.9419815, "lon": 27.485343, "tags": {"addr:city": "Alt\u0131nova", "addr:district": "S\u00fcleymanpa\u015fa", "addr:neighbourhood": "Alt\u0131nova Mahallesi", "amenity": "pharmacy", "healthcare": "pharmacy", "name": "G\u00fcne\u015f Eczanesi", "phone": "+90 282 243 9803"}}, {"type": "node", "id": 11770645573, "lat": 40.9046683, "lon": 27.466629, "tags": {"addr:city": "Barbaros", "addr:district": "S\u00fcleymanpa\u015fa", "addr:neighbourhood": "Barbaros Mahallesi", "amenity": "pharmacy", "healthcare": "pharmacy", "name": "Barbaros Eczanesi", "phone": "+90 282 273 2762"}}, {"type": "node", "id": 11770645574, "lat": 40.8742113, "lon": 27.4586907, "tags": {"addr:city": "Kumba\u011f", "addr:district": "S\u00fcleymanpa\u015fa", "addr:neighbourhood": "Kumba\u011f Mahallesi", "amenity": "pharmacy", "healthcare": "pharmacy", "name": "Kumba\u011f Eczanesi", "phone": "+90 282 283 4355"}}]}