{"version": 0.6, "generator": "Overpass API 0.7.62.8 e802775f", "osm3s": {"timestamp_osm_base": "2025-10-06T08:23:05Z", "copyright": "The data included in this document is from www.openstreetmap.org. The data is made available under ODbL."}, "elements": [{"type": "node", "id": 476216144, "lat": 53.06188, "lon": 19.42434, "tags": {"addr:city": "Rypin", "addr:housenumber": "36", "addr:street": "Ogrodowa", "amenity": "pharmacy", "dispensing": "yes", "healthcare": "pharmacy", "name": "Pod Eskulapem", "phone": "+48542805151", "ref:csioz": "1104390", "source": "http://ump.waw.pl/ retrieved 12:40:28 08/23/09 (UMP-Ciechanow/src/POI-Ciechanow.szpitale.pnt-converted.txt)"}}, {"type": "node", "id": 476216327, "lat": 53.2557429, "lon": 19.4024753, "tags": {"addr:city": "Brodnica", "addr:housenumber": "32", "addr:postcode": "87-300", "addr:street": "Du\u017cy Rynek", "amenity": "pharmacy", "dispensing": "yes", "healthcare": "pharmacy", "name": "Pod Or\u0142em, Green Cross", "opening_hours": "Mo-Fr 07:00-21:00; Sa 08:00-21:00", "phone": "+48564982630", "ref:csioz": "1102321", "source": "http://ump.waw.pl/ retrieved 12:40:28 08/23/09 (UMP-Ciechanow/src/POI-Ciechanow.szpitale.pnt-converted.txt)", "wheelchair": "no"}}, {"type": "node", "id": 476219013, "lat": 53.2515522, "lon": 19.3991958, "tags": {"addr:city": "Brodnica", "addr:housenumber": "5", "addr:postcode": "87-300", "addr:street": "Piwna", "amenity": "pharmacy", "dispensing": "yes", "phone": "+48566977004", "ref:csioz": "1102359", "source": "http://ump.waw.pl/ retrieved 12:40:28 08/23/09 (UMP-Ciechanow/src/POI-Ciechanow.szpitale.pnt-converted.txt)"}}, {"type": "node", "id": 476219051, "lat": 53.0704172, "lon": 19.4221191, "tags": {"addr:city": "Rypin", "addr:housenumber": "3", "addr:street": "Koszarowa", "amenity": "pharmacy", "brand": "Dbam o Zdrowie", "brand:wikidata": "Q62563833", "dispensing": "yes", "healthcare": "pharmacy", "name": "Dbam o Zdrowie", "phone": "+48542803597", "ref:csioz": "1208508", "short_name": "DOZ", "source": "http://ump.waw.pl/ retrieved 12:40:28 08/23/09 (UMP-Ciechanow/src/POI-Ciechanow.szpitale.pnt-converted.txt)"}}, {"type": "node", "id": 476219059, "lat": 53.25503, "lon": 19.40485, "tags": {"addr:city": "Brodnica", "addr:housenumber": "25", "addr:postcode": "87-300", "addr:street": "Jana Kili\u0144skiego", "amenity": "pharmacy", "dispensing": "yes", "healthcare": "pharmacy", "name": "Strzelecka", "phone": "+48564943625", "ref:csioz": "1103494"}}, {"type": "node", "id": 476219076, "lat": 53.06661, "lon": 19.40731, "tags": {"addr:city": "Rypin", "addr:housenumber": "7", "addr:street": "Jana Kili\u0144skiego", "amenity": "pharmacy", "dispensing": "yes", "healthcare": "pharmacy", "phone": "+48542802044", "ref:csioz": "1104353", "source": "http://ump.waw.pl/ retrieved 12:40:28 08/23/09 (UMP-Ciechanow/src/POI-Ciechanow.szpitale.pnt-converted.txt)"}}, {"type": "node", "id": 587584455, "lat": 53.2760694, "lon": 18.9465317, "tags": {"addr:housenumber": "38", "addr:postcode": "87-200", "addr:street": "Wolno\u015bci", "amenity": "pharmacy", "brand": "Dbam o Zdrowie", "brand:wikidata": "Q62563833", "dispensing": "yes", "healthcare": "pharmacy", "name": "Dbam o Zdrowie", "phone": "566881776", "ref:csioz": "1099109", "short_name": "DOZ", "source": "http://ump.waw.pl/ retrieved 11:19:07 11/17/09 (UMP-Torun/src/POI-Torun.pnt-converted.txt)", "wheelchair": "limited"}}, {"type": "node", "id": 587584587, "lat": 53.2785572, "lon": 18.9470384, "tags": {"addr:city": "W\u0105brze\u017ano", "addr:housenumber": "10", "addr:postcode": "87-200", "addr:street": "Wolno\u015bci", "amenity": "pharmacy", "dispensing": "yes", "healthcare": "pharmacy", "name": "Pod Arnik\u0105", "phone": "566882655", "ref:csioz": "1103346", "source": "http://ump.waw.pl/ retrieved 11:19:07 11/17/09 (UMP-Torun/src/POI-Torun.pnt-converted.txt)", "website": "http://aptekiarnika.pl", "wheelchair": "yes"}}, {"type": "node", "id": 587584613, "lat": 53.27959, "lon": 18.94738, "tags": {"addr:city": "W\u0105brze\u017ano", "addr:housenumber": "4", "addr:postcode": "87-200", "addr:street": "Plac Jana Paw\u0142a II", "amenity": "pharmacy", "dispensing": "yes", "healthcare": "pharmacy", "name": "Centralna", "phone": "+48 56 688 21 21", "ref:csioz": "1101835", "source": "http://ump.waw.pl/ retrieved 11:19:07 11/17/09 (UMP-Torun/src/POI-Torun.pnt-converted.txt)", "website": "https://wabrzezno.com/", "wheelchair": "no"}}, {"type": "node", "id": 1908659241, "lat": 53.1082198, "lon": 19.0693817, "tags": {"addr:city": "Golub-Dobrzy\u0144", "addr:housenumber": "30a", "addr:postcode": "87-400", "addr:street": "Szosa Rypi\u0144ska", "amenity": "pharmacy", "dispensing": "yes", "healthcare": "pharmacy", "name": "Pan Tadeusz", "ref:csioz": "1103510"}}, {"type": "node", "id": 2063574573, "lat": 53.2459797, "lon": 19.403406, "tags": {"addr:city": "Brodnica", "addr:housenumber": "36B", "addr:postcode": "87-300", "addr:street": "18 Stycznia", "amenity": "pharmacy", "dispensing": "yes", "drive_through": "no", "healthcare": "pharmacy", "name": "Avena", "name:pl": "Avena", "name:uk": "\u0410\u0432\u0435\u043d\u0430", "ref:csioz": "1102376"}}, {"type": "node", "id": 2157928560, "lat": 53.1540606, "lon": 18.8993745, "tags": {"addr:city": "Kowalewo Pomorskie", "addr:housenumber": "3", "addr:postcode": "87-410", "addr:street": "Fryderyka Chopina", "amenity": "pharmacy", "dispensing": "yes", "healthcare": "pharmacy", "name": "Apteka Kowalewska", "opening_hours": "Mo-Fr 08:00-18:30; Sa 08:00-14:00", "operator": "G\u00f3recka-Przybysz", "phone": "+48 56 684 40 44", "ref:csioz": "1102848"}}, {"type": "node", "id": 2157929124, "lat": 53.1547488, "lon": 18.898787, "tags": {"addr:city": "Kowalewo Pomorskie", "addr:housenumber": "18", "addr:postcode": "87-410", "addr:street": "Plac 700-lecia", "amenity": "pharmacy", "dispensing": "yes", "email": "mieszczanska@wp.pl", "healthcare": "pharmacy", "name": "Apteka Mieszcza\u0144ska", "opening_hours": "Mo-Fr 08:00-18:00; Sa 08:00-14:00", "phone": "+48 56 684 20 31", "ref:csioz": "1102836", "start_date": "1995"}}, {"type": "node", "id": 2289995742, "lat": 53.2596688, "lon": 19.3979452, "tags": {"addr:city": "Brodnica", "addr:housenumber": "19", "addr:postcode": "87-300", "addr:street": "Zamkowa", "amenity": "pharmacy", "dispensing": "yes", "healthcare": "pharmacy", "name": "Alba", "ref:csioz": "1100517"}}, {"type": "node", "id": 2656182257, "lat": 53.2589194, "lon": 19.3964916, "tags": {"addr:city": "Brodnica", "addr:housenumber": "6", "addr:postcode": "87-300", "addr:street": "Henryka Sienkiewicza", "amenity": "pharmacy", "dispensing": "yes", "healthcare": "pharmacy", "name": "Apteka Dbam O Zdrowie", "ref:csioz": "1102415", "wheelchair": "yes"}}, {"type": "node", "id": 2898942144, "lat": 53.1056078, "lon": 19.0548445}, {"type": "node", "id": 2898942146, "lat": 53.1057488, "lon": 19.0550078}, {"type": "node", "id": 2898942147, "lat": 53.1056748, "lon": 19.0550704}, {"type": "node", "id": 3051149783, "lat": 53.06679, "lon": 19.29005, "tags": {"addr:housenumber": "6", "addr:place": "Ostrowite", "addr:postcode": "87-522", "amenity": "pharmacy", "dispensing": "yes", "healthcare": "pharmacy", "name": "Punkt Apteczny", "opening_hours": "Mo-Fr 08:30-18:00, Sa 8:30-12:00", "phone": "54 270 12 59", "ref:csioz": "1105464"}}, {"type": "node", "id": 3986064253, "lat": 53.104657, "lon": 19.0559357}, {"type": "node", "id": 3986064288, "lat": 53.1047074, "lon": 19.0561425}, {"type": "node", "id": 3986064300, "lat": 53.1047268, "lon": 19.0558892}, {"type": "node", "id": 3986064352, "lat": 53.1047748, "lon": 19.0560954}, {"type": "node", "id": 4358506590, "lat": 53.2752477, "lon": 18.9503199, "tags": {"addr:city": "W\u0105brze\u017ano", "addr:housenumber": "5", "addr:postcode": "87-200", "addr:street": "Mieczys\u0142awa Niedzia\u0142kowskiego", "amenity": "pharmacy", "dispensing": "yes", "healthcare": "pharmacy", "name": "Puls VI", "opening_hours": "Mo-Fr 08:00-19:00; Sa 08:00-15:00", "phone": "564770125", "ref:csioz": "1122597"}}, {"type": "node", "id": 5480595001, "lat": 53.1056818, "lon": 19.0547784}, {"type": "node", "id": 8125019335, "lat": 53.1534229, "lon": 18.8999503, "tags": {"addr:city": "Kowalewo Pomorskie", "addr:housenumber": "16", "addr:postcode": "87-410", "addr:street": "Fryderyka Chopina", "amenity": "pharmacy", "dispensing": "yes", "drive_through": "no", "healthcare": "pharmacy", "name": "Apteka Dobra", "opening_hours": "Mo-Fr 08:00-20:00; Sa 08:00-16:00", "phone": "+48 56 612 63 95", "ref:csioz": "1183730"}}, {"type": "node", "id": 8479408051, "lat": 53.2672914, "lon": 19.4100213, "tags": {"addr:city": "Brodnica", "addr:housenumber": "12", "addr:postcode": "87-300", "addr:street": "Cicha", "amenity": "pharmacy", "dispensing": "yes", "drive_through": "no", "healthcare": "pharmacy", "name": "Avena Na Cichej", "opening_hours": "Mo-Sa 08:00-19:00", "phone": "+48566498199", "ref:csioz": "1102392"}}, {"type": "node", "id": 9051275347, "lat": 53.2578593, "lon": 19.4027471, "tags": {"addr:city": "Brodnica", "addr:housenumber": "2", "addr:postcode": "87-300", "addr:street": "Kamionka", "amenity": "pharmacy", "dispensing": "yes", "drive_through": "no", "healthcare": "pharmacy", "name": "Pharma - Land", "ref:csioz": "1103624"}}, {"type": "node", "id": 9315598434, "lat": 53.0673158, "lon": 19.4160582, "tags": {"amenity": "pharmacy", "dispensing": "yes", "healthcare": "pharmacy", "name": "Przy Szpitalu", "ref:csioz": "1104710"}}, {"type": "node", "id": 9575439592, "lat": 53.2554207, "lon": 19.4026501, "tags": {"addr:city": "Brodnica", "addr:housenumber": "30", "addr:postcode": "87-300", "addr:street": "Du\u017cy Rynek", "amenity": "pharmacy", "dispensing": "yes", "healthcare": "pharmacy", "name": "Apteka Gemini", "opening_hours": "Mo-Fr 08:00-20:00; Sa 09:00-18:00; Su 09:00-15:00", "operator": "Gemini Polska", "phone": "+48 56 498 73 30", "ref:csioz": "1181475", "wheelchair": "limited"}}, {"type": "node", "id": 9590312766, "lat": 53.0645333, "lon": 19.4096706, "tags": {"addr:city": "Rypin", "addr:housenumber": "14", "addr:postcode": "87-500", "addr:street": "Warszawska", "amenity": "pharmacy", "dispensing": "yes", "name": "Doz Apteka Dbam O Zdrowie", "ref:csioz": "1200081"}}, {"type": "node", "id": 9590332759, "lat": 53.0654021, "lon": 19.4180986, "tags": {"addr:city": "Rypin", "addr:housenumber": "30", "addr:postcode": "87-500", "addr:street": "M\u0142awska", "amenity": "pharmacy", "dispensing": "yes", "name": "Pod Gryfem", "ref:csioz": "1104344"}}, {"type": "node", "id": 9590342890, "lat": 53.0659793, "lon": 19.410177, "tags": {"addr:city": "Rypin", "addr:housenumber": "1E", "addr:postcode": "87-500", "addr:street": "M\u0142awska", "amenity": "pharmacy", "dispensing": "yes", "name": "Apteka Spo\u0142eczna Na M\u0142awskiej Grupa Nowa Farmacja", "ref:csioz": "1184679"}}, {"type": "node", "id": 9590346185, "lat": 53.0623053, "lon": 19.4168502, "tags": {"addr:city": "Rypin", "addr:housenumber": "16", "addr:postcode": "87-500", "addr:street": "Ksi\u0119dza Czes\u0142awa Lissowskiego", "amenity": "pharmacy", "dispensing": "yes", "name": "Przy Przychodni", "ref:csioz": "1102857"}}, {"type": "node", "id": 9590354948, "lat": 53.1380441, "lon": 19.2770939, "tags": {"addr:housenumber": "20A", "addr:place": "W\u0105pielsk", "addr:postcode": "87-337", "amenity": "pharmacy", "dispensing": "yes", "name": "Rodzinny", "ref:csioz": "1202775"}}, {"type": "node", "id": 9592315127, "lat": 52.9450076, "lon": 18.9403198, "tags": {"addr:city": "Czernikowo", "addr:housenumber": "26", "addr:postcode": "87-640", "addr:street": "3 Maja", "amenity": "pharmacy", "dispensing": "yes", "healthcare": "pharmacy", "name": "Apteka Im. Jana Paw\u0142a Ii", "ref:csioz": "1102514"}}, {"type": "node", "id": 9592320580, "lat": 52.940354, "lon": 18.9305918, "tags": {"addr:city": "Czernikowo", "addr:housenumber": "17a", "addr:postcode": "87-640", "addr:street": "Kwiatowa", "amenity": "pharmacy", "dispensing": "yes", "healthcare": "pharmacy", "name": "Panaceum", "ref:csioz": "1102509"}}, {"type": "node", "id": 9592336307, "lat": 52.9433849, "lon": 18.9367498, "tags": {"addr:city": "Czernikowo", "addr:housenumber": "33", "addr:postcode": "87-640", "addr:street": "Juliusza S\u0142owackiego", "amenity": "pharmacy", "dispensing": "yes", "healthcare": "pharmacy", "name": "Apteka Dla Ciebie", "ref:csioz": "1218055"}}, {"type": "node", "id": 9592514979, "lat": 53.2567592, "lon": 19.0973064, "tags": {"addr:housenumber": "23", "addr:place": "D\u0119bowa \u0141\u0105ka", "addr:postcode": "87-207", "amenity": "pharmacy", "dispensing": "yes", "healthcare": "pharmacy", "name": "Punkt Apteczny Pod D\u0119bami", "ref:csioz": "1188151"}}, {"type": "node", "id": 9592520745, "lat": 53.2768403, "lon": 18.9499512, "tags": {"addr:city": "W\u0105brze\u017ano", "addr:housenumber": "8", "addr:postcode": "87-200", "addr:street": "Mieczys\u0142awa Niedzia\u0142kowskiego", "amenity": "pharmacy", "dispensing": "yes", "healthcare": "pharmacy", "name": "Stokrotka", "ref:csioz": "1103351"}}, {"type": "node", "id": 9592548246, "lat": 53.2800799, "lon": 18.9497638, "tags": {"addr:city": "W\u0105brze\u017ano", "addr:housenumber": "11", "addr:postcode": "87-200", "addr:street": "Adama Mickiewicza", "amenity": "pharmacy", "dispensing": "yes", "healthcare": "pharmacy", "name": "Majowa", "ref:csioz": "1101843"}}, {"type": "node", "id": 9592562379, "lat": 53.3279865, "lon": 19.0718617, "tags": {"addr:city": "Ksi\u0105\u017cki", "addr:housenumber": "8", "addr:postcode": "87-222", "addr:street": "Ksi\u0119dza Wincentego Kujawskiego", "amenity": "pharmacy", "dispensing": "yes", "name": "Apteka", "ref:csioz": "1226451"}}, {"type": "node", "id": 9592586683, "lat": 53.2297376, "lon": 18.8230399, "tags": {"addr:city": "Ry\u0144sk", "addr:housenumber": "21", "addr:postcode": "87-213", "addr:street": "Miko\u0142aja Ry\u0144skiego", "amenity": "pharmacy", "dispensing": "yes", "healthcare": "pharmacy", "ref:csioz": "1105176"}}, {"type": "node", "id": 9592591895, "lat": 53.2964657, "lon": 18.7762752, "tags": {"addr:housenumber": "42A", "addr:place": "P\u0142u\u017cnica", "addr:postcode": "87-214", "amenity": "pharmacy", "dispensing": "yes", "name": "Eskulap", "ref:csioz": "1105100"}}, {"type": "node", "id": 9606440092, "lat": 53.0568195, "lon": 18.9252034, "tags": {"addr:housenumber": "176", "addr:place": "Ciechocin", "addr:postcode": "87-408", "amenity": "pharmacy", "dispensing": "yes", "healthcare": "pharmacy", "name": "Punkt Apteczny Ciechocin", "opening_hours": "Mo-Fr 08:00-18:00; Sa 08:00-14:00", "ref:csioz": "1173673"}}, {"type": "node", "id": 9606450372, "lat": 53.0030592, "lon": 19.146651, "tags": {"addr:housenumber": "149", "addr:place": "Zb\u00f3jno", "addr:postcode": "87-645", "amenity": "pharmacy", "dispensing": "yes", "healthcare": "pharmacy", "name": "Mandragora", "ref:csioz": "1119335"}}, {"type": "node", "id": 9606466812, "lat": 53.1073004, "lon": 19.0596624, "tags": {"addr:city": "Golub-Dobrzy\u0144", "addr:housenumber": "4", "addr:postcode": "87-400", "addr:street": "Szosa Rypi\u0144ska", "amenity": "pharmacy", "dispensing": "yes", "name": "Przy Medyku", "ref:csioz": "1210788"}}, {"type": "node", "id": 9606482218, "lat": 53.1426439, "lon": 18.8131817, "tags": {"addr:housenumber": "3", "addr:place": "Wielkie Rychnowo", "addr:postcode": "87-410", "amenity": "pharmacy", "dispensing": "yes", "name:signed": "no", "ref:csioz": "1105373"}}, {"type": "node", "id": 9606486012, "lat": 53.103973, "lon": 19.0549772, "tags": {"addr:city": "Golub-Dobrzy\u0144", "addr:housenumber": "12", "addr:postcode": "87-400", "addr:street": "Marii Konopnickiej", "amenity": "pharmacy", "dispensing": "yes", "healthcare": "pharmacy", "name": "Apteka Osiedlowa", "ref:csioz": "1103704"}}, {"type": "node", "id": 9606493229, "lat": 53.2101121, "lon": 19.1719809, "tags": {"addr:housenumber": "86", "addr:place": "Wrocki", "addr:postcode": "87-423", "amenity": "pharmacy", "dispensing": "yes", "ref:csioz": "1105121"}}, {"type": "node", "id": 9606504993, "lat": 53.0866567, "lon": 19.1959016, "tags": {"addr:housenumber": "10", "addr:place": "Radomin", "addr:postcode": "87-404", "amenity": "pharmacy", "brand": "Dbam o Zdrowie", "brand:wikidata": "Q62563833", "check_date": "2025-05-03", "dispensing": "yes", "healthcare": "pharmacy", "name": "Dbam o Zdrowie", "short_name": "DOZ"}}, {"type": "node", "id": 9609547845, "lat": 53.2609247, "lon": 19.383529, "tags": {"addr:city": "Brodnica", "addr:housenumber": "1", "addr:postcode": "87-300", "addr:street": "Zawiszy Czarnego", "amenity": "pharmacy", "dispensing": "yes", "healthcare": "pharmacy", "name": "Adonis, Green Cross", "ref:csioz": "1102337"}}, {"type": "node", "id": 9609565035, "lat": 53.1684644, "lon": 19.3858676, "tags": {"addr:housenumber": "82", "addr:place": "Osiek", "addr:postcode": "87-340", "amenity": "pharmacy", "dispensing": "yes", "ref:csioz": "1105215"}}, {"type": "node", "id": 9609582108, "lat": 53.2488457, "lon": 19.4112708, "tags": {"addr:city": "Brodnica", "addr:housenumber": "2A", "addr:postcode": "87-300", "addr:street": "Stanis\u0142awa Wyspia\u0144skiego", "amenity": "pharmacy", "dispensing": "yes", "name": "Avena-Bis", "ref:csioz": "1102384"}}, {"type": "node", "id": 9609595135, "lat": 53.2526353, "lon": 19.4005563, "tags": {"addr:city": "Brodnica", "addr:housenumber": "7", "addr:postcode": "87-300", "addr:street": "Mazurska", "amenity": "pharmacy", "dispensing": "yes", "healthcare": "pharmacy", "name": "Wracam Do Zdrowia", "ref:csioz": "1180776"}}, {"type": "node", "id": 9609597765, "lat": 53.2870325, "lon": 19.2708968, "tags": {"addr:housenumber": "21", "addr:place": "Bobrowo", "addr:postcode": "87-327", "amenity": "pharmacy", "dispensing": "yes", "name": "Doz Apteka.Dbam O Zdrowie.Bobrowo 21.", "ref:csioz": "1103821"}}, {"type": "node", "id": 9609620892, "lat": 53.2662546, "lon": 19.1579317, "tags": {"addr:housenumber": "39", "addr:place": "Nie\u017cywi\u0119\u0107", "addr:postcode": "87-326", "amenity": "pharmacy", "dispensing": "yes", "ref:csioz": "1105231"}}, {"type": "node", "id": 9609635750, "lat": 53.2471389, "lon": 19.4088374, "tags": {"addr:city": "Brodnica", "addr:housenumber": "6", "addr:postcode": "87-300", "addr:street": "Stanis\u0142awa Wyspia\u0144skiego", "amenity": "pharmacy", "dispensing": "yes", "healthcare": "pharmacy", "name": "Rodzinna, Green Cross", "ref:csioz": "1102345", "wheelchair": "limited"}}, {"type": "node", "id": 10218255688, "lat": 53.3331642, "lon": 19.3767386, "tags": {"amenity": "pharmacy", "dispensing": "yes", "healthcare": "pharmacy", "name": "Punkt Apteczny", "ref:csioz": "1105137"}}, {"type": "node", "id": 10218338223, "lat": 53.016458, "lon": 19.0559726, "tags": {"amenity": "pharmacy", "dispensing": "yes", "healthcare": "pharmacy", "name": "Punkt Apteczny Dzia\u0142y\u0144ski", "ref:csioz": "1231220"}}, {"type": "node", "id": 10220346573, "lat": 52.9706881, "lon": 18.8793039, "tags": {"amenity": "pharmacy", "brand": "Dr. Max", "brand:wikidata": "Q56317371", "dispensing": "yes", "healthcare": "pharmacy", "name": "Punkt Apteczny Dr. Max", "ref:csioz": "1105336"}}, {"type": "node", "id": 11418152250, "lat": 53.2681838, "lon": 18.9645926}, {"type": "node", "id": 11418198584, "lat": 53.2682097, "lon": 18.9648282}, {"type": "node", "id": 12842392347, "lat": 53.2682589, "lon": 18.9646008}, {"type": "node", "id": 12842392348, "lat": 53.2682899, "lon": 18.964792}, {"type": "node", "id": 12842392351, "lat": 53.2681715, "lon": 18.9645981}, {"type": "way", "id": 286245697, "nodes": [2898942144, 5480595001, 2898942146, 2898942147, 2898942144], "tags": {"addr:city": "Golub-Dobrzy\u0144", "addr:housenumber": "7A", "addr:postcode": "87-400", "addr:street": "Marii Konopnickiej", "amenity": "pharmacy", "building": "yes", "dispensing": "yes", "name": "Apteka Puls", "opening_hours": "Mo-Fr 08:00-19:00, Sa 08:00-16:00", "ref:csioz": "1206119"}}, {"type": "way", "id": 395790240, "nodes": [3986064352, 3986064300, 3986064253, 3986064288, 3986064352], "tags": {"addr:city": "Golub-Dobrzy\u0144", "addr:housenumber": "4/6", "addr:postcode": "87-400", "addr:street": "Pod Arkadami", "amenity": "pharmacy", "building": "retail", "dispensing": "yes", "healthcare": "pharmacy", "name": "Dobra", "ref:csioz": "1103761"}}, {"type": "way", "id": 1387308354, "nodes": [12842392348, 11418198584, 12842392351, 11418152250, 12842392347, 12842392348], "tags": {"amenity": "pharmacy"}}]}