{"version": 0.6, "generator": "Overpass API 0.7.62.8 e802775f", "osm3s": {"timestamp_osm_base": "2025-10-06T07:54:35Z", "copyright": "The data included in this document is from www.openstreetmap.org. The data is made available under ODbL."}, "elements": [{"type": "node", "id": 1122601139, "lat": 42.224914, "lon": 20.7298712, "tags": {"amenity": "pharmacy", "name": "Depo Parafarmaceutike \"SHEMO\"", "operator": "ahmeti.eu"}}, {"type": "node", "id": 1298871586, "lat": 42.2232853, "lon": 20.7330446, "tags": {"amenity": "pharmacy", "dispensing": "no", "name": "Luma"}}, {"type": "node", "id": 1650180955, "lat": 42.2237666, "lon": 20.7114621, "tags": {"amenity": "pharmacy", "name": "Barnatore"}}, {"type": "node", "id": 1675722426, "lat": 42.2169919, "lon": 20.7433631, "tags": {"amenity": "pharmacy"}}, {"type": "node", "id": 1839050261, "lat": 42.2153932, "lon": 20.7301642, "tags": {"amenity": "pharmacy", "name": "Barnatorja Arb\u00ebri"}}, {"type": "node", "id": 3992141631, "lat": 42.214065, "lon": 20.7314963, "tags": {"amenity": "pharmacy"}}, {"type": "node", "id": 3992141632, "lat": 42.2137709, "lon": 20.7321535, "tags": {"amenity": "pharmacy"}}, {"type": "node", "id": 3992141633, "lat": 42.2139736, "lon": 20.731735, "tags": {"amenity": "pharmacy"}}, {"type": "node", "id": 4515631172, "lat": 42.2230511, "lon": 20.7476069}, {"type": "node", "id": 4515631173, "lat": 42.2230789, "lon": 20.7478108}, {"type": "node", "id": 4515631174, "lat": 42.2228048, "lon": 20.7478644}, {"type": "node", "id": 4515631175, "lat": 42.2227929, "lon": 20.7476499}, {"type": "node", "id": 6332911391, "lat": 42.3637088, "lon": 20.7400411, "tags": {"addr:city": "Samadrexh\u00eb", "addr:street": "Feim Morina", "amenity": "pharmacy", "dispensing": "yes", "healthcare": "pharmacy", "name": "Barnatore"}}, {"type": "node", "id": 7221097594, "lat": 42.3315477, "lon": 20.7261526, "tags": {"addr:city": "Mamu\u015fa - Mamush\u00eb", "addr:housenumber": "3", "addr:postcode": "20540", "addr:street": "Saat Kulesi\u0307", "amenity": "pharmacy", "dispensing": "yes", "drive_through": "no", "healthcare": "pharmacy", "name": "H\u0130KMET KR\u00dcEZ\u0130", "opening_hours": "Mo-Su 08:00-20:00"}}, {"type": "node", "id": 7450262403, "lat": 42.1643836, "lon": 20.6182936, "tags": {"addr:city": "Zhur", "addr:place": "200", "addr:postcode": "20520", "amenity": "pharmacy", "name": "Barnatore"}}, {"type": "node", "id": 7458679400, "lat": 42.1640834, "lon": 20.6183955, "tags": {"addr:city": "Zhur", "addr:postcode": "20520", "addr:street": "Marsi 89", "amenity": "pharmacy", "name": "Barnatore Lindi"}}, {"type": "node", "id": 7869915185, "lat": 42.318857, "lon": 20.6361121, "tags": {"addr:housenumber": "1", "addr:postcode": "20000", "addr:street": "Muhamed Malsori", "amenity": "pharmacy", "email": "jeton.xhafiqi@gmail.com", "name": "Barnatore \u201cTONI PHARM SHPK", "name:en": "Pharmacy Apoteca", "name:sq": "Barnatore \u201cTONI PHARM SHPK\u201d", "name:sr": "Pharmacy", "opening_hours": "Mo-Su 07:00-23:00", "phone": "+38349963344"}}, {"type": "node", "id": 8659879712, "lat": 42.3616821, "lon": 20.5951428}, {"type": "node", "id": 8659879713, "lat": 42.3617261, "lon": 20.595286}, {"type": "node", "id": 8659879714, "lat": 42.3616128, "lon": 20.5953421}, {"type": "node", "id": 8659879715, "lat": 42.3615679, "lon": 20.5951394}, {"type": "node", "id": 8659879716, "lat": 42.361628, "lon": 20.5951291}, {"type": "node", "id": 8797911935, "lat": 42.2061441, "lon": 20.7327911, "tags": {"amenity": "pharmacy", "name": "Barnatore \"Hygea 2\""}}, {"type": "node", "id": 8797916849, "lat": 42.206026, "lon": 20.7327491, "tags": {"amenity": "pharmacy", "name": "Barnatore \"Hygea 2\""}}, {"type": "node", "id": 8799952813, "lat": 42.2176506, "lon": 20.739055, "tags": {"addr:street": "Edit Durham", "amenity": "pharmacy", "healthcare": "pharmacy", "name": "Aspirin"}}, {"type": "node", "id": 8800285935, "lat": 42.2176759, "lon": 20.7432232, "tags": {"addr:street": "Ahmet Prishtina", "amenity": "pharmacy", "name": "Barnatore"}}, {"type": "node", "id": 8806403343, "lat": 42.2150729, "lon": 20.7324714, "tags": {"amenity": "pharmacy", "name": "Bio Shop Herbalkos"}}, {"type": "node", "id": 8806509299, "lat": 42.2156974, "lon": 20.7324861, "tags": {"amenity": "pharmacy", "name": "Barnatore Bujqesore Agroniti"}}, {"type": "node", "id": 8806520256, "lat": 42.2144619, "lon": 20.7321155, "tags": {"amenity": "pharmacy", "name": "CaliVita"}}, {"type": "node", "id": 8806584391, "lat": 42.2179208, "lon": 20.7431072, "tags": {"addr:street": "Ahmet Prishtina", "amenity": "pharmacy", "name": "Barnatore"}}, {"type": "node", "id": 8811049720, "lat": 42.2099306, "lon": 20.7380422, "tags": {"addr:street": "remzi ademaj", "amenity": "pharmacy", "check_date": "2023-06-30", "name": "Green pharmacy", "opening_hours": "08:00-24:00", "wheelchair": "yes"}}, {"type": "node", "id": 9124938233, "lat": 42.2167107, "lon": 20.7428394, "tags": {"amenity": "pharmacy", "healthcare": "pharmacy", "name": "Crystal"}}, {"type": "node", "id": 9124938244, "lat": 42.2066757, "lon": 20.7373463, "tags": {"amenity": "pharmacy"}}, {"type": "node", "id": 9124938318, "lat": 42.2115733, "lon": 20.7344486, "tags": {"amenity": "pharmacy"}}, {"type": "node", "id": 9124938618, "lat": 42.2139522, "lon": 20.7322446, "tags": {"amenity": "pharmacy"}}, {"type": "node", "id": 9124938817, "lat": 42.2146049, "lon": 20.7300025, "tags": {"amenity": "pharmacy"}}, {"type": "node", "id": 9124938826, "lat": 42.2145387, "lon": 20.7361887, "tags": {"amenity": "pharmacy"}}, {"type": "node", "id": 9713346109, "lat": 42.215933, "lon": 20.7266448, "tags": {"amenity": "pharmacy", "dispensing": "yes", "healthcare": "pharmacy"}}, {"type": "node", "id": 10170058840, "lat": 42.2102702, "lon": 20.7330729, "tags": {"amenity": "pharmacy", "healthcare": "pharmacy", "name": "Adisa", "opening_hours": "07:00-23:00"}}, {"type": "node", "id": 10174117217, "lat": 42.1744864, "lon": 20.8147923, "tags": {"amenity": "pharmacy", "opening_hours": "Mo-Su 08:00-23:00"}}, {"type": "node", "id": 10860815305, "lat": 42.2093021, "lon": 20.72847, "tags": {"addr:postcode": "20080", "addr:street": "Viliam Vokeri", "amenity": "pharmacy", "email": "vjosahoti_1@hotmail.com", "name": "Dr. Vjosa Pharm", "opening_hours": "Mo-Su 07:00-23:00", "phone": "+383 49 834 281"}}, {"type": "node", "id": 11016395829, "lat": 42.2122648, "lon": 20.744207, "tags": {"amenity": "pharmacy", "check_date": "2023-06-30", "healthcare": "pharmacy", "name": "Almir Pharm"}}, {"type": "node", "id": 11017461099, "lat": 42.2157091, "lon": 20.7464202, "tags": {"amenity": "pharmacy", "check_date": "2023-07-01", "healthcare": "pharmacy", "name": "Era", "wheelchair": "no"}}, {"type": "node", "id": 11107046105, "lat": 42.2307943, "lon": 20.7566836, "tags": {"amenity": "pharmacy", "name": "Pharmacy"}}, {"type": "node", "id": 12890338992, "lat": 42.2517049, "lon": 20.7078171, "tags": {"amenity": "pharmacy", "check_date": "2025-06-06", "healthcare": "pharmacy"}}, {"type": "way", "id": 455119270, "nodes": [4515631172, 4515631173, 4515631174, 4515631175, 4515631172], "tags": {"amenity": "pharmacy", "building": "yes"}}, {"type": "way", "id": 934392685, "nodes": [8659879712, 8659879713, 8659879714, 8659879715, 8659879716, 8659879712], "tags": {"addr:city": "Fortes\u00eb\\Bellac\u00ebrk\u00eb", "addr:housenumber": "151", "addr:street": "Agim Kelmendi", "amenity": "pharmacy", "building": "yes", "dispensing": "yes", "healthcare": "pharmacy", "opening_hours": "Mo-Sa 08:00-20:00"}}]}