{"version": 0.6, "generator": "Overpass API 0.7.62.8 e802775f", "osm3s": {"timestamp_osm_base": "2025-10-06T08:12:00Z", "copyright": "The data included in this document is from www.openstreetmap.org. The data is made available under ODbL."}, "elements": [{"type": "node", "id": 928418679, "lat": 45.1211514, "lon": 21.3009494, "tags": {"amenity": "pharmacy", "int_name": "Menta", "name": "\u041c\u0435\u043d\u0442\u0430", "name:sr": "\u041c\u0435\u043d\u0442\u0430", "name:sr-Latn": "Menta"}}, {"type": "node", "id": 1106846517, "lat": 45.1172528, "lon": 21.2977747, "tags": {"amenity": "pharmacy", "name": "\u0415\u0432\u0435\u043b\u0438\u043d", "name:en": "Evelin", "name:sr": "\u0415\u0432\u0435\u043b\u0438\u043d", "name:sr-Latn": "Evelin"}}, {"type": "node", "id": 1394133109, "lat": 45.1131715, "lon": 21.2992265, "tags": {"amenity": "pharmacy"}}, {"type": "node", "id": 1408971922, "lat": 45.1226163, "lon": 21.2964402, "tags": {"amenity": "pharmacy", "healthcare": "pharmacy", "name": "\u0412\u0430\u0440\u043e\u0448", "name:en": "Varos", "name:sr": "\u0412\u0430\u0440\u043e\u0448", "name:sr-Latn": "Varo\u0161"}}, {"type": "node", "id": 1598000975, "lat": 45.0426163, "lon": 21.1567037, "tags": {"amenity": "pharmacy", "dispensing": "no", "int_name": "Uljma", "name": "\u0423\u0459\u043c\u0430", "name:sr": "\u0423\u0459\u043c\u0430", "name:sr-Latn": "Uljma"}}, {"type": "node", "id": 4163620589, "lat": 45.1080541, "lon": 21.2837602, "tags": {"amenity": "pharmacy", "healthcare": "pharmacy", "name": "Goodwill"}}, {"type": "node", "id": 9831733155, "lat": 45.1215762, "lon": 21.2998068, "tags": {"addr:city": "\u0412\u0440\u0448\u0430\u0446", "addr:housenumber": "3-7", "addr:postcode": "26300", "addr:street": "\u0402\u0443\u0440\u0435 \u0408\u0430\u043a\u0448\u0438\u045b\u0430", "amenity": "pharmacy", "dispensing": "yes", "healthcare": "pharmacy", "name": "Zdravlje"}}, {"type": "node", "id": 10282075359, "lat": 45.1265593, "lon": 21.3000538, "tags": {"amenity": "pharmacy", "brand": "Benu", "brand:wikidata": "Q62562792", "healthcare": "pharmacy", "name": "Benu"}}, {"type": "node", "id": 11704452539, "lat": 45.121723, "lon": 21.3071249, "tags": {"amenity": "pharmacy", "healthcare": "pharmacy", "int_name": "Lek", "name": "\u041b\u0435\u043a", "name:sr": "\u041b\u0435\u043a", "name:sr-Latn": "Lek"}}]}