{"version": 0.6, "generator": "Overpass API 0.7.62.8 e802775f", "osm3s": {"timestamp_osm_base": "2025-10-06T08:40:23Z", "copyright": "The data included in this document is from www.openstreetmap.org. The data is made available under ODbL."}, "elements": [{"type": "node", "id": 371628257, "lat": 50.4799729, "lon": 23.0550259, "tags": {"addr:city": "J\u00f3zef\u00f3w", "addr:housenumber": "1", "addr:postcode": "23-460", "addr:street": "Wojska Polskiego", "amenity": "pharmacy", "dispensing": "yes", "healthcare": "pharmacy", "note": "adres apteki jest inny ni\u017c adres budynku", "opening_hours": "Mo-Fr 08:00-18:00; Sa 08:00-13:00", "phone": "+48 84 687 88 10", "ref:csioz": "1154784", "source:addr": "EMUiA (emuia.gugik.gov.pl)"}}, {"type": "node", "id": 371648749, "lat": 50.4808196, "lon": 23.0545184, "tags": {"amenity": "pharmacy", "dispensing": "yes", "healthcare": "pharmacy", "name": "Domowa", "opening_hours": "Mo-Fr 08:00-18:00; Sa 08:00-15:00", "phone": "+48 84 687 80 14", "ref:csioz": "1154303"}}, {"type": "node", "id": 1401578993, "lat": 50.1579938, "lon": 23.1227378, "tags": {"amenity": "pharmacy", "dispensing": "yes", "healthcare": "pharmacy", "name": "Apteka Medica", "opening_hours": "Mo-Fr 08:00-19:00; Sa 08:00-14:00", "ref:csioz": "1143416"}}, {"type": "node", "id": 2266777067, "lat": 50.1575116, "lon": 23.1259056, "tags": {"amenity": "pharmacy", "dispensing": "yes", "healthcare": "pharmacy", "name": "Arnica", "opening_hours": "Mo-Fr 08:00-19:00; Sa 08:00-20:00", "ref:csioz": "1143381"}}, {"type": "node", "id": 2266777069, "lat": 50.1587888, "lon": 23.1193569, "tags": {"addr:city": "Lubacz\u00f3w", "addr:housenumber": "3c", "addr:postcode": "37-600", "addr:street": "Osiedle Unii Lubelskiej", "amenity": "pharmacy", "dispensing": "yes", "healthcare": "pharmacy", "name": "Pharmex", "opening_hours": "Mo-Fr 08:00-20:00; Sa 08:00-16:00", "ref:csioz": "1143397"}}, {"type": "node", "id": 2490977438, "lat": 50.1587783, "lon": 23.1228698, "tags": {"amenity": "pharmacy", "dispensing": "yes", "healthcare": "pharmacy", "name": "Dr.Max", "opening_hours": "Mo-Fr 07:30-21:00; Sa 08:00-16:00", "ref:csioz": "1143403", "website": "https://www.drmax.pl/"}}, {"type": "node", "id": 2500168233, "lat": 50.3612394, "lon": 22.7427054, "tags": {"addr:city": "Tarnogr\u00f3d", "addr:housenumber": "75", "addr:postcode": "23-420", "addr:street": "Rynek", "amenity": "pharmacy", "dispensing": "yes", "healthcare": "pharmacy", "name": "Apteka od Serca", "opening_hours": "Mo-Fr 07:00-19:00; Sa 07:00-15:00", "ref:csioz": "1170278", "source:addr": "EMUiA (emuia.geoportal.gov.pl)"}}, {"type": "node", "id": 2500168446, "lat": 50.3597292, "lon": 22.7431105, "tags": {"amenity": "pharmacy", "dispensing": "yes", "healthcare": "pharmacy", "name": "Apteka Prywatna Mgr Farm. Julita Majcher", "opening_hours": "Mo-Fr 08:00-18:00; Sa 08:00-13:00", "phone": "+48 84 689 83 35", "ref:csioz": "1154807"}}, {"type": "node", "id": 2841291549, "lat": 50.1574349, "lon": 23.1209769, "tags": {"amenity": "pharmacy", "dispensing": "yes", "healthcare": "pharmacy", "name": "Apteka Medica", "opening_hours": "Mo-Fr 07:30-20:00; Sa 08:00-15:00", "ref:csioz": "1202867"}}, {"type": "node", "id": 3074242068, "lat": 50.4142713, "lon": 23.2211075, "tags": {"amenity": "pharmacy", "dispensing": "yes", "healthcare": "pharmacy", "opening_hours": "Mo-Fr 08:00-18:00; Sa 09:00-13:00", "phone": "+48 792754006", "ref:csioz": "1154700"}}, {"type": "node", "id": 3439451496, "lat": 50.3813104, "lon": 22.9076383, "tags": {"amenity": "pharmacy", "dispensing": "yes", "healthcare": "pharmacy", "name": "Apteka Marianna Garbacz", "opening_hours": "Mo-Fr 08:00-16:00; Sa 08:00-12:00", "phone": "+48 84 687 40 22", "ref:csioz": "1154981"}}, {"type": "node", "id": 3439451547, "lat": 50.3740002, "lon": 22.945121, "tags": {"amenity": "pharmacy", "dispensing": "yes", "healthcare": "pharmacy", "name": "Apteka", "opening_hours": "Mo-Sa 08:00-15:00", "phone": "+48 84 687 43 99", "ref:csioz": "1154177"}}, {"type": "node", "id": 4635678352, "lat": 50.3598334, "lon": 22.7416125, "tags": {"amenity": "pharmacy", "dispensing": "yes", "healthcare": "pharmacy", "opening_hours": "Mo-Fr 08:00-18:00; Sa 08:00-14:00", "phone": "+48 84 689 70 09", "ref:csioz": "1155022"}}, {"type": "node", "id": 4635678353, "lat": 50.315725, "lon": 22.9560138, "tags": {"amenity": "pharmacy", "dispensing": "yes", "healthcare": "pharmacy", "name": "Apteka Mgr Farm. Jolanta Wa\u017cna", "opening_hours": "Mo-Fr 08:00-18:00; Sa 08:00-15:00", "phone": "+48 84 689 10 50", "ref:csioz": "1154792", "wheelchair": "yes"}}, {"type": "node", "id": 4635678376, "lat": 50.4666187, "lon": 22.8836116, "tags": {"amenity": "pharmacy", "dispensing": "yes", "email": "aptekaaleksandrow@op.pl", "healthcare": "pharmacy", "name": "Silavita", "opening_hours": "Mo-Fr 08:00-16:00; Sa 08:00-12:00", "phone": "+48 84 687 51 37", "ref:csioz": "1231083"}}, {"type": "node", "id": 4687866017, "lat": 50.4695691, "lon": 22.741237}, {"type": "node", "id": 4687866018, "lat": 50.4695595, "lon": 22.741366}, {"type": "node", "id": 4687866019, "lat": 50.4693868, "lon": 22.7413341}, {"type": "node", "id": 4687866020, "lat": 50.4693965, "lon": 22.7412051}, {"type": "node", "id": 5713118996, "lat": 50.4248686, "lon": 22.7379202, "tags": {"amenity": "pharmacy", "healthcare": "pharmacy", "name": "Apteka od Serca", "opening_hours": "Mo-Fr 08:00-18:00; Sa 08:00-12:00", "ref:csioz": "1213012"}}, {"type": "node", "id": 7620359984, "lat": 50.4132298, "lon": 23.2191799, "tags": {"amenity": "pharmacy", "dispensing": "yes", "healthcare": "pharmacy", "name": "Apteka DOZ", "opening_hours": "Mo-Fr 09:00-18:00; Sa 08:00-13:00", "ref:csioz": "1154240"}}, {"type": "node", "id": 9216711233, "lat": 50.2459795, "lon": 23.1290972, "tags": {"amenity": "pharmacy", "brand": "Apteka Rodzinna", "dispensing": "yes", "healthcare": "pharmacy", "name": "Apteka Rodzinna", "opening_hours": "Mo-Fr 08:00-16:00; Sa 08:00-14:00", "phone": "692 031 693", "ref:csioz": "1200767"}}, {"type": "node", "id": 9540439021, "lat": 50.1906587, "lon": 23.3627862, "tags": {"amenity": "pharmacy", "dispensing": "yes", "healthcare": "pharmacy", "opening_hours": "Mo-Fr 08:00-18:00; Sa 08:00-16:00", "phone": "16 631 3009", "ref:csioz": "1143356"}}, {"type": "node", "id": 9540453164, "lat": 50.244759, "lon": 22.9332613, "tags": {"addr:city": "Stary Dzik\u00f3w", "addr:city:simc": "0611554", "addr:housenumber": "74", "addr:postcode": "37-632", "addr:street": "Tadeusza Ko\u015bciuszki", "addr:street:sym_ul": "09582", "amenity": "pharmacy", "dispensing": "yes", "healthcare": "pharmacy", "opening_hours": "Mo-We 08:10-15:30; Th 08:10-16:30; Fr 08:10-16:30; Sa 09:00-13:00", "phone": "16633 07 07", "ref:csioz": "1143475"}}, {"type": "node", "id": 9540453226, "lat": 50.1909695, "lon": 23.3631, "tags": {"amenity": "pharmacy", "dispensing": "yes", "healthcare": "pharmacy", "name": "Apteka Medica", "opening_hours": "Mo-Fr 08:00-17:00; Sa 08:00-14:00", "phone": "1663137 87", "ref:csioz": "1202851"}}, {"type": "node", "id": 9540462639, "lat": 50.245421, "lon": 23.132607, "tags": {"amenity": "pharmacy", "dispensing": "yes", "healthcare": "pharmacy", "name": "Galium", "opening_hours": "Mo-Fr 08:00-17:00; Sa 08:00-14:00", "phone": "16 631 19 55", "ref:csioz": "1143324"}}, {"type": "node", "id": 9540504236, "lat": 50.3220732, "lon": 23.1810987, "tags": {"amenity": "pharmacy", "dispensing": "yes", "email": "jolantalipian@o2.pl", "healthcare": "pharmacy", "name": "Punkt apteczny", "opening_hours": "Mo-Fr 08:00-16:00", "phone": "16 675 91 40", "ref:csioz": "1229908"}}, {"type": "node", "id": 9540520031, "lat": 50.168599, "lon": 23.0303183, "tags": {"amenity": "pharmacy", "dispensing": "yes", "email": "aptekarodzinnaoleszyce@wp.pl", "healthcare": "pharmacy", "name": "Rodzinna", "opening_hours": "Mo-Fr 08:00-18:00; Sa 08:00-14:00", "phone": "16 631 50 25", "ref:csioz": "1143442"}}, {"type": "node", "id": 9540523967, "lat": 50.1677932, "lon": 23.0333143, "tags": {"amenity": "pharmacy", "dispensing": "yes", "healthcare": "pharmacy", "name": "Lobelia", "opening_hours": "Mo-Fr 08:00-18:00; Sa 08:00-13:00", "phone": "16 631 56 12", "ref:csioz": "1143450"}}, {"type": "node", "id": 9543486123, "lat": 50.4806457, "lon": 23.055174, "tags": {"amenity": "pharmacy", "healthcare": "pharmacy", "name": "Centrum Farmaceutyczne Vita Pharma", "ref:csioz": "1206836"}}, {"type": "node", "id": 9543486924, "lat": 50.3814662, "lon": 22.9067944, "tags": {"amenity": "pharmacy", "email": "mojaapteka.lukowa@gmail.com", "healthcare": "pharmacy", "name": "Apteka od Serca", "phone": "+48 84 611 11 90", "ref:csioz": "1214095"}}, {"type": "node", "id": 9550277132, "lat": 50.2577402, "lon": 22.6976805, "tags": {"amenity": "pharmacy", "name": "Punkt apteczny", "ref:csioz": "1141391"}}, {"type": "node", "id": 9550773393, "lat": 50.4583536, "lon": 23.1734728, "tags": {"amenity": "pharmacy", "dispensing": "yes", "healthcare": "pharmacy", "opening_hours": "Mo-Fr 08:00-15:00", "ref:csioz": "1191142"}}, {"type": "node", "id": 9552299338, "lat": 50.15814, "lon": 23.123591, "tags": {"amenity": "pharmacy", "dispensing": "yes", "healthcare": "pharmacy", "name": "R\u00f3\u017cana", "opening_hours": "Mo-Fr 07:00-21:00; Sa 07:00-17:00", "ref:csioz": "1220053"}}, {"type": "node", "id": 9552299343, "lat": 50.171104, "lon": 23.123345, "tags": {"amenity": "pharmacy", "dispensing": "yes", "healthcare": "pharmacy", "name": "Antidotum", "opening_hours": "Mo-Fr 08:00-20:00; Sa 08:00-21:00", "ref:csioz": "1165919"}}, {"type": "node", "id": 9552644989, "lat": 50.0778872, "lon": 22.7155158, "tags": {"amenity": "pharmacy", "dispensing": "yes", "healthcare": "pharmacy", "name": "Apteka Lafarma", "opening_hours": "Mo-Fr 04:30-18:00; Sa 05:00-13:00", "ref:csioz": "1183259"}}, {"type": "node", "id": 9552645003, "lat": 50.0902769, "lon": 22.8799956, "tags": {"amenity": "pharmacy", "dispensing": "yes", "healthcare": "pharmacy", "opening_hours": "Mo-Fr 08:15-15:00", "ref:csioz": "1165240"}}, {"type": "node", "id": 12655861723, "lat": 50.3999425, "lon": 22.6520007, "tags": {"amenity": "pharmacy", "healthcare": "pharmacy"}}, {"type": "way", "id": 474934405, "nodes": [4687866017, 4687866018, 4687866019, 4687866020, 4687866017], "tags": {"addr:city:simc": "0892323", "addr:housenumber": "38", "addr:place": "Majdan Nowy", "addr:postcode": "23-414", "amenity": "pharmacy", "building": "yes", "dispensing": "yes", "email": "punktapteczny38@o2.pl", "healthcare": "pharmacy", "name": "Punkt Apteczny", "opening_hours": "Mo-Fr 08:00-17:00; Sa 08:00-13:00", "ref:csioz": "1191422", "source:addr": "gugik.gov.pl"}}]}