{"version": 0.6, "generator": "Overpass API 0.7.62.8 e802775f", "osm3s": {"timestamp_osm_base": "2025-10-06T08:20:01Z", "copyright": "The data included in this document is from www.openstreetmap.org. The data is made available under ODbL."}, "elements": [{"type": "node", "id": 334369566, "lat": 48.8508726, "lon": 20.9338533, "tags": {"amenity": "pharmacy", "dispensing": "no"}}, {"type": "node", "id": 388481101, "lat": 48.9179976, "lon": 20.874972, "tags": {"amenity": "pharmacy", "name": "Mestsk\u00e1 lek\u00e1re\u0148"}}, {"type": "node", "id": 469752423, "lat": 48.9442749, "lon": 20.5697695, "tags": {"amenity": "pharmacy", "dispensing": "yes", "name": "Na n\u00e1mest\u00ed"}}, {"type": "node", "id": 502188535, "lat": 48.9137958, "lon": 20.8735457, "tags": {"amenity": "pharmacy", "dispensing": "yes", "name": "\u0160alvia"}}, {"type": "node", "id": 503642958, "lat": 48.9995828, "lon": 20.7537602, "tags": {"amenity": "pharmacy", "dispensing": "yes"}}, {"type": "node", "id": 503642988, "lat": 48.9996042, "lon": 20.7518571, "tags": {"amenity": "pharmacy", "dispensing": "yes", "name": "Zdravie"}}, {"type": "node", "id": 717860895, "lat": 48.8550555, "lon": 21.2192784}, {"type": "node", "id": 717862858, "lat": 48.8548804, "lon": 21.219292}, {"type": "node", "id": 717863066, "lat": 48.8548152, "lon": 21.2194757}, {"type": "node", "id": 717863571, "lat": 48.8550243, "lon": 21.2195394}, {"type": "node", "id": 717866149, "lat": 48.8550052, "lon": 21.2193242}, {"type": "node", "id": 717866793, "lat": 48.8548414, "lon": 21.2192344}, {"type": "node", "id": 717867707, "lat": 48.8550124, "lon": 21.2192679}, {"type": "node", "id": 717868238, "lat": 48.8548833, "lon": 21.2192432}, {"type": "node", "id": 736205087, "lat": 48.922174, "lon": 20.9380492}, {"type": "node", "id": 736205113, "lat": 48.922295, "lon": 20.9382667}, {"type": "node", "id": 736205135, "lat": 48.9223271, "lon": 20.9381533}, {"type": "node", "id": 736205164, "lat": 48.9221407, "lon": 20.9381637}, {"type": "node", "id": 768493136, "lat": 49.1035091, "lon": 21.0931351, "tags": {"amenity": "pharmacy", "healthcare": "pharmacy", "name": "Diana"}}, {"type": "node", "id": 768493140, "lat": 49.1028829, "lon": 21.0977786, "tags": {"amenity": "pharmacy", "brand": "Schneider", "brand:wikidata": "Q93514377", "healthcare": "pharmacy", "name": "Schneider"}}, {"type": "node", "id": 869933364, "lat": 48.8403968, "lon": 20.6173906}, {"type": "node", "id": 869933373, "lat": 48.8404916, "lon": 20.6172986}, {"type": "node", "id": 869933374, "lat": 48.8405545, "lon": 20.6174479}, {"type": "node", "id": 869933375, "lat": 48.8404081, "lon": 20.61759}, {"type": "node", "id": 869933376, "lat": 48.8403453, "lon": 20.6174406}, {"type": "node", "id": 988120660, "lat": 48.9483887, "lon": 20.7950139, "tags": {"amenity": "pharmacy", "name": "Arnica", "source": "survey"}}, {"type": "node", "id": 1365907181, "lat": 48.8915445, "lon": 21.0108864, "tags": {"amenity": "pharmacy", "name": "Margeciana", "opening_hours": "Mo-Fr 08:00-15:00"}}, {"type": "node", "id": 1423356411, "lat": 48.9987856, "lon": 20.943237, "tags": {"amenity": "pharmacy"}}, {"type": "node", "id": 1446533893, "lat": 48.8510191, "lon": 20.9338576, "tags": {"amenity": "pharmacy", "dispensing": "no", "name": "Remedia"}}, {"type": "node", "id": 2201327945, "lat": 49.0254895, "lon": 20.5894117, "tags": {"amenity": "pharmacy", "drive_through": "no", "name": "Lek\u00e1re\u0148 U Leva", "opening_hours": "08:00-18:00", "operator": "COMPOSTELA s.r.o.", "source": "local klowledge - baramat"}}, {"type": "node", "id": 2364452942, "lat": 48.904082, "lon": 20.8707043, "tags": {"amenity": "pharmacy", "brand": "Dr. Max", "brand:wikidata": "Q56317371", "healthcare": "pharmacy", "name": "Dr. Max"}}, {"type": "node", "id": 2598823581, "lat": 48.8566653, "lon": 20.9344176, "tags": {"amenity": "pharmacy", "dispensing": "no", "name": "Dr.Max"}}, {"type": "node", "id": 2676989449, "lat": 48.9177737, "lon": 21.1174537, "tags": {"amenity": "pharmacy", "dispensing": "no"}}, {"type": "node", "id": 2891381763, "lat": 49.1227976, "lon": 21.0481473, "tags": {"amenity": "pharmacy"}}, {"type": "node", "id": 3183678970, "lat": 49.0259344, "lon": 20.5792526, "tags": {"amenity": "pharmacy", "healthcare": "pharmacy", "name": "Lekare\u0148 U Barborky", "opening_hours": "Mo-Fr 08:30-12:00, 13:00-17:00; Sa 09:00-12:00"}}, {"type": "node", "id": 3400045003, "lat": 48.9475207, "lon": 20.5602878, "tags": {"amenity": "pharmacy", "name": "Bonus"}}, {"type": "node", "id": 3400045004, "lat": 48.9356016, "lon": 20.574773, "tags": {"amenity": "pharmacy", "name": "Dr.Max", "wheelchair": "yes"}}, {"type": "node", "id": 3400045005, "lat": 48.9473659, "lon": 20.5540606, "tags": {"amenity": "pharmacy", "name": "Dr.Max", "opening_hours": "Mo-Su 08:00-20:00"}}, {"type": "node", "id": 3400045006, "lat": 48.9561984, "lon": 20.5675158, "tags": {"amenity": "pharmacy", "name": "Dr.Max"}}, {"type": "node", "id": 3400045007, "lat": 48.9429291, "lon": 20.5691903, "tags": {"amenity": "pharmacy", "name": "Elix\u00edr"}}, {"type": "node", "id": 3400045008, "lat": 48.9499405, "lon": 20.5596624, "tags": {"amenity": "pharmacy", "name": "Farm\u00e1cia", "opening_hours": "Mo-Fr 07:30-16:00"}}, {"type": "node", "id": 3400045009, "lat": 48.9473891, "lon": 20.5629642, "tags": {"amenity": "pharmacy", "name": "Fida"}}, {"type": "node", "id": 3400045010, "lat": 48.9436826, "lon": 20.5667018, "tags": {"amenity": "pharmacy", "name": "Harm\u00f3nia"}}, {"type": "node", "id": 3400045011, "lat": 48.947846, "lon": 20.562139, "tags": {"amenity": "pharmacy", "name": "Dr.Max"}}, {"type": "node", "id": 3400045012, "lat": 48.9453398, "lon": 20.5644283, "tags": {"amenity": "pharmacy", "name": "Na Letnej"}}, {"type": "node", "id": 3400045013, "lat": 48.9339324, "lon": 20.5704702, "tags": {"amenity": "pharmacy", "name": "Na Tar\u010di"}}, {"type": "node", "id": 3400045014, "lat": 48.9456336, "lon": 20.5572229, "tags": {"amenity": "pharmacy", "name": "Na starosaskej"}}, {"type": "node", "id": 3400045015, "lat": 48.944153, "lon": 20.548681, "tags": {"amenity": "pharmacy", "name": "Na s\u00eddlisku Mier"}}, {"type": "node", "id": 3400045016, "lat": 48.955293, "lon": 20.536154, "tags": {"amenity": "pharmacy", "name": "Na z\u00e1pade"}}, {"type": "node", "id": 3400045017, "lat": 48.9449862, "lon": 20.5503733, "tags": {"amenity": "pharmacy", "name": "Pri parkovisku"}}, {"type": "node", "id": 3400045018, "lat": 48.9490977, "lon": 20.5605624, "tags": {"amenity": "pharmacy", "name": "Pri stanici"}}, {"type": "node", "id": 3400045019, "lat": 48.9443859, "lon": 20.5587787, "tags": {"amenity": "pharmacy", "name": "Signum"}}, {"type": "node", "id": 3400045020, "lat": 48.9458409, "lon": 20.5537537, "tags": {"amenity": "pharmacy", "name": "Sl\u00e1vka"}}, {"type": "node", "id": 3400045021, "lat": 48.9454405, "lon": 20.5619834, "tags": {"amenity": "pharmacy", "name": "Statim"}}, {"type": "node", "id": 3400045022, "lat": 48.9482613, "lon": 20.5492106, "tags": {"amenity": "pharmacy", "brand": "Benu", "brand:wikidata": "Q62562792", "email": "benu87@benulekaren.sk", "healthcare": "pharmacy", "name": "Benu", "opening_hours": "Mo-Su 08:00-20:00", "phone": "+421 910 927 011", "website": "https://www.benulekaren.sk/"}}, {"type": "node", "id": 3400045024, "lat": 48.958175, "lon": 20.520079, "tags": {"amenity": "pharmacy", "name": "V zelenom dome"}}, {"type": "node", "id": 3485137286, "lat": 49.0274243, "lon": 20.5929801, "tags": {"amenity": "pharmacy", "name": "Lek\u00e1re\u0148 pri Ko\u0161ickej br\u00e1ne", "opening_hours": "Mo-Fr 07:45-16:00"}}, {"type": "node", "id": 3485137287, "lat": 49.0272438, "lon": 20.5918432, "tags": {"amenity": "pharmacy"}}, {"type": "node", "id": 3660299221, "lat": 48.8021613, "lon": 20.8066064, "tags": {"amenity": "pharmacy", "name": "Janka"}}, {"type": "node", "id": 3715554966, "lat": 49.009494, "lon": 21.1273639, "tags": {"amenity": "pharmacy"}}, {"type": "node", "id": 4590631625, "lat": 49.0264156, "lon": 20.5902106, "tags": {"amenity": "pharmacy", "name": "Lek\u00e1re\u0148 U Hada", "opening_hours": "Mo 12:00-15:00; Tu-We 07:00-12:30; Th-Fr 07:00-12:00"}}, {"type": "node", "id": 5058296304, "lat": 48.858366, "lon": 20.9406252, "tags": {"amenity": "pharmacy", "healthcare": "pharmacy", "name": "Apotheke Gelnica", "opening_hours": "Mo-Fr 08:00-19:00; Sa 8:00-12:00", "phone": "+421 905 167 732"}}, {"type": "node", "id": 5513957425, "lat": 49.0027985, "lon": 20.4639727, "tags": {"amenity": "pharmacy", "name": "U minoritov", "opening_hours": "Mo-Tu, Th-Fr 08:00-12:00; We 10:00-17:00", "phone": "+421 534598258"}}, {"type": "node", "id": 5851605569, "lat": 48.9569364, "lon": 20.5175417, "tags": {"amenity": "pharmacy", "dispensing": "yes", "healthcare": "pharmacy", "source": "survey"}}, {"type": "node", "id": 8702259066, "lat": 49.1753826, "lon": 20.860587, "tags": {"amenity": "pharmacy"}}, {"type": "node", "id": 9917017474, "lat": 49.1522878, "lon": 20.9642591, "tags": {"amenity": "pharmacy", "brand": "Schneider", "brand:wikidata": "Q93514377", "dispensing": "yes", "drive_through": "no", "healthcare": "pharmacy", "image": "https://backend.freemap.sk/gallery/pictures/647434/image?width=1110", "name": "Schneider", "opening_hours": "Mo-Fr 07:15-17:15; Sa 08:00-12:00", "operator": "Schneider"}}, {"type": "node", "id": 9917017475, "lat": 49.1521747, "lon": 20.9638192, "tags": {"amenity": "pharmacy", "brand": "Dr. Max", "brand:wikidata": "Q56317371", "dispensing": "yes", "drive_through": "no", "healthcare": "pharmacy", "level": "0", "name": "Dr. Max", "operator": "VERBO, s. r. o.", "website": "https://www.drmax.sk/", "wheelchair": "yes"}}, {"type": "node", "id": 10252804033, "lat": 48.9995528, "lon": 20.7534501, "tags": {"amenity": "pharmacy", "name": "V\u010dela"}}, {"type": "node", "id": 10955712300, "lat": 48.9360887, "lon": 20.5627148, "tags": {"amenity": "pharmacy", "name": "DRU\u017dBA"}}, {"type": "node", "id": 10955712301, "lat": 48.9360227, "lon": 20.5749632, "tags": {"amenity": "pharmacy", "name": "BENU"}}, {"type": "node", "id": 11198481991, "lat": 49.0187694, "lon": 20.582611, "tags": {"amenity": "pharmacy", "brand": "Dr. Max", "brand:wikidata": "Q56317371", "healthcare": "pharmacy", "name": "Dr. Max"}}, {"type": "node", "id": 11279204434, "lat": 49.0205476, "lon": 20.586244, "tags": {"amenity": "pharmacy", "dispensing": "yes", "healthcare": "pharmacy", "name": "Zelen\u00e1 lek\u00e1re\u0148", "opening_hours": "Mo-Fr 07:30-17:00", "phone": "+421534510222", "website": "https://www.zelenalekarenlevoca.sk"}}, {"type": "node", "id": 11769196349, "lat": 48.9474411, "lon": 20.548299, "tags": {"amenity": "pharmacy", "brand": "Dr. Max", "brand:wikidata": "Q56317371", "healthcare": "pharmacy", "name": "Dr. Max"}}, {"type": "node", "id": 12023307811, "lat": 48.8553082, "lon": 20.937338, "tags": {"amenity": "pharmacy", "brand": "Dr. Max", "brand:wikidata": "Q56317371", "healthcare": "pharmacy", "name": "Dr. Max", "opening_hours": "Mo-Fr 07:30-16:00"}}, {"type": "node", "id": 12119738648, "lat": 49.1013071, "lon": 21.0968245, "tags": {"addr:city": "Sabinov", "addr:housenumber": "30", "addr:postcode": "083 01", "addr:street": "Ru\u017eov\u00e1", "amenity": "pharmacy", "dispensing": "yes", "drive_through": "no", "healthcare": "pharmacy", "name": "LeMedic", "opening_hours": "Mo-Fr 07:30-20:00; Sa,Su 08:00-20:00; PH 08:00-20:00", "operator": "MIBARD sro"}}, {"type": "node", "id": 12596571626, "lat": 48.9439328, "lon": 20.5628979, "tags": {"amenity": "pharmacy"}}, {"type": "node", "id": 12596571627, "lat": 48.9429128, "lon": 20.5742919, "tags": {"amenity": "pharmacy"}}, {"type": "node", "id": 12686987839, "lat": 49.152186, "lon": 20.9636426, "tags": {"amenity": "pharmacy", "brand": "Plus lek\u00e1re\u0148", "brand:wikidata": "Q108369059", "dispensing": "yes", "healthcare": "pharmacy", "image": "https://backend.freemap.sk/gallery/pictures/647430/image?width=1110", "name": "Plus lek\u00e1re\u0148", "opening_hours": "Mo-Fr 07:45-12:00; 12:45-15:45", "operator": "Plus lek\u00e1re\u0148"}}, {"type": "node", "id": 12899295401, "lat": 48.9153467, "lon": 20.8738298, "tags": {"amenity": "pharmacy", "brand": "PLUS LEK\u00c1RE\u0147", "brand:wikidata": "Q108369059", "healthcare": "pharmacy", "image": "https://backend.freemap.sk/gallery/pictures/507045/image", "name": "PLUS LEK\u00c1RE\u0147"}}, {"type": "way", "id": 57868224, "nodes": [717867707, 717860895, 717863571, 717863066, 717866793, 717868238, 717862858, 717866149, 717867707], "tags": {"addr:city": "Kysak", "addr:conscriptionnumber": "327", "addr:country": "SK", "addr:housenumber": "327/37", "addr:postcode": "04481", "addr:street": "Ru\u017e\u00ednska", "addr:streetnumber": "37", "amenity": "pharmacy", "building": "yes", "dispensing": "yes", "healthcare": "pharmacy", "import": "budovy201004", "name": "LOREX MEDICAL s.r.o.", "ref:minvskaddress": "35703195", "source": "kapor2", "source:addr": "minvskaddress 2024-11"}}, {"type": "way", "id": 59356591, "nodes": [736205087, 736205135, 736205113, 736205164, 736205087], "tags": {"addr:city": "Kluknava", "addr:conscriptionnumber": "734", "addr:country": "SK", "addr:housenumber": "734", "addr:place": "Kluknava", "addr:postcode": "05351", "amenity": "pharmacy", "brand": "Va\u0161a Lek\u00e1re\u0148", "brand:wikidata": "Q108368884", "building": "yes", "healthcare": "pharmacy", "image": "https://backend.freemap.sk/gallery/pictures/642438/image", "import": "budovy201004", "name": "Lek\u00e1re\u0148 Kluknava", "opening_hours": "Mo-Fr 08:00-16:00", "ref:minvskaddress": "7102116978", "source": "kapor2", "source:addr": "minvskaddress 2024-01"}}, {"type": "way", "id": 73342671, "nodes": [869933373, 869933374, 869933375, 869933376, 869933364, 869933373], "tags": {"addr:city": "N\u00e1lepkovo", "addr:conscriptionnumber": "765", "addr:country": "SK", "addr:housenumber": "765/10", "addr:postcode": "05333", "addr:street": "Cintor\u00ednska", "addr:streetnumber": "10", "addr:suburb": "N\u00e1lepkovo", "amenity": "pharmacy", "building": "yes", "drive_through": "yes", "healthcare": "pharmacy", "import": "budovy201004", "name": "Callendula, s.r.o", "ref:minvskaddress": "10774357", "source": "kapor2", "source:addr": "minvskaddress 2022-06"}}]}