{"version": 0.6, "generator": "Overpass API 0.7.62.8 e802775f", "osm3s": {"timestamp_osm_base": "2025-10-06T08:12:00Z", "copyright": "The data included in this document is from www.openstreetmap.org. The data is made available under ODbL."}, "elements": [{"type": "node", "id": 1806024051, "lat": 47.3958031, "lon": 20.4334122, "tags": {"addr:city": "Tiszaroff", "addr:housenumber": "15", "addr:postcode": "5234", "addr:street": "H\u0151s\u00f6k tere", "amenity": "pharmacy", "contact:phone": "+36 56 438 022", "dispensing": "yes", "healthcare": "pharmacy", "int_name": "Star Pharmacy", "name": "Csillag Gy\u00f3gyszert\u00e1r", "opening_hours": "Mo-Fr 07:30-12:00,15:30-17:30; We 07:30-12:00"}}, {"type": "node", "id": 2659988765, "lat": 47.4592809, "lon": 20.2138564, "tags": {"amenity": "pharmacy"}}, {"type": "node", "id": 2985533610, "lat": 47.294703, "lon": 20.073997, "tags": {"amenity": "pharmacy"}}, {"type": "node", "id": 2985776707, "lat": 47.3723456, "lon": 20.0931602}, {"type": "node", "id": 2985776708, "lat": 47.3723731, "lon": 20.0934663}, {"type": "node", "id": 2985776709, "lat": 47.3722342, "lon": 20.0934972}, {"type": "node", "id": 2985776710, "lat": 47.372222, "lon": 20.0933556}, {"type": "node", "id": 2985776711, "lat": 47.3722617, "lon": 20.0933507}, {"type": "node", "id": 2985776712, "lat": 47.3722474, "lon": 20.0931716}, {"type": "node", "id": 3195661250, "lat": 47.5935149, "lon": 20.2850094, "tags": {"addr:city": "Heves", "addr:housenumber": "13", "addr:postcode": "3360", "addr:street": "F\u0151 \u00fat", "amenity": "pharmacy", "healthcare": "pharmacy", "name": "Hanga gy\u00f3gyszert\u00e1r", "wheelchair": "yes"}}, {"type": "node", "id": 3256611298, "lat": 47.5942692, "lon": 20.2892469}, {"type": "node", "id": 3256611300, "lat": 47.5943841, "lon": 20.2895598}, {"type": "node", "id": 3256611301, "lat": 47.594385, "lon": 20.2891533}, {"type": "node", "id": 3256611303, "lat": 47.5944366, "lon": 20.2892939, "tags": {"entrance": "main"}}, {"type": "node", "id": 3256611305, "lat": 47.5945, "lon": 20.2894663}, {"type": "node", "id": 3487688307, "lat": 47.49596, "lon": 20.4958975, "tags": {"amenity": "pharmacy", "description": "Kisk\u00f6rei Gy\u00f3gyszert\u00e1r", "healthcare": "pharmacy", "name": "Gy\u00f6ngy", "source": "turistautak.hu", "source:date": "2009-02-17", "url": "http://turistautak.hu/poi.php?id=27893"}}, {"type": "node", "id": 3656147333, "lat": 47.6473836, "lon": 20.159807, "tags": {"amenity": "pharmacy", "healthcare": "pharmacy"}}, {"type": "node", "id": 4164173885, "lat": 47.2953112, "lon": 20.2570862, "tags": {"addr:city": "Besenysz\u00f6g", "addr:housenumber": "4/A", "addr:postcode": "5071", "addr:street": "Damjanich \u00fat", "amenity": "pharmacy", "healthcare": "pharmacy", "name": "Pax Corporis Gy\u00f3gyszert\u00e1r"}}, {"type": "node", "id": 4195425073, "lat": 47.5979454, "lon": 20.2673416}, {"type": "node", "id": 4195425074, "lat": 47.5978936, "lon": 20.2673133}, {"type": "node", "id": 4195425075, "lat": 47.5979376, "lon": 20.2671367}, {"type": "node", "id": 4195425076, "lat": 47.5979975, "lon": 20.2671695}, {"type": "node", "id": 4195425077, "lat": 47.5980063, "lon": 20.2671343}, {"type": "node", "id": 4195425078, "lat": 47.5980584, "lon": 20.2671628}, {"type": "node", "id": 4195425079, "lat": 47.5980263, "lon": 20.267292}, {"type": "node", "id": 4195425080, "lat": 47.5979659, "lon": 20.267259}, {"type": "node", "id": 5268206349, "lat": 47.5653564, "lon": 20.0188926}, {"type": "node", "id": 5268206350, "lat": 47.5655305, "lon": 20.0190573}, {"type": "node", "id": 5268206351, "lat": 47.5654936, "lon": 20.0191432}, {"type": "node", "id": 5268206352, "lat": 47.5653056, "lon": 20.0190104}, {"type": "node", "id": 6499483114, "lat": 47.5031434, "lon": 19.9126657, "tags": {"amenity": "pharmacy", "dispensing": "yes", "healthcare": "pharmacy", "name": "Szenth\u00e1roms\u00e1g"}}, {"type": "node", "id": 6499483141, "lat": 47.4980348, "lon": 19.9096755, "tags": {"amenity": "pharmacy", "dispensing": "yes", "healthcare": "pharmacy", "name": "Apponyi Gy\u00f3gyszert\u00e1r"}}, {"type": "node", "id": 10875105046, "lat": 47.312843, "lon": 20.1008585}, {"type": "node", "id": 10875105047, "lat": 47.3127913, "lon": 20.1009083}, {"type": "node", "id": 10875105048, "lat": 47.3128827, "lon": 20.1011145}, {"type": "node", "id": 10875105049, "lat": 47.3129344, "lon": 20.1010647}, {"type": "node", "id": 10902045195, "lat": 47.5267308, "lon": 20.3783282, "tags": {"addr:city": "Tarnaszentmikl\u00f3s", "addr:housenumber": "5", "addr:postcode": "3382", "addr:street": "P\u00e9lyi \u00fat", "amenity": "pharmacy", "healthcare": "pharmacy"}}, {"type": "node", "id": 11057003290, "lat": 47.2933658, "lon": 20.0725996}, {"type": "node", "id": 11057003291, "lat": 47.2932998, "lon": 20.0723501}, {"type": "node", "id": 11057003292, "lat": 47.2931846, "lon": 20.072412}, {"type": "node", "id": 11057003293, "lat": 47.2932518, "lon": 20.0726616}, {"type": "node", "id": 12546420963, "lat": 47.4246881, "lon": 20.0396029}, {"type": "node", "id": 12546420964, "lat": 47.4247244, "lon": 20.0395248}, {"type": "node", "id": 12546420970, "lat": 47.4245976, "lon": 20.039511}, {"type": "node", "id": 12546420971, "lat": 47.4246339, "lon": 20.0394329}, {"type": "node", "id": 12623368417, "lat": 47.3808332, "lon": 20.0584012, "tags": {"amenity": "pharmacy", "healthcare": "pharmacy", "name": "Semmelweis Gy\u00f3gyszert\u00e1r"}}, {"type": "node", "id": 12805753375, "lat": 47.5136464, "lon": 20.1412878, "tags": {"amenity": "pharmacy", "check_date": "2025-05-03", "healthcare": "pharmacy", "name": "Gy\u00f3gyszert\u00e1r"}}, {"type": "node", "id": 12816635931, "lat": 47.5653798, "lon": 20.0190355}, {"type": "node", "id": 12816635932, "lat": 47.565366, "lon": 20.0190676}, {"type": "node", "id": 13001476875, "lat": 47.4473226, "lon": 20.4566436, "tags": {"amenity": "pharmacy"}}, {"type": "way", "id": 294934764, "nodes": [2985776707, 2985776708, 2985776709, 2985776710, 2985776711, 2985776712, 2985776707], "tags": {"addr:city": "J\u00e1szals\u00f3szentgy\u00f6rgy", "addr:housenumber": "7", "addr:postcode": "5054", "addr:street": "R\u00e1k\u00f3czi \u00fat", "amenity": "pharmacy", "building": "yes", "healthcare": "pharmacy", "name": "Szent-Gy\u00f6rgyi Albert gy\u00f3gyszert\u00e1r"}}, {"type": "way", "id": 319250662, "nodes": [3256611301, 3256611303, 3256611305, 3256611300, 3256611298, 3256611301], "tags": {"addr:city": "Heves", "addr:housenumber": "1", "addr:postcode": "3360", "addr:street": "H\u0151s\u00f6k tere", "amenity": "pharmacy", "building": "yes", "healthcare": "pharmacy", "name": "Megyec\u00edmer Patika"}}, {"type": "way", "id": 419493148, "nodes": [4195425073, 4195425074, 4195425075, 4195425076, 4195425077, 4195425078, 4195425079, 4195425080, 4195425073], "tags": {"addr:city": "Heves", "addr:housenumber": "17/A", "addr:postcode": "3360", "addr:street": "J\u00f3zsef Attila utca", "amenity": "pharmacy", "building": "yes", "healthcare": "pharmacy", "name": "Kamilla Patika"}}, {"type": "way", "id": 545042125, "nodes": [5268206349, 5268206350, 5268206351, 12816635931, 12816635932, 5268206352, 5268206349], "tags": {"addr:city": "J\u00e1szd\u00f3zsa", "addr:housenumber": "16", "addr:postcode": "5122", "addr:street": "Sz\u00e9chenyi \u00fat", "amenity": "pharmacy", "building": "yes", "healthcare": "pharmacy", "name": "Szent Margit Gy\u00f3gyszert\u00e1r", "operator": "Dr.Dobos J\u00f3zsefn\u00e9"}}, {"type": "way", "id": 1169537249, "nodes": [10875105046, 10875105047, 10875105048, 10875105049, 10875105046], "tags": {"amenity": "pharmacy", "building": "yes", "healthcare": "pharmacy"}}, {"type": "way", "id": 1190857221, "nodes": [11057003290, 11057003291, 11057003292, 11057003293, 11057003290], "tags": {"addr:city": "\u00dajsz\u00e1sz", "amenity": "pharmacy", "building": "yes", "dispensing": "yes", "drive_through": "no", "healthcare": "pharmacy", "name": "Szent Istv\u00e1n Kir\u00e1ly Gy\u00f3gyszert\u00e1r", "operator": "Kulcs Patika"}}, {"type": "way", "id": 1355668076, "nodes": [12546420970, 12546420971, 12546420964, 12546420963, 12546420970], "tags": {"amenity": "pharmacy", "building": "yes"}}]}