{"version": 0.6, "generator": "Overpass API 0.7.62.8 e802775f", "osm3s": {"timestamp_osm_base": "2025-10-06T09:00:45Z", "copyright": "The data included in this document is from www.openstreetmap.org. The data is made available under ODbL."}, "elements": [{"type": "node", "id": 952550831, "lat": 44.2031261, "lon": 27.3211931, "tags": {"amenity": "pharmacy", "dispensing": "no"}}, {"type": "node", "id": 953964760, "lat": 44.1918807, "lon": 27.3332925, "tags": {"addr:city": "C\u0103l\u0103ra\u0219i", "addr:housenumber": "167", "addr:street": "Strada Bucure\u0219ti", "amenity": "pharmacy", "brand": "Catena", "brand:wikidata": "Q24035728", "dispensing": "no", "healthcare": "pharmacy", "name": "Catena", "operator": "Catena"}}, {"type": "node", "id": 954235476, "lat": 44.2038579, "lon": 27.3158803, "tags": {"amenity": "pharmacy", "dispensing": "no", "healthcare": "pharmacy", "name": "SF. Mina"}}, {"type": "node", "id": 954628345, "lat": 44.1954037, "lon": 27.3256781, "tags": {"amenity": "pharmacy", "brand": "Catena", "brand:wikidata": "Q24035728", "dispensing": "no", "healthcare": "pharmacy", "name": "Catena"}}, {"type": "node", "id": 954628356, "lat": 44.2043157, "lon": 27.3132737, "tags": {"amenity": "pharmacy", "dispensing": "no", "healthcare": "pharmacy"}}, {"type": "node", "id": 954628388, "lat": 44.1952376, "lon": 27.3232734, "tags": {"amenity": "pharmacy", "dispensing": "no"}}, {"type": "node", "id": 954628446, "lat": 44.1949695, "lon": 27.3290464, "tags": {"amenity": "pharmacy", "dispensing": "no", "healthcare": "pharmacy"}}, {"type": "node", "id": 954628478, "lat": 44.1937061, "lon": 27.3294476, "tags": {"amenity": "pharmacy", "dispensing": "no", "healthcare": "pharmacy"}}, {"type": "node", "id": 954628501, "lat": 44.2068011, "lon": 27.3112451, "tags": {"amenity": "pharmacy", "dispensing": "no", "healthcare": "pharmacy", "name": "Primafarm", "ramp": "yes"}}, {"type": "node", "id": 954628522, "lat": 44.1925944, "lon": 27.3343704, "tags": {"amenity": "pharmacy", "dispensing": "no", "healthcare": "pharmacy", "name": "Flora"}}, {"type": "node", "id": 954628582, "lat": 44.2005957, "lon": 27.3228228, "tags": {"amenity": "pharmacy", "dispensing": "no", "name": "A&A Farm"}}, {"type": "node", "id": 1321963923, "lat": 44.1946898, "lon": 27.3846749, "tags": {"amenity": "pharmacy", "name": "Logic Trade"}}, {"type": "node", "id": 1852468784, "lat": 44.2568406, "lon": 27.5940607, "tags": {"amenity": "pharmacy", "fixme": "L APO", "healthcare": "pharmacy"}}, {"type": "node", "id": 1884436781, "lat": 44.5648535, "lon": 27.3596182}, {"type": "node", "id": 1884447271, "lat": 44.5656753, "lon": 27.360131, "tags": {"amenity": "pharmacy", "name": "Farmacia Farmaliv"}}, {"type": "node", "id": 2359393855, "lat": 44.2023208, "lon": 27.0923202, "tags": {"amenity": "pharmacy"}}, {"type": "node", "id": 2591888916, "lat": 44.5652687, "lon": 27.3603206}, {"type": "node", "id": 2591888919, "lat": 44.565414, "lon": 27.3603222}, {"type": "node", "id": 2591888954, "lat": 44.5654152, "lon": 27.3600915}, {"type": "node", "id": 2591888958, "lat": 44.56527, "lon": 27.3600899}, {"type": "node", "id": 10120074290, "lat": 44.1998008, "lon": 27.3168089, "tags": {"addr:city": "C\u0103l\u0103ra\u0219i", "amenity": "pharmacy", "dispensing": "yes", "healthcare": "pharmacy", "name": "Medimfarm"}}, {"type": "node", "id": 12318534724, "lat": 44.5649235, "lon": 27.3596183}, {"type": "node", "id": 12318534725, "lat": 44.5649219, "lon": 27.3598124}, {"type": "node", "id": 12318534726, "lat": 44.5648532, "lon": 27.3598157}, {"type": "node", "id": 12389784131, "lat": 44.5624231, "lon": 27.3706801, "tags": {"amenity": "pharmacy", "brand": "Help Net", "brand:wikidata": "Q12729923", "healthcare": "pharmacy", "name": "Help Net"}}, {"type": "way", "id": 253231382, "nodes": [2591888954, 2591888958, 2591888916, 2591888919, 2591888954], "tags": {"amenity": "pharmacy", "building": "yes", "building:levels": "2", "dispensing": "yes", "name": "Farmacia Diana"}}, {"type": "way", "id": 1331369215, "nodes": [12318534724, 12318534725, 12318534726, 1884436781, 12318534724], "tags": {"amenity": "pharmacy", "brand": "Farmacia Dona", "brand:wikidata": "Q12726919", "building": "yes", "healthcare": "pharmacy", "name": "Farmacia Dona"}}]}