{"version": 0.6, "generator": "Overpass API 0.7.62.8 e802775f", "osm3s": {"timestamp_osm_base": "2025-10-06T08:36:15Z", "copyright": "The data included in this document is from www.openstreetmap.org. The data is made available under ODbL."}, "elements": [{"type": "node", "id": 1341221048, "lat": 45.1023913, "lon": 24.3637543, "tags": {"amenity": "pharmacy", "healthcare": "pharmacy", "name": "Farmacia Bajan"}}, {"type": "node", "id": 1775796064, "lat": 45.1128376, "lon": 24.3635361, "tags": {"addr:city": "R\u00e2mnicu V\u00e2lcea", "amenity": "pharmacy", "check_date": "2025-09-22", "name": "Farmacia B\u0103jan", "opening_hours": "Mo-Fr 07:30-21:30; Sa-Su 08:00-18:00"}}, {"type": "node", "id": 2344021196, "lat": 45.2041366, "lon": 24.2388582, "tags": {"addr:city": "B\u0103ile Ol\u0103ne\u0219ti", "amenity": "pharmacy", "healthcare": "pharmacy", "name": "Farmacia B\u0103jan"}}, {"type": "node", "id": 2415706999, "lat": 45.1118444, "lon": 24.3632384, "tags": {"addr:city": "R\u00e2mnicu V\u00e2lcea", "amenity": "pharmacy", "check_date": "2025-09-22", "name": "Farmacia Verde", "opening_hours": "Mo-Fr 08:00-19:00; Sa 08:00-13:00; Su off"}}, {"type": "node", "id": 3037382890, "lat": 45.3052782, "lon": 24.6577417, "tags": {"amenity": "pharmacy", "brand": "Catena", "brand:wikidata": "Q24035728", "dispensing": "no", "healthcare": "pharmacy", "name": "Catena"}}, {"type": "node", "id": 3037382891, "lat": 45.3054744, "lon": 24.655687, "tags": {"amenity": "pharmacy", "dispensing": "no", "name": "Farmacie"}}, {"type": "node", "id": 3163350394, "lat": 45.2599354, "lon": 24.3214377, "tags": {"amenity": "pharmacy", "name": "Plafar Cozia", "source": "survey by Florentin Pandele"}}, {"type": "node", "id": 3578366436, "lat": 45.1173549, "lon": 24.3681376, "tags": {"amenity": "pharmacy", "check_date": "2023-07-07", "name": "Catena", "operator": "Catena"}}, {"type": "node", "id": 3578366441, "lat": 45.1175511, "lon": 24.3678022, "tags": {"amenity": "pharmacy", "check_date": "2025-09-22", "name": "Florina", "opening_hours": "Mo-Fr 08:00-21:00; Sa 08:00-16:00; Su 08:00-14:00"}}, {"type": "node", "id": 3578366448, "lat": 45.1019139, "lon": 24.3653706, "tags": {"amenity": "pharmacy", "brand": "Farmaciile Help Net", "check_date": "2025-10-02", "check_date:opening_hours": "2025-10-02", "healthcare": "pharmacy", "name": "Help Net", "opening_hours": "Mo-Fr 08:00-20:00; Sa 08:00-16:00; Su off"}}, {"type": "node", "id": 3578366450, "lat": 45.1020302, "lon": 24.3661698, "tags": {"amenity": "pharmacy", "brand": "Farmacia Dona", "brand:wikidata": "Q12726919", "healthcare": "pharmacy", "name": "Farmacia Dona"}}, {"type": "node", "id": 3578366451, "lat": 45.1020498, "lon": 24.3659647, "tags": {"amenity": "pharmacy", "brand": "Bajan", "healthcare": "pharmacy"}}, {"type": "node", "id": 3581233416, "lat": 45.1178964, "lon": 24.3633507, "tags": {"amenity": "pharmacy", "check_date": "2024-08-20", "name": "Farmaciile Help Net", "opening_hours": "24/7"}}, {"type": "node", "id": 3595026655, "lat": 45.1028442, "lon": 24.3663827, "tags": {"amenity": "pharmacy", "brand": "Farmaciile Help Net", "check_date": "2023-07-31", "name": "Farmaciile Help Net"}}, {"type": "node", "id": 4290036619, "lat": 45.1388371, "lon": 24.6746991, "tags": {"addr:city": "Curtea de Arge\u0219", "amenity": "pharmacy", "name": "Medica Farmadin"}}, {"type": "node", "id": 4290079341, "lat": 45.1434031, "lon": 24.6762275, "tags": {"amenity": "pharmacy", "brand": "Catena", "brand:wikidata": "Q24035728", "healthcare": "pharmacy", "name": "Catena"}}, {"type": "node", "id": 4295981915, "lat": 45.1636784, "lon": 24.6718598, "tags": {"amenity": "pharmacy", "name": "Farmec-Denis"}}, {"type": "node", "id": 4704012305, "lat": 45.2448694, "lon": 24.3391505, "tags": {"amenity": "pharmacy", "healthcare": "pharmacy", "name": "Farmacia Elixir"}}, {"type": "node", "id": 4706389495, "lat": 45.1731056, "lon": 24.3649531, "tags": {"amenity": "pharmacy", "name": "Farmacia Kalmus", "name:ro": "Farmacia Kalmus"}}, {"type": "node", "id": 5180541973, "lat": 45.1007417, "lon": 24.3661078, "tags": {"amenity": "pharmacy", "healthcare": "pharmacy", "name": "Farmmixt"}}, {"type": "node", "id": 5824796557, "lat": 45.1863458, "lon": 24.3175114, "tags": {"addr:city": "Muereasca", "addr:postcode": "247405", "addr:street": "Strada Principal\u0103", "amenity": "pharmacy", "healthcare": "pharmacy", "name": "Farmacie Muereasca"}}, {"type": "node", "id": 5840108849, "lat": 45.1026795, "lon": 24.3603029, "tags": {"amenity": "pharmacy", "dispensing": "yes", "healthcare": "pharmacy", "name": "Helpnet"}}, {"type": "node", "id": 5848140692, "lat": 45.1542169, "lon": 24.6761513, "tags": {"amenity": "pharmacy", "brand": "Catena", "brand:wikidata": "Q24035728", "healthcare": "pharmacy", "name": "Catena"}}, {"type": "node", "id": 5848150119, "lat": 45.1505613, "lon": 24.6758023, "tags": {"amenity": "pharmacy", "name": "Centifolia Farmacie"}}, {"type": "node", "id": 6098415840, "lat": 45.0722777, "lon": 24.3357693, "tags": {"addr:city": "Cop\u0103celu", "addr:housenumber": "8", "addr:postcode": "240413", "addr:street": "Strada C\u0103t\u0103ne\u0219tilor", "amenity": "pharmacy", "dispensing": "yes", "healthcare": "pharmacy", "name": "Drogheria Gerisab", "phone": "+40 740831210"}}, {"type": "node", "id": 7301142885, "lat": 45.1371166, "lon": 24.5606033, "tags": {"amenity": "pharmacy", "dispensing": "yes", "healthcare": "pharmacy", "name": "Farmacie"}}, {"type": "node", "id": 9265923213, "lat": 45.1112342, "lon": 24.380883, "tags": {"addr:city": "R\u00e2mnicu V\u00e2lcea", "amenity": "pharmacy", "brand": "Help Net", "brand:wikidata": "Q12729923", "brand:wikipedia": "ro:Help Net", "dispensing": "yes", "healthcare": "pharmacy", "name": "Help Net"}}, {"type": "node", "id": 9726074817, "lat": 45.1148759, "lon": 24.3642568, "tags": {"amenity": "pharmacy", "name": "Farmacia B\u0103jan", "name:en": "B\u0103jan Pharmacy"}}, {"type": "node", "id": 9968566836, "lat": 45.2029524, "lon": 24.2424251, "tags": {"amenity": "pharmacy", "dispensing": "yes", "healthcare": "pharmacy", "name": "Farmacie"}}, {"type": "node", "id": 9976812528, "lat": 45.038812, "lon": 24.2538492, "tags": {"addr:city": "Buleta", "addr:postcode": "247378", "addr:street": "Strada Prim\u0103riei", "amenity": "pharmacy", "dispensing": "yes", "healthcare": "pharmacy", "name": "Farmacie Buleta"}}, {"type": "node", "id": 10661051504, "lat": 45.0077472, "lon": 24.2427128, "tags": {"amenity": "pharmacy", "healthcare": "pharmacy", "name": "Farmacie M\u0103gura"}}, {"type": "node", "id": 10760685751, "lat": 45.0973929, "lon": 24.4800301, "tags": {"amenity": "pharmacy", "healthcare": "pharmacy"}}, {"type": "node", "id": 10774415600, "lat": 45.2673624, "lon": 24.319282, "tags": {"amenity": "pharmacy", "healthcare": "pharmacy"}}, {"type": "node", "id": 10857440175, "lat": 45.1035985, "lon": 24.3717195, "tags": {"addr:city": "R\u00e2mnicu V\u00e2lcea", "addr:street": "Strada R. V. B\u0103beanu", "amenity": "pharmacy", "healthcare": "pharmacy", "name": "Farmacia B\u0103jan"}}, {"type": "node", "id": 10862753410, "lat": 45.1031564, "lon": 24.3587869, "tags": {"addr:city": "R\u00e2mnicu V\u00e2lcea", "addr:street": "Strada Gabriel Stoianovici", "amenity": "pharmacy", "healthcare": "pharmacy", "name": "Farmacia B\u0103jan"}}, {"type": "node", "id": 10864722092, "lat": 45.1360724, "lon": 24.2487145, "tags": {"addr:city": "P\u0103u\u0219e\u0219ti-M\u0103gla\u0219i", "addr:street": "Strada Principal\u0103", "amenity": "pharmacy", "healthcare": "pharmacy", "name": "Farmacia George"}}, {"type": "node", "id": 10864749806, "lat": 45.1367485, "lon": 24.2483311, "tags": {"amenity": "pharmacy", "healthcare": "pharmacy"}}, {"type": "node", "id": 10896992384, "lat": 45.0074102, "lon": 24.5604504, "tags": {"addr:city": "Mor\u0103re\u0219ti", "amenity": "pharmacy", "healthcare": "pharmacy", "name": "Farmacia Petrotrans"}}, {"type": "node", "id": 10904686167, "lat": 45.2607483, "lon": 24.4257147, "tags": {"addr:city": "Stoene\u0219ti", "addr:postcode": "247047", "addr:street": "Strada Principal\u0103", "amenity": "pharmacy", "healthcare": "pharmacy", "name": "Farmacia TeoSan"}}, {"type": "node", "id": 10920952886, "lat": 45.1079588, "lon": 24.3881337, "tags": {"addr:city": "Goranu", "addr:street": "Strada Straubing", "amenity": "pharmacy", "healthcare": "pharmacy", "name": "Nyra Natura"}}, {"type": "node", "id": 11055324124, "lat": 45.108722, "lon": 24.3688803, "tags": {"amenity": "pharmacy", "check_date": "2025-10-01", "check_date:opening_hours": "2025-10-01", "healthcare": "pharmacy", "name": "Farmacia Dona", "opening_hours": "Mo-Fr 08:00-20:00; Sa 08:00-12:00; Su off"}}, {"type": "node", "id": 11055324136, "lat": 45.1137002, "lon": 24.3636528, "tags": {"amenity": "pharmacy", "check_date": "2025-09-22", "healthcare": "pharmacy", "name": "Catena", "opening_hours": "Mo-Fr 08:00-21:00; Sa 08:00-15:00; Su 08:00-14:00"}}, {"type": "node", "id": 11401702849, "lat": 45.1480823, "lon": 24.6764412, "tags": {"amenity": "pharmacy", "healthcare": "pharmacy"}}, {"type": "node", "id": 12291785233, "lat": 45.1118856, "lon": 24.3805906, "tags": {"amenity": "pharmacy", "brand": "Dr. Max", "brand:wikidata": "Q56317371", "healthcare": "pharmacy", "name": "Dr. Max"}}, {"type": "node", "id": 13092602400, "lat": 45.1026591, "lon": 24.3640779, "tags": {"amenity": "pharmacy", "check_date": "2025-08-22", "healthcare": "pharmacy", "name": "Farmacia Catena"}}, {"type": "node", "id": 13098794491, "lat": 45.1132976, "lon": 24.3707294, "tags": {"amenity": "pharmacy", "check_date": "2025-08-26", "healthcare": "pharmacy", "name": "Catena", "opening_hours": "Mo-Fr 08:00-21:00; Sa 08:00-15:00"}}, {"type": "node", "id": 13138234160, "lat": 45.1092203, "lon": 24.3646744, "tags": {"amenity": "pharmacy", "check_date": "2025-09-12", "healthcare": "pharmacy", "name": "Catena", "opening_hours": "Mo-Fr 08:00-21:00; Sa 08:00-15:00; Su 08:00-14:00"}}, {"type": "node", "id": 13167837936, "lat": 45.1095455, "lon": 24.3655222, "tags": {"amenity": "pharmacy", "check_date": "2025-09-24", "healthcare": "pharmacy", "name": "Farmacia B\u0103jan", "opening_hours": "Mo-Fr 08:00-21:00; Sa 08:00-15:00; Su 08:00-14:00"}}, {"type": "node", "id": 13167837946, "lat": 45.1151884, "lon": 24.364357, "tags": {"amenity": "pharmacy", "check_date": "2025-09-24", "healthcare": "pharmacy", "name": "Dona", "opening_hours": "Mo-Fr 08:00-20:00; Sa 08:00-18:00; Su 08:00-14:00"}}, {"type": "node", "id": 13167837948, "lat": 45.1143941, "lon": 24.3643907, "tags": {"amenity": "pharmacy", "check_date": "2025-09-24", "healthcare": "pharmacy", "name": "Helpnet", "opening_hours": "Mo-Fr 08:00-21:00; Sa 09:00-17:00; Su off"}}, {"type": "node", "id": 13188738541, "lat": 45.1022222, "lon": 24.3653901, "tags": {"amenity": "pharmacy", "check_date": "2025-10-02", "check_date:opening_hours": "2025-10-02", "healthcare": "pharmacy", "name": "Catena", "opening_hours": "Mo-Fr 08:00-20:00; Sa-Su 08:00-13:00"}}]}