{"version": 0.6, "generator": "Overpass API 0.7.62.8 e802775f", "osm3s": {"timestamp_osm_base": "2025-10-06T08:40:23Z", "copyright": "The data included in this document is from www.openstreetmap.org. The data is made available under ODbL."}, "elements": [{"type": "node", "id": 444414776, "lat": 57.6377438, "lon": 18.3007467, "tags": {"amenity": "pharmacy", "branch": "Liljan", "brand": "Apoteket", "brand:wikidata": "Q1785637", "check_date": "2025-05-31", "check_date:opening_hours": "2025-05-31", "contact:phone": "+46771450450", "healthcare": "pharmacy", "name": "Apoteket", "opening_hours": "Mo-Fr 09:00-18:00; Sa,Su 10:00-16:00", "operator": "Apoteket AB (publ)"}}, {"type": "node", "id": 1480391826, "lat": 57.6480889, "lon": 18.3005205, "tags": {"amenity": "pharmacy", "brand": "Apoteket", "contact:phone": "+46771450450", "name": "Apoteket Strandskatan", "operator": "Apoteket AB (publ)"}}, {"type": "node", "id": 1480393171, "lat": 57.6350491, "lon": 18.3269842, "tags": {"amenity": "pharmacy", "app:apple": "https://itunes.apple.com/se/app/kronans-apotek/id1129771604?l=en", "app:google": "https://play.google.com/store/apps/details?id=se.kronansapotek.kronan", "brand": "Kronans Apotek", "brand:wikidata": "Q10549422", "brand:wikipedia": "sv:Kronans Droghandel", "check_date": "2025-06-11", "check_date:opening_hours": "2025-06-11", "dispensing": "yes", "healthcare": "pharmacy", "name": "Kronans Apotek", "opening_hours": "Mo-Fr 09:00-19:00; Sa 10:00-16:00; Su 11:00-15:00", "operator": "Kronans Droghandel Apotek AB", "payment:cash": "yes", "phone": "+46771612612", "website:stock": "https://www.fass.se/"}}, {"type": "node", "id": 1489880357, "lat": 57.3862238, "lon": 18.2006105, "tags": {"addr:city": "Klintehamn", "addr:country": "SE", "addr:housenumber": "1", "addr:postcode": "62377", "addr:street": "Donnersgatan", "amenity": "pharmacy", "brand": "Kronans Apotek", "brand:wikidata": "Q10549422", "contact:phone": "+46771450450", "healthcare": "pharmacy", "name": "Kronans Apotek", "opening_hours": "Mo-Fr 09:00-12:30,13:30-17:00", "phone": "+46-771-612 612", "website": "https://www.kronansapotek.se/hitta-apotek/kronans-apotek-klintehamn-0282/"}}, {"type": "node", "id": 9982432314, "lat": 57.5053432, "lon": 18.4552093, "tags": {"amenity": "pharmacy", "brand": "Apoteksgruppen", "brand:wikidata": "Q10416129", "dispensing": "yes", "healthcare": "pharmacy", "name": "Apoteksgruppen"}}, {"type": "node", "id": 12887191299, "lat": 57.6175713, "lon": 18.283992, "tags": {"amenity": "pharmacy", "brand": "Kronans Apotek", "brand:wikidata": "Q10549422", "healthcare": "pharmacy", "name": "Kronans Apotek", "opening_hours": "Mo-Fr 09:00-18:00; Sa 10:00-16:00; Su 11:00-16:00"}}, {"type": "node", "id": 12907584777, "lat": 57.6235717, "lon": 18.3229624, "tags": {"amenity": "pharmacy", "brand": "Apotek Hj\u00e4rtat", "brand:wikidata": "Q10416114", "healthcare": "pharmacy", "name": "Apotek Hj\u00e4rtat", "opening_hours": "Mo-Fr 09:00-19:00; Sa,Su 10:00-17:00"}}]}