{"version": 0.6, "generator": "Overpass API 0.7.62.8 e802775f", "osm3s": {"timestamp_osm_base": "2025-10-06T08:47:24Z", "copyright": "The data included in this document is from www.openstreetmap.org. The data is made available under ODbL."}, "elements": [{"type": "node", "id": 619171666, "lat": 42.47282, "lon": 26.5221046, "tags": {"amenity": "pharmacy", "name": "\u0417\u0434\u0440\u0430\u0432\u0435\u0446", "name:en": "Zdravets"}}, {"type": "node", "id": 619171667, "lat": 42.474634, "lon": 26.5261905, "tags": {"amenity": "pharmacy", "name": "\u0414\u0438\u0430\u043d\u0430", "name:en": "Diana", "opening_hours": "24/7"}}, {"type": "node", "id": 619174364, "lat": 42.4810936, "lon": 26.5141448, "tags": {"amenity": "pharmacy", "name": "\u0411\u0430\u043a\u0430\u043b\u043e\u0432\u0430", "name:en": "Bakalova"}}, {"type": "node", "id": 621620408, "lat": 42.481006, "lon": 26.5154953, "tags": {"amenity": "pharmacy", "name": "\u0411\u043e\u0436\u0438\u043b\u043e\u0432", "name:en": "Bozhilov"}}, {"type": "node", "id": 634155513, "lat": 42.4827552, "lon": 26.5120409, "tags": {"addr:city": "\u042f\u043c\u0431\u043e\u043b", "addr:housenumber": "28", "addr:postcode": "8600", "addr:street": "\u0421\u0442\u0435\u0444\u0430\u043d \u041a\u0430\u0440\u0430\u0434\u0436\u0430", "amenity": "pharmacy", "drive_through": "no", "healthcare": "pharmacy", "name": "\u041b\u0438\u043b\u0438 11", "opening_hours": "Mo-Fr 08:00-19:00; Sa-Su 09:00-17:00"}}, {"type": "node", "id": 686250428, "lat": 42.4829665, "lon": 26.5131973, "tags": {"amenity": "pharmacy", "name": "\u041c\u0443\u043b\u0442\u0438\u0444\u0430\u0440\u043c", "name:en": "Multipharm"}}, {"type": "node", "id": 3623851997, "lat": 42.5984925, "lon": 26.6920078, "tags": {"amenity": "pharmacy", "healthcare": "pharmacy", "name": "\u0417\u0434\u0440\u0430\u0432\u0435", "name:en": "Zdrave"}}, {"type": "node", "id": 4352366388, "lat": 42.4812565, "lon": 26.4924331, "tags": {"amenity": "pharmacy", "healthcare": "pharmacy", "name": "\u0417\u043b\u0430\u0442\u0435\u043d \u0440\u043e\u0433", "name:en": "Zlaten Rog", "opening_hours": "08:00-17:00"}}, {"type": "node", "id": 4530908868, "lat": 42.4819352, "lon": 26.5123785, "tags": {"addr:city": "\u042f\u043c\u0431\u043e\u043b", "addr:housenumber": "31", "addr:postcode": "8600", "addr:street": "\u0422\u044a\u0440\u0433\u043e\u0432\u0441\u043a\u0430", "amenity": "pharmacy", "healthcare": "pharmacy", "name": "\u0410\u0444\u0438\u0430", "name:bg": "\u0410\u0444\u0438\u0430", "name:en": "Afya", "opening_hours": "Mo-Fr 08:00-20:00; Sa-Su 09:00-19:00", "website": "https://www.afya-pharmacy.bg/"}}, {"type": "node", "id": 4531489489, "lat": 42.4822803, "lon": 26.5074349, "tags": {"amenity": "pharmacy", "name": "\u0417\u0434\u0440\u0430\u0432\u0435", "name:en": "Zdrave"}}, {"type": "node", "id": 4539841301, "lat": 42.4864485, "lon": 26.5051539, "tags": {"amenity": "pharmacy", "name": "\u041c\u0443\u043b\u0442\u0438\u0444\u0430\u0440\u043c", "name:en": "Multipharm"}}, {"type": "node", "id": 4539841302, "lat": 42.4796738, "lon": 26.5002561, "tags": {"amenity": "pharmacy", "name": "\u041c\u0443\u043b\u0442\u0438\u0444\u0430\u0440\u043c", "name:en": "Multipharm"}}, {"type": "node", "id": 4539841303, "lat": 42.4879975, "lon": 26.5112882, "tags": {"amenity": "pharmacy", "name": "\u041c\u0443\u043b\u0442\u0438\u0444\u0430\u0440\u043c", "name:en": "Multipharm", "opening_hours": "24/7"}}, {"type": "node", "id": 4539842435, "lat": 42.4830672, "lon": 26.5160101, "tags": {"amenity": "pharmacy", "name": "\u041c\u0443\u043b\u0442\u0438\u0444\u0430\u0440\u043c", "name:en": "Multipharm"}}, {"type": "node", "id": 4539842436, "lat": 42.4999267, "lon": 26.5273977, "tags": {"amenity": "pharmacy", "name": "\u041c\u0443\u043b\u0442\u0438\u0444\u0430\u0440\u043c", "name:en": "Multipharm"}}, {"type": "node", "id": 4539842437, "lat": 42.4764317, "lon": 26.4993598, "tags": {"amenity": "pharmacy", "name": "\u041c\u0443\u043b\u0442\u0438\u0444\u0430\u0440\u043c", "name:en": "Multipharm"}}, {"type": "node", "id": 4741963326, "lat": 42.5798482, "lon": 26.6053569, "tags": {"amenity": "pharmacy", "healthcare": "pharmacy", "name": "\u042f\u043d\u0430", "name:en": "Yana"}}, {"type": "node", "id": 4795170705, "lat": 42.4774994, "lon": 26.5178921, "tags": {"addr:city": "\u042f\u043c\u0431\u043e\u043b", "addr:housenumber": "3", "addr:postcode": "8600", "addr:street": "\u0431\u0443\u043b. \u0413\u0440\u0430\u0444 \u0418\u0433\u043d\u0430\u0442\u0438\u0435\u0432", "amenity": "pharmacy", "healthcare": "pharmacy", "name": "Sopharmacy", "opening_hours": "Mo-Sa 08:00-20:00; Su 09:00-20:00", "website": "https://sopharmacy.bg"}}, {"type": "node", "id": 5337412135, "lat": 42.5965182, "lon": 26.6914971, "tags": {"amenity": "pharmacy", "healthcare": "pharmacy"}}, {"type": "node", "id": 11220948622, "lat": 42.4824614, "lon": 26.494072, "tags": {"addr:city": "\u042f\u043c\u0431\u043e\u043b", "addr:postcode": "8600", "amenity": "pharmacy", "dispensing": "yes", "drive_through": "no", "facebook": "https://www.facebook.com/orangepharmacy.yambol/", "healthcare": "pharmacy", "name": "\u041e\u0440\u0438\u043d\u0434\u0436", "opening_hours": "Mo-Fr 08:00-19:00; Sa-Su 08:00-18:00"}}, {"type": "node", "id": 11429081017, "lat": 42.5795057, "lon": 26.6063641, "tags": {"amenity": "pharmacy"}}]}