{"version": 0.6, "generator": "Overpass API 0.7.62.8 e802775f", "osm3s": {"timestamp_osm_base": "2025-10-06T08:11:00Z", "copyright": "The data included in this document is from www.openstreetmap.org. The data is made available under ODbL."}, "elements": [{"type": "node", "id": 2766296419, "lat": 46.0393158, "lon": 20.8658659}, {"type": "node", "id": 2766296420, "lat": 46.0393722, "lon": 20.8656758}, {"type": "node", "id": 2766296421, "lat": 46.0393886, "lon": 20.8659107}, {"type": "node", "id": 2766296422, "lat": 46.039445, "lon": 20.8657206}, {"type": "node", "id": 2766296427, "lat": 46.0416173, "lon": 20.873336}, {"type": "node", "id": 2766296429, "lat": 46.0416405, "lon": 20.8734825}, {"type": "node", "id": 2766296430, "lat": 46.0419342, "lon": 20.873232}, {"type": "node", "id": 2766296431, "lat": 46.0419573, "lon": 20.8733785}, {"type": "node", "id": 3487668328, "lat": 46.3216105, "lon": 20.7351402, "tags": {"amenity": "pharmacy", "healthcare": "pharmacy", "source": "turistautak.hu", "source:date": "2012-03-19", "url": "http://turistautak.hu/poi.php?id=135928"}}, {"type": "node", "id": 4807842471, "lat": 46.3190409, "lon": 20.8129151, "tags": {"amenity": "pharmacy", "healthcare": "pharmacy", "name": "Szent Gy\u00f6rgy patika"}}, {"type": "node", "id": 5065234023, "lat": 46.2432327, "lon": 20.7240136, "tags": {"addr:city": "Csan\u00e1dpalota", "addr:housenumber": "4", "addr:postcode": "6913", "addr:street": "K\u00e1lm\u00e1ny Lajos utca", "amenity": "pharmacy", "healthcare": "pharmacy", "name": "Kazay Gy\u00f3gyszert\u00e1r"}}, {"type": "node", "id": 5613631536, "lat": 46.2856093, "lon": 21.0194904}, {"type": "node", "id": 5613631542, "lat": 46.2854986, "lon": 21.0194971}, {"type": "node", "id": 5613631543, "lat": 46.2854913, "lon": 21.0193347}, {"type": "node", "id": 5613631544, "lat": 46.2856045, "lon": 21.0193258}, {"type": "node", "id": 6579663201, "lat": 46.1100374, "lon": 20.8412774, "tags": {"amenity": "pharmacy", "lead_pharmacist": "Virtaci Corina Viviane", "name": "Adcoradan Farm", "reviewed": "no"}}, {"type": "node", "id": 8427210756, "lat": 46.1737205, "lon": 20.5771563, "tags": {"addr:city": "Ap\u00e1tfalva", "addr:housenumber": "6", "addr:postcode": "6931", "addr:street": "Hunyadi M\u00e1ty\u00e1s utca", "amenity": "pharmacy", "dispensing": "yes", "drive_through": "yes", "healthcare": "pharmacy", "phone": "+3662260015"}}, {"type": "node", "id": 10175975367, "lat": 46.1371891, "lon": 20.5873068}, {"type": "node", "id": 10175975368, "lat": 46.1372642, "lon": 20.5873023}, {"type": "node", "id": 10175975369, "lat": 46.1372707, "lon": 20.5875291}, {"type": "node", "id": 10175975370, "lat": 46.1373271, "lon": 20.5875257}, {"type": "node", "id": 10175975371, "lat": 46.1373156, "lon": 20.5871278}, {"type": "node", "id": 10175975372, "lat": 46.1371842, "lon": 20.5871357}, {"type": "node", "id": 10175975858, "lat": 46.0708618, "lon": 20.6231993, "tags": {"amenity": "pharmacy", "name": "Farmaciile Help Net"}}, {"type": "node", "id": 10175975873, "lat": 46.0735004, "lon": 20.6194711, "tags": {"amenity": "pharmacy", "name": "Farmacie"}}, {"type": "node", "id": 11834007242, "lat": 46.0447612, "lon": 20.8172169, "tags": {"amenity": "pharmacy", "name": "Aloe Vera"}}, {"type": "node", "id": 12442261258, "lat": 46.4588747, "lon": 20.9037257, "tags": {"amenity": "pharmacy", "healthcare": "pharmacy"}}, {"type": "way", "id": 271676884, "nodes": [2766296419, 2766296420, 2766296422, 2766296421, 2766296419], "tags": {"amenity": "pharmacy", "building": "yes", "dispensing": "yes", "name": "Farmacia Amadeus"}}, {"type": "way", "id": 271676885, "nodes": [2766296429, 2766296427, 2766296430, 2766296431, 2766296429], "tags": {"amenity": "pharmacy", "building": "yes", "dispensing": "yes", "name": "Farmacia Mocanfarm"}}, {"type": "way", "id": 587705440, "nodes": [5613631542, 5613631543, 5613631544, 5613631536, 5613631542], "tags": {"amenity": "pharmacy", "building": "yes", "dispensing": "yes", "healthcare": "pharmacy"}}, {"type": "way", "id": 1112297099, "nodes": [10175975372, 10175975371, 10175975370, 10175975369, 10175975368, 10175975367, 10175975372], "tags": {"amenity": "pharmacy", "building": "retail", "name": "Farmacie"}}]}