{"version": 0.6, "generator": "Overpass API 0.7.62.8 e802775f", "osm3s": {"timestamp_osm_base": "2025-10-06T08:36:15Z", "copyright": "The data included in this document is from www.openstreetmap.org. The data is made available under ODbL."}, "elements": [{"type": "node", "id": 298252741, "lat": 43.0230419, "lon": 25.0987557, "tags": {"addr:city": "\u0421\u0435\u0432\u043b\u0438\u0435\u0432\u043e", "addr:postcode": "5400", "amenity": "pharmacy", "name:ro": "Farmacia"}}, {"type": "node", "id": 298469072, "lat": 43.0230782, "lon": 25.1034579, "tags": {"amenity": "pharmacy", "created_by": "Potlatch 0.10b"}}, {"type": "node", "id": 4459295339, "lat": 42.9796152, "lon": 25.4767549, "tags": {"addr:city": "\u0414\u0440\u044f\u043d\u043e\u0432\u043e", "addr:housenumber": "86", "addr:postcode": "5370", "addr:street": "\u0428\u0438\u043f\u043a\u0430", "amenity": "pharmacy", "dispensing": "yes", "healthcare": "pharmacy", "name": "\u041f\u0440\u043e\u043b\u0435\u0442"}}, {"type": "node", "id": 9658235281, "lat": 42.8961196, "lon": 25.3089501, "tags": {"amenity": "pharmacy", "brand": "\u0424\u0435\u043d\u0438\u043a\u0441", "brand:wikidata": "Q108852116", "dispensing": "yes", "healthcare": "pharmacy", "int_name": "Feniks", "name": "\u0424\u0435\u043d\u0438\u043a\u0441", "name:bg": "\u0424\u0435\u043d\u0438\u043a\u0441"}}, {"type": "node", "id": 10186680827, "lat": 42.9768078, "lon": 25.4754161, "tags": {"addr:city": "\u0414\u0440\u044f\u043d\u043e\u0432\u043e", "addr:housenumber": "120", "addr:postcode": "5370", "addr:street": "\u0428\u0438\u043f\u043a\u0430", "amenity": "pharmacy", "brand": "\u041c\u0430\u0440\u0435\u0448\u043a\u0438", "brand:wikidata": "Q108852051", "dispensing": "yes", "healthcare": "pharmacy", "int_name": "Mareshki", "name": "\u041c\u0430\u0440\u0435\u0448\u043a\u0438", "name:bg": "\u041c\u0430\u0440\u0435\u0448\u043a\u0438"}}, {"type": "node", "id": 10200401590, "lat": 42.9746474, "lon": 25.4733324, "tags": {"addr:city": "\u0414\u0440\u044f\u043d\u043e\u0432\u043e", "addr:housenumber": "123", "addr:postcode": "5370", "addr:street": "\u0428\u0438\u043f\u043a\u0430", "amenity": "pharmacy", "healthcare": "pharmacy", "name": "\u041e\u043f\u0442\u0438\u043c\u0430"}}, {"type": "node", "id": 11187752483, "lat": 42.8955593, "lon": 25.3095381, "tags": {"amenity": "pharmacy", "healthcare": "pharmacy", "name": "\u0422\u0438\u043b\u0438\u044f"}}]}