{"version": 0.6, "generator": "Overpass API 0.7.62.8 e802775f", "osm3s": {"timestamp_osm_base": "2025-10-06T08:41:25Z", "copyright": "The data included in this document is from www.openstreetmap.org. The data is made available under ODbL."}, "elements": [{"type": "node", "id": 2400422333, "lat": 45.8445114, "lon": 24.9716919, "tags": {"amenity": "pharmacy", "brand": "Catena", "brand:wikidata": "Q24035728", "dispensing": "yes", "healthcare": "pharmacy", "name": "Catena"}}, {"type": "node", "id": 2438047353, "lat": 45.8424929, "lon": 24.9720242, "tags": {"addr:city": "F\u0103g\u0103ra\u0219", "addr:housenumber": "Bloc 6B", "addr:postcode": "505200", "addr:street": "Bulevardul Unirii", "amenity": "pharmacy", "brand": "Catena", "brand:wikidata": "Q24035728", "brand:wikipedia": "ro:Farmacia Catena", "dispensing": "yes", "healthcare": "pharmacy", "name": "Catena", "opening_hours": "24/7"}}, {"type": "node", "id": 2438050194, "lat": 45.8432418, "lon": 24.9708776, "tags": {"addr:city": "F\u0103g\u0103ra\u0219", "addr:housenumber": "Bloc 1B", "addr:postcode": "505200", "addr:street": "Bulevardul Unirii", "amenity": "pharmacy", "dispensing": "yes", "healthcare": "pharmacy", "name": "Vitafarm"}}, {"type": "node", "id": 2438060121, "lat": 45.841503, "lon": 24.9763872, "tags": {"addr:city": "F\u0103g\u0103ra\u0219", "addr:postcode": "505200", "amenity": "pharmacy", "drive_through": "no", "healthcare": "pharmacy"}}, {"type": "node", "id": 2438061184, "lat": 45.8363052, "lon": 24.969538, "tags": {"amenity": "pharmacy", "brand": "Catena", "brand:wikidata": "Q24035728", "brand:wikipedia": "ro:Farmacia Catena", "healthcare": "pharmacy", "name": "Catena"}}, {"type": "node", "id": 3398550646, "lat": 45.7332515, "lon": 24.7004677, "tags": {"amenity": "pharmacy", "healthcare": "pharmacy", "name": "Farmacia dora"}}, {"type": "node", "id": 4056009877, "lat": 45.8430907, "lon": 24.9742906, "tags": {"addr:city": "F\u0103g\u0103ra\u0219", "addr:housenumber": "Bloc 4", "addr:postcode": "505200", "addr:street": "Strada T\u0103b\u0103cari", "amenity": "pharmacy", "brand": "Farmacia Dona", "brand:wikidata": "Q12726919", "dispensing": "yes", "healthcare": "pharmacy", "name": "Farmacia Dona"}}, {"type": "node", "id": 4062087132, "lat": 45.84369, "lon": 24.965765, "tags": {"amenity": "pharmacy", "brand": "Catena", "brand:wikidata": "Q24035728", "brand:wikipedia": "ro:Farmacia Catena", "healthcare": "pharmacy", "name": "Catena"}}, {"type": "node", "id": 4069865120, "lat": 45.84245, "lon": 24.97862, "tags": {"addr:city": "F\u0103g\u0103ra\u0219", "amenity": "pharmacy", "healthcare": "pharmacy", "name": "Vetardom - farmacie veterinar\u0103", "shop": "pet"}}, {"type": "node", "id": 4468025144, "lat": 45.8408307, "lon": 24.9688634, "tags": {"addr:city": "F\u0103g\u0103ra\u0219", "addr:postcode": "505200", "addr:street": "Strada Stejarului", "amenity": "pharmacy", "healthcare": "pharmacy", "name": "Vitafarm"}}, {"type": "node", "id": 4709535948, "lat": 45.8413566, "lon": 24.9880766, "tags": {"addr:city": "F\u0103g\u0103ra\u0219", "addr:housenumber": "85-87", "addr:postcode": "505200", "addr:street": "Strada Tudor Vladimirescu", "amenity": "pharmacy", "brand": "Dr. Max", "brand:wikidata": "Q56317371", "brand:wikipedia": "ro:Sensiblu", "healthcare": "pharmacy", "name": "Dr. Max", "opening_hours": "Mo-Sa 09:00-21:00; Su 09:00-18:00"}}, {"type": "node", "id": 5340375818, "lat": 45.7537244, "lon": 25.011988, "tags": {"amenity": "pharmacy", "name": "Kalmus"}}, {"type": "node", "id": 10073734898, "lat": 45.8179374, "lon": 24.8398887, "tags": {"amenity": "pharmacy", "dispensing": "yes", "healthcare": "pharmacy", "name": "SIMOFARM S.R.L."}}, {"type": "node", "id": 10082438048, "lat": 45.787511, "lon": 24.6689979}, {"type": "node", "id": 10082438049, "lat": 45.7876136, "lon": 24.668963}, {"type": "node", "id": 10082438054, "lat": 45.787532, "lon": 24.6691239}, {"type": "node", "id": 10082438055, "lat": 45.7876329, "lon": 24.6690887}, {"type": "node", "id": 10317025432, "lat": 45.8424987, "lon": 24.9703883, "tags": {"addr:city": "F\u0103g\u0103ra\u0219", "addr:housenumber": "16", "addr:postcode": "505200", "addr:street": "Strada Mihai Eminescu", "amenity": "pharmacy", "brand": "Farmacia Dona", "brand:wikidata": "Q12726919", "healthcare": "pharmacy", "name": "Farmacia Dona"}}, {"type": "node", "id": 10680521938, "lat": 45.8454316, "lon": 24.9708174, "tags": {"amenity": "pharmacy", "healthcare": "pharmacy", "name": "Drogheria Beauty & Health"}}, {"type": "node", "id": 11018902285, "lat": 45.7309854, "lon": 24.6186338, "tags": {"amenity": "pharmacy", "healthcare": "pharmacy"}}, {"type": "node", "id": 11465570521, "lat": 45.787534, "lon": 24.6690588, "tags": {"addr:city": "Ucea de Jos", "addr:postcode": "507238", "addr:street": "Strada Regele Mihai", "amenity": "pharmacy", "healthcare": "pharmacy", "name": "Farmacia Evofarm"}}, {"type": "node", "id": 11492280683, "lat": 45.7932052, "lon": 24.7233918, "tags": {"addr:city": "Vi\u0219tea de Jos", "addr:postcode": "507254", "amenity": "pharmacy", "healthcare": "pharmacy", "name": "Farmacom"}}, {"type": "node", "id": 11505965313, "lat": 45.7636821, "lon": 24.7746885, "tags": {"addr:city": "Dr\u0103gu\u0219", "addr:postcode": "507251", "amenity": "pharmacy", "healthcare": "pharmacy", "name": "Farmacie"}}, {"type": "node", "id": 11549895857, "lat": 45.7324366, "lon": 24.9399585, "tags": {"addr:city": "Recea", "addr:postcode": "507180", "amenity": "pharmacy", "healthcare": "pharmacy", "name": "VitaFarm"}}, {"type": "node", "id": 11549895858, "lat": 45.7324582, "lon": 24.9424538, "tags": {"addr:city": "Recea", "addr:postcode": "507180", "amenity": "pharmacy", "healthcare": "pharmacy", "name": "Farmacia VitaFarm"}}, {"type": "node", "id": 11580309877, "lat": 45.8306958, "lon": 24.9237138, "tags": {"addr:city": "Beclean", "addr:housenumber": "198", "addr:postcode": "507010", "amenity": "pharmacy", "healthcare": "pharmacy", "name": "Farmacie"}}, {"type": "node", "id": 11598565701, "lat": 45.8299559, "lon": 25.1403162, "tags": {"addr:city": "\u0218ercaia", "addr:postcode": "507195", "amenity": "pharmacy", "healthcare": "pharmacy", "name": "Farmacie"}}, {"type": "node", "id": 11778682682, "lat": 45.7895055, "lon": 24.9977474}, {"type": "node", "id": 11778682684, "lat": 45.7895889, "lon": 24.9976557}, {"type": "node", "id": 11778682685, "lat": 45.7895312, "lon": 24.9976348}, {"type": "node", "id": 11778682686, "lat": 45.7895623, "lon": 24.9977751}, {"type": "way", "id": 1101788364, "nodes": [10082438049, 10082438048, 10082438054, 10082438055, 10082438049], "tags": {"addr:city": "Ucea de Jos", "addr:postcode": "507238", "addr:street": "Strada Regele Mihai", "amenity": "pharmacy", "building": "yes", "healthcare": "pharmacy", "name": "Farmacia Evofarm"}}, {"type": "way", "id": 1268194542, "nodes": [11778682684, 11778682685, 11778682682, 11778682686, 11778682684], "tags": {"addr:city": "Ileni", "addr:postcode": "507126", "addr:street": "Strada Principal\u0103", "amenity": "pharmacy", "building": "yes", "healthcare": "pharmacy", "name": "Farmacie"}}]}