{"version": 0.6, "generator": "Overpass API 0.7.62.8 e802775f", "osm3s": {"timestamp_osm_base": "2025-10-06T08:11:00Z", "copyright": "The data included in this document is from www.openstreetmap.org. The data is made available under ODbL."}, "elements": [{"type": "node", "id": 442044770, "lat": 49.8225044, "lon": 19.0565624, "tags": {"addr:city": "Bielsko-Bia\u0142a", "addr:housenumber": "86", "addr:postcode": "43-300", "addr:street": "11 Listopada", "amenity": "pharmacy", "dispensing": "yes", "healthcare": "pharmacy", "name": "Pod Anio\u0142em", "opening_hours": "Mo-Fr 08:00-19:00; Sa 08:00-15:00", "ref:csioz": "1057703"}}, {"type": "node", "id": 442455871, "lat": 49.8239644, "lon": 19.0497907, "tags": {"amenity": "pharmacy", "dispensing": "yes", "healthcare": "pharmacy", "name": "Klimczok", "opening_hours": "24/7", "ref:csioz": "1057809"}}, {"type": "node", "id": 494589083, "lat": 50.1127983, "lon": 18.9626734, "tags": {"addr:city": "Tychy", "addr:postcode": "43-100", "addr:street": "Borowa", "amenity": "pharmacy", "dispensing": "yes", "healthcare": "pharmacy", "name": "Bliska Ciebie", "opening_hours": "Mo-Fr 08:00-21:00, Sa 08:00-15:00"}}, {"type": "node", "id": 558869035, "lat": 49.8491964, "lon": 19.2172149, "tags": {"amenity": "pharmacy", "healthcare": "pharmacy", "name": "Apteka Panaceum", "opening_hours": "Mo-Fr 08:00-20:00; Sa 08:00-15:00"}}, {"type": "node", "id": 653451534, "lat": 49.813569, "lon": 18.7188074, "tags": {"addr:city": "D\u0119bowiec", "addr:housenumber": "3", "addr:postcode": "43-426", "addr:street": "Katowicka", "amenity": "pharmacy", "dispensing": "yes", "drive_through": "no", "healthcare": "pharmacy", "name": "Apteka Arnika", "ref:csioz": "1061767"}}, {"type": "node", "id": 846571322, "lat": 49.7893457, "lon": 19.034303, "tags": {"addr:city": "Bielsko-Bia\u0142a", "addr:housenumber": "132", "addr:postcode": "43-300", "addr:street": "Aleja Armii Krajowej", "amenity": "pharmacy", "dispensing": "yes", "healthcare": "pharmacy", "name": "Pod D\u0119bowcem", "ref:csioz": "1057742"}}, {"type": "node", "id": 922123754, "lat": 49.8281468, "lon": 19.0435641, "tags": {"amenity": "pharmacy", "dispensing": "yes", "healthcare": "pharmacy", "name": "DOZ", "official_name": "Apteka Dbam O Zdrowie", "opening_hours": "Mo-Fr 07:30-19:30; Sa 07:30-14:00", "ref:csioz": "1173342"}}, {"type": "node", "id": 975653035, "lat": 49.8812667, "lon": 19.2260823, "tags": {"addr:city": "K\u0119ty", "addr:housenumber": "13", "addr:postcode": "32-650", "addr:street": "Henryka Sienkiewicza", "amenity": "pharmacy", "dispensing": "yes", "healthcare": "pharmacy", "name": "\u015bw. Anny", "opening_hours": "M0-Fr 08:00-19:00; Sa 08:00-13:00"}}, {"type": "node", "id": 1101680051, "lat": 49.8029081, "lon": 19.0500195, "tags": {"addr:city": "Bielsko-Bia\u0142a", "addr:housenumber": "20", "addr:postcode": "43-300", "addr:street": "Leszczy\u0144ska", "amenity": "pharmacy", "brand": "Ziko Apteka", "brand:wikidata": "Q63432892", "dispensing": "yes", "healthcare": "pharmacy", "name": "Ziko Apteka", "opening_hours": "Mo-Sa 09:00-21:00, Su 10:00-20:00", "payment:cash": "yes", "payment:coins": "yes", "payment:mastercard": "yes", "payment:visa": "yes", "phone": "+48 12 687 57 47", "ref:csioz": "1058015", "short_name": "Ziko", "website": "https://www.ziko.pl/bielsko-biala-apteki-drogerie-ziko/leszczynska-20/"}}, {"type": "node", "id": 1124825498, "lat": 49.7211674, "lon": 19.1495219, "tags": {"amenity": "pharmacy", "dispensing": "yes", "healthcare": "pharmacy", "name": "Apteka Parkowa"}}, {"type": "node", "id": 1189417214, "lat": 49.755904, "lon": 18.6382313, "tags": {"addr:city": "Cieszyn", "addr:housenumber": "3A", "addr:postcode": "43-400", "addr:street": "Hilarego Filasiewicza", "amenity": "pharmacy", "dispensing": "yes", "healthcare": "pharmacy", "name": "Centrum", "ref:csioz": "1222506"}}, {"type": "node", "id": 1195783520, "lat": 49.8465785, "lon": 19.1458721}, {"type": "node", "id": 1195783525, "lat": 49.8465432, "lon": 19.1456589}, {"type": "node", "id": 1195783589, "lat": 49.8464263, "lon": 19.1458235}, {"type": "node", "id": 1195783602, "lat": 49.846557, "lon": 19.1458238}, {"type": "node", "id": 1195783617, "lat": 49.8465021, "lon": 19.1457027}, {"type": "node", "id": 1195783637, "lat": 49.84649, "lon": 19.1459664}, {"type": "node", "id": 1195783700, "lat": 49.8464952, "lon": 19.1456873}, {"type": "node", "id": 1195783715, "lat": 49.8465974, "lon": 19.1457807}, {"type": "node", "id": 1195783772, "lat": 49.8464074, "lon": 19.1457809}, {"type": "node", "id": 1238491020, "lat": 49.8446505, "lon": 19.1433549}, {"type": "node", "id": 1238491021, "lat": 49.8446156, "lon": 19.1432668}, {"type": "node", "id": 1238491025, "lat": 49.8446161, "lon": 19.1435043}, {"type": "node", "id": 1238491028, "lat": 49.8446842, "lon": 19.1434398}, {"type": "node", "id": 1238491029, "lat": 49.8445476, "lon": 19.1433313}, {"type": "node", "id": 1251146896, "lat": 49.8301015, "lon": 19.0448281, "tags": {"amenity": "pharmacy", "dispensing": "yes", "email": "aptekanadworcu@interia.pl", "healthcare": "pharmacy", "name": "Apteka Na Dworcu", "official_name": "Apteka Na Dworcu Ca\u0142odobowa", "opening_hours": "24/7", "phone": "+48 33 812 24 76", "ref:csioz": "1058380", "website": "https://www.aptekanadworcu.com.pl/", "wheelchair": "yes"}}, {"type": "node", "id": 1432107900, "lat": 49.982811, "lon": 19.1526247, "tags": {"addr:city": "Brzeszcze", "addr:housename": "Galeria Green Park", "addr:housenumber": "31", "addr:postcode": "32-620", "addr:street": "Ofiar O\u015bwi\u0119cimia", "amenity": "pharmacy", "healthcare": "pharmacy", "name": "Centrum - Centrum Tanich Lek\u00f3w", "ref:csioz": "1038584"}}, {"type": "node", "id": 1664582270, "lat": 49.9522534, "lon": 18.6097495, "tags": {"addr:city": "Jastrz\u0119bie-Zdr\u00f3j", "addr:housenumber": "9", "addr:street": "Harcerska", "amenity": "pharmacy", "dispensing": "yes", "healthcare": "pharmacy", "name": "Damian", "opening_hours": "24/7", "ref:csioz": "1062774"}}, {"type": "node", "id": 1738462549, "lat": 50.1175595, "lon": 18.9930202, "tags": {"amenity": "pharmacy", "healthcare": "pharmacy", "name": "B\u0105d\u017a Zdr\u00f3w"}}, {"type": "node", "id": 1751760446, "lat": 49.8955527, "lon": 18.8122357, "tags": {"addr:city": "Chybie", "addr:housenumber": "61", "addr:postcode": "43-520", "addr:street": "Bielska", "amenity": "pharmacy", "dispensing": "yes", "healthcare": "pharmacy", "ref:csioz": "1059746"}}, {"type": "node", "id": 1760621191, "lat": 49.6470631, "lon": 18.8667531, "tags": {"addr:city": "Wis\u0142a", "addr:housenumber": "4", "addr:postcode": "43-460", "addr:street": "Dziechcinka", "amenity": "pharmacy", "dispensing": "yes", "healthcare": "pharmacy", "name": "Dziechcinka", "ref:csioz": "1201604"}}, {"type": "node", "id": 1760621192, "lat": 49.6503829, "lon": 18.8696599, "tags": {"addr:city": "Wis\u0142a", "addr:housenumber": "6a", "addr:postcode": "43-460", "addr:street": "Willowa", "amenity": "pharmacy", "dispensing": "yes", "healthcare": "pharmacy", "name": "Na Blejchu", "opening_hours": "Mo-Sa 08:00-18:00", "phone": "+48338551419"}}, {"type": "node", "id": 1761139011, "lat": 49.951059, "lon": 18.5971983, "tags": {"addr:city": "Jastrz\u0119bie-Zdr\u00f3j", "addr:housenumber": "2", "addr:postcode": "44-335", "addr:street": "Warszawska", "amenity": "pharmacy", "brand": "Ziko Apteka", "brand:wikidata": "Q63432892", "description": "Ziko Apteka zlokalizowana jest w Jastrz\u0119bie-Zdroju przy ulicy Warszawskiej 2. Czynna jest przez 6 dni w tygodniu \u2013 od poniedzia\u0142ku do soboty. W niedziele handlowe plac\u00f3wka jest czynna.", "dispensing": "yes", "healthcare": "pharmacy", "name": "Ziko Apteka", "opening_hours": "Mo-Sa 09:00-21:00, Su 10:00-20:00", "payment:cash": "yes", "payment:coins": "yes", "payment:mastercard": "yes", "payment:visa": "yes", "phone": "+48 12 687 57 47", "ref:csioz": "1208725", "short_name": "Ziko", "website": "https://www.ziko.pl/jastrzebie-zdroj-apteki-drogerie-ziko/warszawska-2/"}}, {"type": "node", "id": 1761170586, "lat": 49.940002, "lon": 18.5933325, "tags": {"addr:city": "Jastrz\u0119bie-Zdr\u00f3j", "addr:housenumber": "26", "addr:street": "Podhala\u0144ska", "amenity": "pharmacy", "dispensing": "yes", "healthcare": "pharmacy", "name": "Duos", "opening_hours": "Mo-Fr 9:00-21:00; Su 10:00-20:00", "ref:csioz": "1180240"}}, {"type": "node", "id": 1794372596, "lat": 49.815686, "lon": 19.005182}, {"type": "node", "id": 1794372599, "lat": 49.815694, "lon": 19.005039}, {"type": "node", "id": 1794372601, "lat": 49.815703, "lon": 19.005318}, {"type": "node", "id": 1794372610, "lat": 49.815745, "lon": 19.005023}, {"type": "node", "id": 1794372614, "lat": 49.815754, "lon": 19.005303}, {"type": "node", "id": 1794372617, "lat": 49.815762, "lon": 19.00516}, {"type": "node", "id": 1794872761, "lat": 50.1239848, "lon": 18.9864345, "tags": {"amenity": "pharmacy", "dispensing": "yes", "email": "flo@farmacol.com.pl", "healthcare": "pharmacy", "name": "Pharma Flos", "opening_hours": "Mo-Fr 08:00-20:00;Sa 08:00-15:00", "phone": "+48322275349"}}, {"type": "node", "id": 1802439121, "lat": 49.8827549, "lon": 19.1401719, "tags": {"amenity": "pharmacy", "dispensing": "yes", "healthcare": "pharmacy", "name": "Apteka na Zdrowej"}}, {"type": "node", "id": 1802643822, "lat": 49.8778451, "lon": 19.1404801, "tags": {"amenity": "pharmacy", "healthcare": "pharmacy", "name": "Apteka"}}, {"type": "node", "id": 1839247117, "lat": 50.1166357, "lon": 18.9917972, "tags": {"addr:city": "Tychy", "addr:postcode": "43-100", "amenity": "pharmacy", "healthcare": "pharmacy", "name": "Apteka Centrum"}}, {"type": "node", "id": 1850579196, "lat": 49.8194333, "lon": 19.0234611, "tags": {"amenity": "pharmacy", "dispensing": "yes", "healthcare": "pharmacy", "name": "Na harcerskiej", "opening_hours": "Mo-Fr 09:00-19:00; Sa 09:00-14:00", "ref:csioz": "1057867"}}, {"type": "node", "id": 1879141084, "lat": 50.0278016, "lon": 18.7922603, "tags": {"addr:city": "Suszec", "addr:housenumber": "1", "addr:street": "Bukowa", "amenity": "pharmacy", "dispensing": "yes", "healthcare": "pharmacy", "name": "\u015aw. Stanis\u0142awa", "ref:csioz": "1069761"}}, {"type": "node", "id": 1880791823, "lat": 49.820454, "lon": 19.0319946, "tags": {"addr:city": "Bielsko-Bia\u0142a", "addr:housenumber": "64A", "addr:postcode": "43-300", "addr:street": "Jana III Sobieskiego", "amenity": "pharmacy", "dispensing": "yes", "healthcare": "pharmacy", "name": "Apteka S\u0142oneczna", "opening_hours": "Mo-Fr 08:00-20:00; Sa 08:00-13:00", "ref:csioz": "1058314", "website": "https://www.aptekasloneczna.pl/"}}, {"type": "node", "id": 2023523274, "lat": 49.9916352, "lon": 18.6239988, "tags": {"addr:city": "Jastrz\u0119bie-Zdr\u00f3j", "addr:housenumber": "3B", "addr:place": "Osiedle 1000-lecia", "amenity": "pharmacy", "dispensing": "yes", "healthcare": "pharmacy", "name": "Pod R\u0119k\u0105", "ref:csioz": "1062834"}}, {"type": "node", "id": 2114369728, "lat": 49.9608487, "lon": 18.7744675, "tags": {"addr:city": "Studzionka", "addr:housenumber": "4", "addr:street": "Powsta\u0144c\u00f3w \u015al\u0105skich", "amenity": "pharmacy", "dispensing": "yes", "healthcare": "pharmacy", "name": "Punkt Apteczny Pharmacon", "ref:csioz": "1111457"}}, {"type": "node", "id": 2122707983, "lat": 49.9223102, "lon": 18.9996714, "tags": {"addr:housenumber": "6", "addr:street": "Kornela Makuszy\u0144skiego", "amenity": "pharmacy", "healthcare": "pharmacy", "name": "Apteka Galenika"}}, {"type": "node", "id": 2138368509, "lat": 49.9484488, "lon": 18.5709142, "tags": {"addr:city": "Jastrz\u0119bie-Zdr\u00f3j", "addr:housenumber": "29", "addr:street": "1 Maja", "amenity": "pharmacy", "dispensing": "yes", "healthcare": "pharmacy", "name": "Zdr\u00f3j", "ref:csioz": "1062725"}}, {"type": "node", "id": 2159876197, "lat": 49.9200988, "lon": 19.0078464, "tags": {"amenity": "pharmacy", "healthcare": "pharmacy", "name": "Apteka S\u0142oneczna"}}, {"type": "node", "id": 2161378510, "lat": 49.6584684, "lon": 18.6991178, "tags": {"amenity": "pharmacy", "contact:email": "herba@herbalekarna.cz", "contact:phone": "+420 558 350 829", "contact:website": "https://herba-lekarna.cz/", "dispensing": "no", "healthcare": "pharmacy", "name": "Herba", "opening_hours": "Mo,Fr 08:00-15:00; Tu,Th 08:00-12:30; We 08:00-16:00", "ref:SUKL": "200451568"}}, {"type": "node", "id": 2167774156, "lat": 49.9474075, "lon": 18.6035494, "tags": {"addr:city": "Jastrz\u0119bie-Zdr\u00f3j", "addr:housenumber": "23", "addr:street": "\u0141owicka", "amenity": "pharmacy", "dispensing": "yes", "healthcare": "pharmacy", "name": "4 Pory", "ref:csioz": "1164697"}}, {"type": "node", "id": 2178898510, "lat": 50.0427496, "lon": 18.6863587, "tags": {"addr:city": "\u017bory", "addr:housenumber": "14", "addr:street": "Wodzis\u0142awska", "amenity": "pharmacy", "dispensing": "yes", "healthcare": "pharmacy", "name": "Pharmacon", "opening_hours": "24/7", "ref:csioz": "1072288"}}, {"type": "node", "id": 2200318472, "lat": 49.968867, "lon": 19.0523914, "tags": {"addr:city": "Grzawa", "addr:housenumber": "29", "addr:street": "Pszczy\u0144ska", "amenity": "pharmacy", "dispensing": "yes", "healthcare": "pharmacy", "name": "\u015aw. Stanis\u0142awa 2", "opening_hours": "Mo-Fr 08:00-20:00, Sa 08:00-14:00", "ref:csioz": "1110915"}}, {"type": "node", "id": 2203950153, "lat": 49.9761033, "lon": 19.1051223, "tags": {"amenity": "pharmacy", "dispensing": "yes", "healthcare": "pharmacy", "name": "Punkt Apteczny", "ref:csioz": "1231278"}}, {"type": "node", "id": 2218851592, "lat": 50.0923847, "lon": 19.0904008, "tags": {"addr:housenumber": "4", "addr:postcode": "43-150", "addr:street": "Jerzego", "amenity": "pharmacy", "healthcare": "pharmacy", "name": "Apteka \u015bw. Stanis\u0142awa", "opening_hours": "Mo-Fr 07:30-20:00; Sa 08:00-14:00"}}, {"type": "node", "id": 2219447615, "lat": 50.0934679, "lon": 19.0923075, "tags": {"amenity": "pharmacy", "healthcare": "pharmacy"}}, {"type": "node", "id": 2219447621, "lat": 50.0938338, "lon": 19.0934636, "tags": {"amenity": "pharmacy", "healthcare": "pharmacy"}}, {"type": "node", "id": 2266466579, "lat": 49.9161029, "lon": 19.1526054, "tags": {"amenity": "pharmacy", "healthcare": "pharmacy", "name": "Medena"}}, {"type": "node", "id": 2286421317, "lat": 49.7175918, "lon": 19.0296209, "tags": {"amenity": "pharmacy", "dispensing": "yes", "email": "apt65780@dbamozdrowie.pl", "healthcare": "pharmacy", "name": "Dbam o Zdrowie", "phone": "+48 736 697 834", "short_name": "DOZ"}}, {"type": "node", "id": 2298729736, "lat": 49.9613327, "lon": 19.1912753, "tags": {"amenity": "pharmacy", "dispensing": "yes", "ref:csioz": "1122966"}}, {"type": "node", "id": 2309753135, "lat": 49.8461635, "lon": 19.2162786, "tags": {"amenity": "pharmacy", "healthcare": "pharmacy", "name:signed": "no"}}, {"type": "node", "id": 2310051428, "lat": 49.9851439, "lon": 18.8351226, "tags": {"addr:city": "Brze\u017ace", "addr:housenumber": "7", "addr:street": "Ofiar Faszyzmu", "amenity": "pharmacy", "dispensing": "yes", "healthcare": "pharmacy", "name": "Punkt Apteczny \u015aw. Stanis\u0142awa", "opening_hours": "Mo-Fr 08:00-16:00; Sa 08:00-13:00", "ref:csioz": "1072546"}}, {"type": "node", "id": 2400892297, "lat": 49.9110892, "lon": 19.0086812, "tags": {"amenity": "pharmacy", "check_date": "2023-10-09", "healthcare": "pharmacy", "name": "Apteka W Rynku"}}, {"type": "node", "id": 2435492851, "lat": 49.9494955, "lon": 18.5961898, "tags": {"addr:city": "Jastrz\u0119bie-Zdr\u00f3j", "addr:housenumber": "2a", "addr:postcode": "44-335", "addr:street": "Wielkopolska", "amenity": "pharmacy", "dispensing": "yes", "healthcare": "pharmacy", "name": "Zdrowit", "phone": "+48 32 4719473", "ref:csioz": "1062902"}}, {"type": "node", "id": 2439419468, "lat": 49.9174469, "lon": 18.7639453, "tags": {"addr:city": "Strumie\u0144", "addr:housenumber": "1", "addr:postcode": "43-246", "addr:street": "Ksi\u0119dza J\u00f3zefa Londzina", "amenity": "pharmacy", "dispensing": "yes", "healthcare": "pharmacy", "name": "Eskulap", "ref:csioz": "1069736"}}, {"type": "node", "id": 2458422369, "lat": 49.7236038, "lon": 18.9089385, "tags": {"addr:city": "Brenna", "addr:housenumber": "34A", "addr:postcode": "43-438", "addr:street": "Wyzwolenia", "amenity": "pharmacy", "dispensing": "yes", "healthcare": "pharmacy", "name": "Apteka", "ref:csioz": "1058608"}}, {"type": "node", "id": 2476353019, "lat": 49.7716206, "lon": 18.8520521, "tags": {"addr:city": "G\u00f3rki Wielkie", "addr:housenumber": "2", "addr:postcode": "43-436", "addr:street": "Bre\u0144ska", "amenity": "pharmacy", "dispensing": "yes", "healthcare": "pharmacy", "name": "G\u00f3rki", "ref:csioz": "1062556"}}, {"type": "node", "id": 2486232979, "lat": 49.7218156, "lon": 18.9167634, "tags": {"amenity": "pharmacy", "dispensing": "yes", "healthcare": "pharmacy", "name": "Apteka"}}, {"type": "node", "id": 2496170167, "lat": 49.7707006, "lon": 18.8508264, "tags": {"addr:city": "G\u00f3rki Ma\u0142e", "addr:housenumber": "3", "addr:postcode": "43-436", "addr:street": "Zalesie", "amenity": "pharmacy", "dispensing": "yes", "healthcare": "pharmacy", "name": "W G\u00f3rkach", "phone": "+48 33 853 92 05", "ref:csioz": "1062543"}}, {"type": "node", "id": 2534809172, "lat": 50.1089014, "lon": 18.9798812, "tags": {"amenity": "pharmacy", "brand": "Dbam o Zdrowie", "brand:wikidata": "Q62563833", "check_date:opening_hours": "2025-02-24", "dispensing": "yes", "email": "tychybiels@dbamozdrowie.pl", "healthcare": "pharmacy", "name": "Dbam o Zdrowie", "opening_hours": "Mo-Sa 08:00-21:00; Su 09:00-20:00", "phone": "+48 32 3294664", "website": "https://www.doz.pl/apteki/a101291-Apteka", "wheelchair": "yes"}}, {"type": "node", "id": 2552407449, "lat": 49.9736689, "lon": 18.9373125, "tags": {"addr:city": "Pszczyna", "addr:housenumber": "2", "addr:street": "Bielska", "amenity": "pharmacy", "dispensing": "yes", "healthcare": "pharmacy", "name": "Na Bielskiej", "ref:csioz": "1066986"}}, {"type": "node", "id": 2557806857, "lat": 49.9771129, "lon": 18.9516259, "tags": {"addr:city": "Pszczyna", "addr:housenumber": "36", "addr:postcode": "43-200", "addr:street": "Dworcowa", "amenity": "pharmacy", "dispensing": "yes", "healthcare": "pharmacy", "name": "S\u0142oneczna", "opening_hours": "Mo-Fr 07:00-21:00; Sa 07:00-15:00", "phone": "32 447 01 22", "ref:csioz": "1067036", "website": "http://www.apteka-sloneczna.pl/pszczyna/"}}, {"type": "node", "id": 2564321258, "lat": 49.9746527, "lon": 18.948483, "tags": {"addr:city": "Pszczyna", "addr:housenumber": "27", "addr:postcode": "43-200", "addr:street": "Stefana Batorego", "amenity": "pharmacy", "dispensing": "yes", "healthcare": "pharmacy", "name": "Lerch\u00f3wka", "opening_hours": "Mo-Fr 07:00-20:00", "ref:csioz": "1066978"}}, {"type": "node", "id": 2578001771, "lat": 49.9687705, "lon": 18.9443841, "tags": {"amenity": "pharmacy", "dispensing": "yes", "healthcare": "pharmacy", "name": "Pod Baranem 3", "opening_hours": "Mo-Fr 07:00-20:00; Sa 07:00-14:00", "ref:csioz": "1208112"}}, {"type": "node", "id": 2588731034, "lat": 49.9685339, "lon": 18.9390054, "tags": {"addr:city": "Pszczyna", "addr:housenumber": "4", "addr:street": "S\u0142oneczna", "amenity": "pharmacy", "dispensing": "yes", "healthcare": "pharmacy", "name": "Pod Baranem 2", "ref:csioz": "1067073"}}, {"type": "node", "id": 2595617260, "lat": 49.9781091, "lon": 18.9436853, "tags": {"addr:city": "Pszczyna", "addr:housenumber": "6", "addr:postcode": "43-200", "addr:street": "Piastowska", "amenity": "pharmacy", "dispensing": "yes", "healthcare": "pharmacy", "name": "S\u0142oneczna", "opening_hours": "Mo-Fr 08:00-19:00; Sa 08:00-13:00", "phone": "+48 322103829", "ref:csioz": "1067057", "wheelchair": "no"}}, {"type": "node", "id": 2595618335, "lat": 49.9787099, "lon": 18.9448367, "tags": {"addr:city": "Pszczyna", "addr:housenumber": "6", "addr:postcode": "43-200", "addr:street": "Piwowarska", "amenity": "pharmacy", "dispensing": "yes", "healthcare": "pharmacy", "name": "Pod Baranem", "opening_hours": "Mo-Su 07:00-22:00", "ref:csioz": "1067061", "website": "http://www.podbaranem.pl", "wheelchair": "yes"}}, {"type": "node", "id": 2598783939, "lat": 49.913159, "lon": 19.0036765, "tags": {"addr:city": "Czechowice-Dziedzice", "addr:housenumber": "12", "addr:postcode": "43-500", "addr:street": "Marsza\u0142ka J\u00f3zefa Pi\u0142sudskiego", "amenity": "pharmacy", "healthcare": "pharmacy", "name": "Eureka"}}, {"type": "node", "id": 2626895620, "lat": 50.1079779, "lon": 18.9681915, "tags": {"amenity": "pharmacy", "healthcare": "pharmacy", "opening_hours": "Mo-Fr 08:00-20:00; Sa 08:00-14:00", "phone": "+48 32 329 44 14"}}, {"type": "node", "id": 2632203463, "lat": 49.9133531, "lon": 19.0122742}, {"type": "node", "id": 2632203466, "lat": 49.9133715, "lon": 19.0121107}, {"type": "node", "id": 2632203494, "lat": 49.9134323, "lon": 19.0121273}, {"type": "node", "id": 2632203505, "lat": 49.913467, "lon": 19.0123052}, {"type": "node", "id": 2632203517, "lat": 49.9134854, "lon": 19.0121417}, {"type": "node", "id": 2633745021, "lat": 49.9123523, "lon": 18.9967339, "tags": {"amenity": "pharmacy", "healthcare": "pharmacy", "name": "Dermosfera"}}, {"type": "node", "id": 2639556433, "lat": 49.8136303, "lon": 19.0369376, "tags": {"amenity": "pharmacy", "dispensing": "yes", "healthcare": "pharmacy", "name": "\u015aw. Barbary", "ref:csioz": "1058066"}}, {"type": "node", "id": 2672334407, "lat": 49.7201293, "lon": 18.8110144, "tags": {"addr:city": "Ustro\u0144", "addr:housenumber": "8", "addr:postcode": "43-450", "addr:street": "Ignacego Daszy\u0144skiego", "amenity": "pharmacy", "dispensing": "yes", "healthcare": "pharmacy", "name": "Centrum", "opening_hours": "Mo-Sa 08:00-19:30; Su 09:30-13:00", "ref:csioz": "1070762"}}, {"type": "node", "id": 2672334438, "lat": 49.7200055, "lon": 18.8129074, "tags": {"amenity": "pharmacy", "healthcare": "pharmacy", "name": "Venus"}}, {"type": "node", "id": 2686773478, "lat": 49.8062861, "lon": 19.0340664, "tags": {"amenity": "pharmacy", "dispensing": "yes", "healthcare": "pharmacy", "name": "Farmacja", "opening_hours": "Mo-Fr 08:00-19:00; Sa 08:00-14:00", "phone": "338100605", "ref:csioz": "1058187"}}, {"type": "node", "id": 2701001519, "lat": 49.8776818, "lon": 19.2126126, "tags": {"addr:city": "K\u0119ty", "addr:housenumber": "28", "addr:postcode": "32-650", "addr:street": "Legion\u00f3w", "amenity": "pharmacy", "healthcare": "pharmacy", "ref:csioz": "1036805"}}, {"type": "node", "id": 2745292778, "lat": 49.9433521, "lon": 18.9741557, "tags": {"addr:city": "Gocza\u0142kowice-Zdr\u00f3j", "addr:housenumber": "2D", "addr:postcode": "43-230", "addr:street": "Boczna", "amenity": "pharmacy", "dispensing": "yes", "drive_through": "no", "healthcare": "pharmacy", "name": "Pod Eskulapem", "opening_hours": "Mo-Fr 08:00-18:00; Sa 08:00-14:00", "ref:csioz": "1062495"}}, {"type": "node", "id": 2775543998, "lat": 49.8812974, "lon": 19.2149002, "tags": {"addr:city": "K\u0119ty", "addr:housenumber": "39", "addr:postcode": "32-650", "addr:street": "Jana III Sobieskiego", "amenity": "pharmacy", "healthcare": "pharmacy", "name": "Remedium", "ref:csioz": "1076496"}}, {"type": "node", "id": 3013899022, "lat": 49.9749884, "lon": 18.9578174, "tags": {"addr:city": "Pszczyna", "addr:housenumber": "1A", "addr:street": "W\u0142adys\u0142awa Broniewskiego", "amenity": "pharmacy", "brand": "Dbam o Zdrowie", "brand:wikidata": "Q62563833", "dispensing": "yes", "healthcare": "pharmacy", "name": "Dbam o Zdrowie", "ref:csioz": "1067004", "short_name": "DOZ"}}, {"type": "node", "id": 3025252940, "lat": 49.9503284, "lon": 18.575555, "tags": {"addr:city": "Jastrz\u0119bie-Zdr\u00f3j", "addr:housenumber": "2", "addr:postcode": "44-330", "addr:street": "11 Listopada", "amenity": "pharmacy", "brand": "Ziko Apteka", "brand:wikidata": "Q63432892", "description": "Ziko Apteka zlokalizowana jest w Jastrz\u0119bie-Zdr\u00f3j przy ulicy 11 Listopada 2. Czynna jest przez 6 dni w tygodniu \u2013 od poniedzia\u0142ku do soboty. W niedziele plac\u00f3wka jest nieczynna.", "dispensing": "yes", "healthcare": "pharmacy", "name": "Ziko Apteka", "opening_hours": "Mo-Fr 08:00-20:00, Sa 08:00-16:00", "payment:cash": "yes", "payment:coins": "yes", "payment:mastercard": "yes", "payment:visa": "yes", "phone": "+48 12 687 57 47", "ref:csioz": "1170553", "short_name": "Ziko", "website": "https://www.ziko.pl/jastrzebie-zdroj-apteki-drogerie-ziko/11-listopada-2/"}}, {"type": "node", "id": 3031564828, "lat": 49.637242, "lon": 18.7203992, "tags": {"addr:city": "Byst\u0159ice", "addr:housenumber": "1501", "addr:place": "Byst\u0159ice", "addr:postcode": "73995", "amenity": "pharmacy", "contact:email": "herba@herbalekarna.cz", "contact:phone": "+420 558 986 688", "healthcare": "pharmacy", "name": "Herba", "opening_hours": "Mo-Fr 07:30-17:00; Sa 07:00-11:00", "ref:SUKL": "86384000000", "website": "https://www.herba-lekarna.cz/lekarna-herba-bystrice/"}}, {"type": "node", "id": 3043966756, "lat": 49.7850489, "lon": 19.0737627, "tags": {"addr:city": "Bielsko-Bia\u0142a", "addr:housenumber": "312", "addr:postcode": "43-300", "addr:street": "\u017bywiecka", "amenity": "pharmacy", "dispensing": "yes", "healthcare": "pharmacy", "name": "Apteka Sante", "official_name": "Apteka Sante W Mikuszowicach", "opening_hours": "Mo-Fr 08:00-19:00; Sa 08:00-14:00; PH off", "ref:csioz": "1112111"}}, {"type": "node", "id": 3076650795, "lat": 49.7955999, "lon": 19.0962157, "tags": {"amenity": "pharmacy", "dispensing": "yes", "healthcare": "pharmacy", "name": "Apteka Agaty", "opening_hours": "Mo-Fr 08:00-20:00; Sa 08:00-14:00; Su 09:00-12:00", "phone": "+48 33 816 07 77", "ref:csioz": "1057851"}}, {"type": "node", "id": 3179299058, "lat": 49.7641277, "lon": 19.0702031}, {"type": "node", "id": 3179299066, "lat": 49.7641947, "lon": 19.0701573}, {"type": "node", "id": 3290776114, "lat": 49.8027952, "lon": 19.0287822, "tags": {"amenity": "pharmacy", "dispensing": "yes", "healthcare": "pharmacy", "name": "Apteka \u015aw. Miko\u0142aja", "opening_hours": "Mo-Fr 08:00-20:00; Sa 08:00-16:00", "ref:csioz": "1198894"}}, {"type": "node", "id": 3336420900, "lat": 50.0104982, "lon": 18.9093028, "tags": {"addr:city": "Czark\u00f3w", "addr:housenumber": "23", "addr:postcode": "43-211", "addr:street": "Powsta\u0144c\u00f3w \u015al\u0105skich", "amenity": "pharmacy", "dispensing": "yes", "healthcare": "pharmacy", "name": "Punkt Apteczny Arkadia", "opening_hours": "Mo-Fr 09:00-16:00", "ref:csioz": "1072595"}}, {"type": "node", "id": 3398880743, "lat": 49.8798971, "lon": 18.9488075, "tags": {"addr:city": "Ligota", "addr:housenumber": "2", "addr:postcode": "43-518", "addr:street": "Bielska", "amenity": "pharmacy", "drive_through": "no", "healthcare": "pharmacy", "name": "Familia", "wheelchair": "yes"}}, {"type": "node", "id": 3427781674, "lat": 49.8005816, "lon": 18.7872302, "tags": {"addr:city": "Skocz\u00f3w", "addr:housenumber": "3B", "addr:postcode": "43-430", "addr:street": "Cieszy\u0144ska", "amenity": "pharmacy", "healthcare": "pharmacy", "name": "Apteka Zdrowit", "ref:csioz": "1122423"}}, {"type": "node", "id": 3437645541, "lat": 49.8797105, "lon": 18.6130272, "tags": {"addr:city": "Zebrzydowice", "addr:housenumber": "10A", "addr:postcode": "43-410", "addr:street": "Ksi\u0119dza Antoniego Janusza", "amenity": "pharmacy", "dispensing": "yes", "healthcare": "pharmacy", "name": "Apteka Centrum", "ref:csioz": "1110842"}}, {"type": "node", "id": 3437645542, "lat": 49.8773874, "lon": 18.6050917, "tags": {"addr:city": "Zebrzydowice", "addr:housenumber": "2C", "addr:postcode": "43-410", "addr:street": "Jutrzenki", "amenity": "pharmacy", "dispensing": "yes", "healthcare": "pharmacy", "name": "Apteka Zdr\u00f3j Przy Biedronce", "ref:csioz": "1221968"}}, {"type": "node", "id": 3437645543, "lat": 50.0452117, "lon": 18.6889384, "tags": {"addr:city": "\u017bory", "addr:housenumber": "3C", "addr:street": "Aleja Wojska Polskiego", "amenity": "pharmacy", "dispensing": "yes", "healthcare": "pharmacy", "name": "Na Rondzie", "ref:csioz": "1072108"}}, {"type": "node", "id": 3464897846, "lat": 49.876079, "lon": 19.1333296, "tags": {"addr:city": "Pisarzowice", "addr:housenumber": "46A", "addr:postcode": "43-332", "addr:street": "Bielska", "amenity": "pharmacy", "healthcare": "pharmacy"}}, {"type": "node", "id": 3513397036, "lat": 49.839263, "lon": 18.9395312, "tags": {"amenity": "pharmacy", "healthcare": "pharmacy"}}, {"type": "node", "id": 3521482011, "lat": 49.9197351, "lon": 19.0085481, "tags": {"amenity": "pharmacy", "healthcare": "pharmacy", "name": "Hygieja"}}, {"type": "node", "id": 3521842897, "lat": 49.9141939, "lon": 19.0022858, "tags": {"addr:city": "Czechowice-Dziedzice", "addr:housenumber": "17", "addr:postcode": "43-502", "addr:street": "Kolejowa", "amenity": "pharmacy", "dispensing": "yes", "drive_through": "no", "healthcare": "pharmacy", "name": "Hygieia"}}, {"type": "node", "id": 3608118499, "lat": 49.9377899, "lon": 19.2046841, "tags": {"amenity": "pharmacy", "name": "Melisa"}}, {"type": "node", "id": 3608118500, "lat": 49.8836725, "lon": 19.220651, "tags": {"addr:city": "K\u0119ty", "addr:housenumber": "27", "addr:postcode": "32-650", "addr:street": "Rynek", "amenity": "pharmacy", "healthcare": "pharmacy", "name": "Niezapominajka", "ref:csioz": "1117737"}}, {"type": "node", "id": 3608118501, "lat": 49.8822033, "lon": 19.2223045, "tags": {"amenity": "pharmacy", "name": "Pod or\u0142em"}}, {"type": "node", "id": 3621791516, "lat": 49.9081511, "lon": 19.0007547, "tags": {"addr:city": "Czechowice-Dziedzice", "addr:housenumber": "13", "addr:postcode": "43-502", "addr:street": "Jagiello\u0144ska", "amenity": "pharmacy", "healthcare": "pharmacy", "name": "Apteka im. Ojca Pio"}}, {"type": "node", "id": 3716777909, "lat": 49.8055661, "lon": 18.9489774, "tags": {"amenity": "pharmacy", "brand": "4PoryRoku", "healthcare": "pharmacy", "name": "Apteka przy Wiarusie", "opening_hours": "Mo-Fr 08:00-19:00; Sa 08:00-15:00; PH closed", "website": "http://apteka4poryroku.pl"}}, {"type": "node", "id": 3772450768, "lat": 49.8900528, "lon": 19.0213294, "tags": {"amenity": "pharmacy", "healthcare": "pharmacy", "name": "Hipokrates"}}, {"type": "node", "id": 3797183682, "lat": 50.056925, "lon": 19.096742}, {"type": "node", "id": 3797201266, "lat": 50.0568778, "lon": 19.0967109}, {"type": "node", "id": 3797201270, "lat": 50.0568859, "lon": 19.0966334}, {"type": "node", "id": 3797201287, "lat": 50.0569879, "lon": 19.0966361}, {"type": "node", "id": 3797201290, "lat": 50.0570072, "lon": 19.096819}, {"type": "node", "id": 3797201307, "lat": 50.057042, "lon": 19.096785}, {"type": "node", "id": 3797201564, "lat": 50.0568927, "lon": 19.096657}, {"type": "node", "id": 3797201565, "lat": 50.0568932, "lon": 19.0965967}, {"type": "node", "id": 3797201573, "lat": 50.0569061, "lon": 19.0966051}, {"type": "node", "id": 3797201581, "lat": 50.0569179, "lon": 19.0965626}, {"type": "node", "id": 3797201584, "lat": 50.05692, "lon": 19.0967614}, {"type": "node", "id": 3797201609, "lat": 50.0569942, "lon": 19.096613}, {"type": "node", "id": 3797201648, "lat": 50.057068, "lon": 19.0966895}, {"type": "node", "id": 3804716438, "lat": 49.9133589, "lon": 19.1516257}, {"type": "node", "id": 3804716446, "lat": 49.9134994, "lon": 19.151605}, {"type": "node", "id": 3804734460, "lat": 49.9133513, "lon": 19.1514871}, {"type": "node", "id": 3804736563, "lat": 49.913492, "lon": 19.1514686}, {"type": "node", "id": 3842193017, "lat": 49.7837606, "lon": 19.0599159, "tags": {"amenity": "pharmacy", "dispensing": "yes", "healthcare": "pharmacy", "name": "Na B\u0142oniach", "official_name": "Apteka Na B\u0142oniach", "ref:csioz": "1058405"}}, {"type": "node", "id": 3845840568, "lat": 49.793909, "lon": 18.9467894}, {"type": "node", "id": 3845840571, "lat": 49.7939591, "lon": 18.9467826}, {"type": "node", "id": 3845843926, "lat": 49.7938579, "lon": 18.9467619}, {"type": "node", "id": 3845843929, "lat": 49.7938656, "lon": 18.9467785}, {"type": "node", "id": 3845843930, "lat": 49.7938669, "lon": 18.9467638}, {"type": "node", "id": 3845843936, "lat": 49.7939104, "lon": 18.9466096}, {"type": "node", "id": 3845843937, "lat": 49.7939131, "lon": 18.9465814}, {"type": "node", "id": 3845843939, "lat": 49.793992, "lon": 18.9468193}, {"type": "node", "id": 3845843940, "lat": 49.7940018, "lon": 18.9468119}, {"type": "node", "id": 3845843941, "lat": 49.7940022, "lon": 18.9466304}, {"type": "node", "id": 3845843942, "lat": 49.7940035, "lon": 18.9467951}, {"type": "node", "id": 3845844272, "lat": 49.7939581, "lon": 18.9467963}, {"type": "node", "id": 3845844377, "lat": 49.7940347, "lon": 18.9466377}, {"type": "node", "id": 3845844863, "lat": 49.7939102, "lon": 18.9467746}, {"type": "node", "id": 3845857689, "lat": 49.7939665, "lon": 18.9468156}, {"type": "node", "id": 3845857691, "lat": 49.7940049, "lon": 18.9466019}, {"type": "node", "id": 3845857693, "lat": 49.7940102, "lon": 18.9467967}, {"type": "node", "id": 3845871106, "lat": 49.794018, "lon": 18.9467192}, {"type": "node", "id": 3845876903, "lat": 49.7938729, "lon": 18.9466013}, {"type": "node", "id": 3845876905, "lat": 49.793904, "lon": 18.9468019}, {"type": "node", "id": 3845877368, "lat": 49.793872, "lon": 18.9467966}, {"type": "node", "id": 3845877376, "lat": 49.7940263, "lon": 18.9467214}, {"type": "node", "id": 3864715158, "lat": 49.8199798, "lon": 19.0411214, "tags": {"addr:city": "Bielsko-Bia\u0142a", "addr:housenumber": "2", "addr:postcode": "43-300", "addr:street": "Genera\u0142a W\u0142adys\u0142awa Sikorskiego", "amenity": "pharmacy", "dispensing": "yes", "healthcare": "pharmacy", "name": "Apteka \u015aw. Miko\u0142aja", "opening_hours": "Mo-Fr 07:00-20:00; Sa 07:00-14:00", "ref:csioz": "1057838", "wheelchair": "yes"}}, {"type": "node", "id": 3917643975, "lat": 49.7224278, "lon": 18.8076371, "tags": {"amenity": "pharmacy", "healthcare": "pharmacy"}}, {"type": "node", "id": 3921786661, "lat": 49.6551711, "lon": 18.8586116, "tags": {"addr:city": "Wis\u0142a", "addr:housenumber": "57", "addr:postcode": "43-460", "addr:street": "1 Maja", "amenity": "pharmacy", "contact:phone": "+48 333334554", "dispensing": "yes", "healthcare": "pharmacy", "name": "Apteka G\u0142\u00f3wna Pod Arkadami", "opening_hours": "Mo-Sa 08:00-18:00; Su 09:00-15:00", "ref:csioz": "1195882"}}, {"type": "node", "id": 3921786662, "lat": 49.6537933, "lon": 18.8601551, "tags": {"addr:city": "Wis\u0142a", "addr:housenumber": "53", "addr:postcode": "43-460", "addr:street": "1 Maja", "amenity": "pharmacy", "dispensing": "yes", "healthcare": "pharmacy", "name": "Apteka Molin-Pawe\u0142 Molin", "opening_hours": "Mo-Fr 08:00-18:00; Sa,Su 08:00-14:00", "ref:csioz": "1070913"}}, {"type": "node", "id": 3940269540, "lat": 49.9644741, "lon": 18.7184028, "tags": {"addr:city": "Paw\u0142owice", "addr:housenumber": "72A", "addr:street": "Zjednoczenia", "amenity": "pharmacy", "dispensing": "yes", "healthcare": "pharmacy", "name": "Punkt Apteczny Delfin", "ref:csioz": "1073111"}}, {"type": "node", "id": 3950214399, "lat": 49.8516349, "lon": 19.1941468, "tags": {"amenity": "pharmacy", "healthcare": "pharmacy"}}, {"type": "node", "id": 3975779819, "lat": 49.8045717, "lon": 18.8921622, "tags": {"amenity": "pharmacy", "healthcare": "pharmacy", "name": "Asklepios"}}, {"type": "node", "id": 3975867048, "lat": 49.805554, "lon": 18.9229535, "tags": {"addr:city": "Jasienica", "addr:housenumber": "933", "addr:postcode": "43-385", "addr:street": "Cieszy\u0144ska", "amenity": "pharmacy", "healthcare": "pharmacy"}}, {"type": "node", "id": 3976098374, "lat": 49.8136004, "lon": 18.9190203, "tags": {"addr:city": "Jasienica", "addr:housenumber": "845", "addr:postcode": "43-385", "addr:street": "Zdrowotna", "amenity": "pharmacy", "healthcare": "pharmacy", "name": "Parafarm"}}, {"type": "node", "id": 3993372213, "lat": 49.8568965, "lon": 18.985569, "tags": {"addr:city": "Maza\u0144cowice", "addr:housenumber": "22", "addr:postcode": "43-391", "addr:street": "Strzelc\u00f3w Podhala\u0144skich", "amenity": "pharmacy", "healthcare": "pharmacy", "name": "+Apteka+", "operator": "Bo\u017cena Bylica"}}, {"type": "node", "id": 4013604005, "lat": 49.9161269, "lon": 18.7599131, "tags": {"addr:city": "Strumie\u0144", "addr:housenumber": "13", "addr:postcode": "43-246", "addr:street": "1 Maja", "amenity": "pharmacy", "dispensing": "yes", "healthcare": "pharmacy", "name": "Melisa", "ref:csioz": "1115918"}}, {"type": "node", "id": 4034985489, "lat": 49.7642338, "lon": 19.0702045}, {"type": "node", "id": 4034985490, "lat": 49.7642689, "lon": 19.0703034}, {"type": "node", "id": 4034985491, "lat": 49.7642408, "lon": 19.0703271}, {"type": "node", "id": 4034985492, "lat": 49.7642529, "lon": 19.0703676}, {"type": "node", "id": 4034985493, "lat": 49.7641987, "lon": 19.0704121}, {"type": "node", "id": 4034985494, "lat": 49.7642146, "lon": 19.0704428}, {"type": "node", "id": 4034985495, "lat": 49.7641137, "lon": 19.0705179}, {"type": "node", "id": 4034985496, "lat": 49.7640646, "lon": 19.070335}, {"type": "node", "id": 4034985497, "lat": 49.7641437, "lon": 19.0702727}, {"type": "node", "id": 4034985498, "lat": 49.7641227, "lon": 19.0702065}, {"type": "node", "id": 4055574696, "lat": 50.048593, "lon": 18.7010084, "tags": {"addr:city": "\u017bory", "addr:housenumber": "19A", "addr:street": "Dworcowa", "amenity": "pharmacy", "dispensing": "yes", "healthcare": "pharmacy", "name": "Pharmacon", "ref:csioz": "1072135"}}, {"type": "node", "id": 4078264679, "lat": 49.8232186, "lon": 19.0527365, "tags": {"addr:city": "Bielsko-Bia\u0142a", "addr:housenumber": "37", "addr:postcode": "43-300", "addr:street": "11 Listopada", "amenity": "pharmacy", "dispensing": "yes", "healthcare": "pharmacy", "name": "Ziko Apteka", "opening_hours": "Mo-Fr 07:00-20:00; Sa 08:00-15:00", "payment:cash": "yes", "payment:coins": "yes", "payment:mastercard": "yes", "payment:visa": "yes", "phone": "+48 12 687 57 47", "ref:csioz": "1057690", "website": "https://www.ziko.pl/bielsko-biala-apteki-drogerie-ziko/11-listopada-37/"}}, {"type": "node", "id": 4112534201, "lat": 49.9074264, "lon": 18.9441011}, {"type": "node", "id": 4112534202, "lat": 49.9072428, "lon": 18.9442197}, {"type": "node", "id": 4112534203, "lat": 49.9071919, "lon": 18.9440312}, {"type": "node", "id": 4112534204, "lat": 49.9073599, "lon": 18.9439227}, {"type": "node", "id": 4184065239, "lat": 50.0891517, "lon": 19.0919444, "tags": {"addr:street": "Zdrowia", "amenity": "pharmacy", "healthcare": "pharmacy", "name": "Malwa"}}, {"type": "node", "id": 4295021344, "lat": 49.8024583, "lon": 19.0296602, "tags": {"amenity": "pharmacy", "brand": "Ziko Apteka", "brand:wikidata": "Q63432892", "dispensing": "yes", "drive_through": "no", "healthcare": "pharmacy", "name": "Ziko Apteka", "opening_hours": "Mo-Fr 08:00-21:00; Sa 09:00-20:00; Su 10:00-20:00", "payment:cash": "yes", "payment:coins": "yes", "payment:mastercard": "yes", "payment:visa": "yes", "phone": "+48 12 687 57 47", "ref:csioz": "1182440", "short_name": "Ziko", "website": "https://www.ziko.pl/bielsko-biala-apteki-drogerie-ziko/kolista-23/"}}, {"type": "node", "id": 4295021345, "lat": 49.8005342, "lon": 19.0316792, "tags": {"amenity": "pharmacy", "dispensing": "yes", "healthcare": "pharmacy", "name": "Dr. Max", "ref:csioz": "1224674"}}, {"type": "node", "id": 4317890878, "lat": 50.0017015, "lon": 18.9886815, "tags": {"addr:city": "Jankowice", "addr:housenumber": "4", "addr:street": "Kasztanowa", "amenity": "pharmacy", "dispensing": "yes", "healthcare": "pharmacy", "opening_hours": "Mo-Fr 08:00-17:00; Sa 08:00-12:00", "ref:csioz": "1062641"}}, {"type": "node", "id": 4490821990, "lat": 49.8230605, "lon": 19.0234665, "tags": {"amenity": "pharmacy", "dispensing": "yes", "healthcare": "pharmacy", "name": "Apteka Pod Kasztanami", "opening_hours": "Mo-Fr 08:00-19:00; Sa 08:00-13:00", "operator": "Adam Czerwi\u0144ski", "phone": "+48600291095", "ref:csioz": "1057932", "shop": "medical_supply"}}, {"type": "node", "id": 4493248490, "lat": 49.830131, "lon": 19.0437053, "tags": {"amenity": "pharmacy", "dispensing": "yes", "healthcare": "pharmacy", "name": "Ziko Apteka", "opening_hours": "Mo-Fr 07:00-20:00; Sa 08:00-15:00", "payment:cash": "yes", "payment:coins": "yes", "payment:mastercard": "yes", "payment:visa": "yes", "phone": "+48 12 687 57 47", "ref:csioz": "1058395", "website": "https://www.ziko.pl/bielsko-biala-apteki-drogerie-ziko/warszawska-5/"}}, {"type": "node", "id": 4538274755, "lat": 49.8567798, "lon": 19.0487505, "tags": {"amenity": "pharmacy", "dispensing": "yes", "healthcare": "pharmacy", "name": "Pod Arkadami", "ref:csioz": "1057823"}}, {"type": "node", "id": 4573822619, "lat": 50.034065, "lon": 18.6832512, "tags": {"addr:city": "\u017bory", "addr:housenumber": "35", "addr:street": "Aleja Zjednoczonej Europy", "amenity": "pharmacy", "dispensing": "yes", "healthcare": "pharmacy", "name": "Pharmacon", "ref:csioz": "1176122"}}, {"type": "node", "id": 4594853633, "lat": 50.0047028, "lon": 18.9487822, "tags": {"addr:city": "Piasek", "addr:housenumber": "23A", "addr:postcode": "43-211", "addr:street": "Katowicka", "amenity": "pharmacy", "dispensing": "yes", "healthcare": "pharmacy", "name": "Arkadia", "ref:csioz": "1066500"}}, {"type": "node", "id": 4680909114, "lat": 49.8193585, "lon": 19.218093, "tags": {"addr:city": "Por\u0105bka", "addr:housenumber": "3", "addr:postcode": "43-353", "addr:street": "Rynek", "amenity": "pharmacy", "healthcare": "pharmacy", "name": "Apteka Armana"}}, {"type": "node", "id": 4684384632, "lat": 50.0938628, "lon": 18.9952325, "tags": {"amenity": "pharmacy", "healthcare": "pharmacy", "name": "Pod Piramid\u0105", "opening_hours": "24/7"}}, {"type": "node", "id": 4753706518, "lat": 49.8230572, "lon": 19.044529, "tags": {"amenity": "pharmacy", "dispensing": "yes", "healthcare": "pharmacy", "name": "Pod Zamkiem", "ref:csioz": "1058089"}}, {"type": "node", "id": 4753706736, "lat": 49.8234513, "lon": 19.0477772, "tags": {"addr:city": "Bielsko-Bia\u0142a", "addr:housenumber": "11", "addr:postcode": "43-300", "addr:street": "11 Listopada", "amenity": "pharmacy", "dispensing": "yes", "healthcare": "pharmacy", "name": "S\u0142oneczna", "opening_hours": "Mo-Fr 07:00-21:00; Sa 08:00-15:00", "ref:csioz": "1171551"}}, {"type": "node", "id": 4797311992, "lat": 49.8279638, "lon": 19.0492599, "tags": {"amenity": "pharmacy", "brand": "Ziko Apteka", "brand:wikidata": "Q63432892", "dispensing": "yes", "healthcare": "pharmacy", "name": "Ziko Apteka", "opening_hours": "Mo-Su 09:00-21:00", "payment:cash": "yes", "payment:coins": "yes", "payment:mastercard": "yes", "payment:visa": "yes", "phone": "+48 12 687 57 47", "ref:csioz": "1120825", "short_name": "Ziko", "website": "https://www.ziko.pl/bielsko-biala-apteki-drogerie-ziko/mostowa-5/"}}, {"type": "node", "id": 4916353152, "lat": 49.7418191, "lon": 18.649684}, {"type": "node", "id": 4916353153, "lat": 49.7418228, "lon": 18.6496862}, {"type": "node", "id": 4916353154, "lat": 49.7418086, "lon": 18.649741}, {"type": "node", "id": 4916353155, "lat": 49.7416729, "lon": 18.6496553}, {"type": "node", "id": 4916353156, "lat": 49.7416914, "lon": 18.6495853}, {"type": "node", "id": 4916353157, "lat": 49.7416884, "lon": 18.6495832}, {"type": "node", "id": 4916353158, "lat": 49.741706, "lon": 18.6495158}, {"type": "node", "id": 4916353159, "lat": 49.7417085, "lon": 18.6495173}, {"type": "node", "id": 4916353160, "lat": 49.7417264, "lon": 18.6494473}, {"type": "node", "id": 4916353161, "lat": 49.7418639, "lon": 18.649531}, {"type": "node", "id": 4916353162, "lat": 49.7418362, "lon": 18.6496381}, {"type": "node", "id": 4916353163, "lat": 49.7418326, "lon": 18.6496356}, {"type": "node", "id": 5023103451, "lat": 49.8198142, "lon": 19.0442343, "tags": {"addr:city": "Bielsko-Bia\u0142a", "addr:housenumber": "9", "addr:postcode": "43-300", "addr:street": "Plac Franciszka \u017bwirki i Stanis\u0142awa Wigury", "amenity": "pharmacy", "dispensing": "yes", "healthcare": "pharmacy", "name": "Apteka Bielska", "official_name": "Apteka G\u0142\u00f3wna", "opening_hours": "Mo-Fr 07:00-20:00; Sa 08:00-15:00", "ref:csioz": "1058217"}}, {"type": "node", "id": 5023113873, "lat": 49.8218651, "lon": 19.0552989, "tags": {"amenity": "pharmacy", "dispensing": "yes", "healthcare": "pharmacy", "name": "\u015aw. Anny", "opening_hours": "Mo-Fr 08:00-20:00; Sa 08:00-15:00", "ref:csioz": "1058002"}}, {"type": "node", "id": 5026493805, "lat": 49.8211348, "lon": 19.0835573, "tags": {"amenity": "pharmacy", "dispensing": "yes", "healthcare": "pharmacy", "name": "Apteka Familia W Lipniku", "ref:csioz": "1112681"}}, {"type": "node", "id": 5057157026, "lat": 49.8115559, "lon": 18.9994283, "tags": {"amenity": "pharmacy", "dispensing": "yes", "healthcare": "pharmacy", "name": "Apteka Familia", "ref:csioz": "1172432"}}, {"type": "node", "id": 5183598863, "lat": 49.9271742, "lon": 19.1093187, "tags": {"amenity": "pharmacy", "healthcare": "pharmacy"}}, {"type": "node", "id": 5288646228, "lat": 49.8313738, "lon": 19.1233188, "tags": {"amenity": "pharmacy", "healthcare": "pharmacy"}}, {"type": "node", "id": 5294636713, "lat": 49.9146119, "lon": 19.0113662, "tags": {"amenity": "pharmacy", "healthcare": "pharmacy", "name": "Lekosfera DGA"}}, {"type": "node", "id": 5375723988, "lat": 49.8231514, "lon": 19.0516223, "tags": {"addr:city": "Bielsko-Bia\u0142a", "addr:housenumber": "17", "addr:postcode": "43-300", "addr:street": "Plac Wojska Polskiego", "amenity": "pharmacy", "dispensing": "yes", "healthcare": "pharmacy", "name": "Pod Bia\u0142ym Or\u0142em", "official_name": "Centrum Pod Bia\u0142ym Or\u0142em", "opening_hours": "Mo-Fr 08:00-18:00; Sa 09:00-13:00", "ref:csioz": "1210354"}}, {"type": "node", "id": 5416797204, "lat": 49.8232842, "lon": 19.0459454, "tags": {"amenity": "pharmacy", "brand": "Ziko Apteka", "brand:wikidata": "Q63432892", "dispensing": "yes", "healthcare": "pharmacy", "name": "Ziko Apteka", "opening_hours": "Mo-Fr 07:00-20:00; Sa 08:00-15:00", "payment:cash": "yes", "payment:coins": "yes", "payment:mastercard": "yes", "payment:visa": "yes", "phone": "+48 12 687 57 47", "ref:csioz": "1194649", "short_name": "Ziko", "website": "https://www.ziko.pl/bielsko-biala-apteki-drogerie-ziko/barlickiego-7/"}}, {"type": "node", "id": 5426059969, "lat": 49.7863116, "lon": 19.1939156, "tags": {"amenity": "pharmacy", "healthcare": "pharmacy", "name": "Aloes"}}, {"type": "node", "id": 5446635807, "lat": 49.6596236, "lon": 18.8557175, "tags": {"amenity": "pharmacy", "healthcare": "pharmacy", "name": "Dr Libro"}}, {"type": "node", "id": 5453475528, "lat": 49.8034721, "lon": 19.0583801, "tags": {"amenity": "pharmacy", "dispensing": "yes", "healthcare": "pharmacy", "name": "Isofarm", "official_name": "Apteka Isofarm", "ref:csioz": "1185932"}}, {"type": "node", "id": 5468479496, "lat": 50.015364, "lon": 19.1076489, "tags": {"addr:city": "Wola", "addr:housenumber": "4", "addr:street": "Kopalniana", "amenity": "pharmacy", "dispensing": "yes", "healthcare": "pharmacy", "name": "Nova", "ref:csioz": "1195849"}}, {"type": "node", "id": 5476579705, "lat": 50.0436914, "lon": 18.6895847, "tags": {"addr:city": "\u017bory", "addr:housenumber": "8", "addr:postcode": "44-240", "addr:street": "G\u00f3rne Przedmie\u015bcie", "amenity": "pharmacy", "dispensing": "yes", "healthcare": "pharmacy", "name": "Pod Lwem", "opening_hours": "Mo-Sa 08:00-20:00", "ref:csioz": "1199430"}}, {"type": "node", "id": 5481934738, "lat": 50.0159623, "lon": 19.1062457, "tags": {"addr:city": "Wola", "addr:housenumber": "1", "addr:street": "Poprzeczna", "amenity": "pharmacy", "dispensing": "yes", "healthcare": "pharmacy", "name": "Melisa", "ref:csioz": "1071155"}}, {"type": "node", "id": 5660859976, "lat": 49.8966367, "lon": 19.0611664, "tags": {"addr:city": "Bestwina", "addr:housenumber": "6", "addr:postcode": "43-512", "addr:street": "Szkolna", "amenity": "pharmacy", "healthcare": "pharmacy"}}, {"type": "node", "id": 5666983698, "lat": 50.1146231, "lon": 18.9769457, "tags": {"amenity": "pharmacy", "brand": "Dr. Max", "brand:wikidata": "Q56317371", "brand:wikipedia": "fr:Dr.Max", "dispensing": "yes", "email": "tychy.kopernika@drmax.pl", "healthcare": "pharmacy", "name": "Dr. Max"}}, {"type": "node", "id": 5794050330, "lat": 50.0160584, "lon": 19.101663, "tags": {"addr:city": "Wola", "addr:housenumber": "10", "addr:street": "Lipowa", "amenity": "pharmacy", "dispensing": "yes", "healthcare": "pharmacy", "name": "\u015awiat Lek\u00f3w", "ref:csioz": "1200687"}}, {"type": "node", "id": 5823079253, "lat": 49.6665587, "lon": 18.8454725, "tags": {"addr:city": "Wis\u0142a", "addr:housenumber": "1a", "addr:postcode": "43-460", "addr:street": "Jawornik", "amenity": "pharmacy", "dispensing": "yes", "healthcare": "pharmacy", "name": "Apteka G\u0142\u00f3wna", "ref:csioz": "1224754"}}, {"type": "node", "id": 5825828989, "lat": 49.9692068, "lon": 19.1382061, "tags": {"addr:city": "Brzeszcze", "addr:housenumber": "2", "addr:postcode": "32-620", "addr:street": "Marsza\u0142ka J\u00f3zefa Pi\u0142sudskiego", "amenity": "pharmacy", "dispensing": "yes", "healthcare": "pharmacy", "name": "Apteka na Turystycznej Centrum Tanich Lek\u00f3w", "opening_hours": "Mo-Fr 08:00-20:00; Sa 08:00-18:00", "phone": "+48 32 623 21 28", "ref:csioz": "1115971"}}, {"type": "node", "id": 5836669752, "lat": 49.712347, "lon": 18.8184777, "tags": {"addr:city": "Ustro\u0144", "addr:housenumber": "46", "addr:postcode": "43-450", "addr:street": "3 Maja", "amenity": "pharmacy", "dispensing": "yes", "healthcare": "pharmacy", "name": "Na szlaku", "ref:csioz": "1070735"}}, {"type": "node", "id": 5840582405, "lat": 49.7173685, "lon": 18.8149269, "tags": {"addr:city": "Ustro\u0144", "addr:housenumber": "13", "addr:postcode": "43-450", "addr:street": "3 Maja", "amenity": "pharmacy", "dispensing": "yes", "healthcare": "pharmacy", "name": "Pod Najad\u0105", "opening_hours": "Mo-Fr 08:00-18:00; Sa 08:00-15:00", "ref:csioz": "1070724"}}, {"type": "node", "id": 5871087113, "lat": 49.8382526, "lon": 18.8247367}, {"type": "node", "id": 5871087114, "lat": 49.8382126, "lon": 18.8247412}, {"type": "node", "id": 5871087115, "lat": 49.8381553, "lon": 18.8248361}, {"type": "node", "id": 5871087116, "lat": 49.8381519, "lon": 18.8247642}, {"type": "node", "id": 5871087117, "lat": 49.8382568, "lon": 18.8248246}, {"type": "node", "id": 5871087118, "lat": 49.8381128, "lon": 18.8247687}, {"type": "node", "id": 5871087119, "lat": 49.8381077, "lon": 18.8246621}, {"type": "node", "id": 5871087120, "lat": 49.8382083, "lon": 18.8246507}, {"type": "node", "id": 5894180992, "lat": 49.7628059, "lon": 19.0749768, "tags": {"amenity": "pharmacy", "healthcare": "pharmacy", "name": "21", "opening_hours": "Mo-Fr 08:00-20:00; Sa 08:00-16:00"}}, {"type": "node", "id": 5894181185, "lat": 49.7631963, "lon": 19.0786941, "tags": {"amenity": "pharmacy", "brand": "Dbam o Zdrowie", "brand:wikidata": "Q62563833", "healthcare": "pharmacy", "name": "Dbam o Zdrowie", "opening_hours": "Mo-Fr 07:00-18:00; Sa 08:00-14:00", "short_name": "DOZ", "website": "https://www.doz.pl/apteki/a81704-Apteka_Dbam_o_Zdrowie"}}, {"type": "node", "id": 5894376187, "lat": 49.7632387, "lon": 19.072588, "tags": {"addr:housenumber": "58", "addr:street": "Szczyrkowska", "amenity": "pharmacy", "healthcare": "pharmacy", "name": "Beskidzka", "opening_hours": "Mo-Fr 08:30-18:00; Sa 08:30-14:00"}}, {"type": "node", "id": 6015254985, "lat": 49.9519403, "lon": 18.6067604, "tags": {"addr:city": "Jastrz\u0119bie Zdr\u00f3j", "addr:housenumber": "1A", "addr:street": "Harcerska", "amenity": "pharmacy", "dispensing": "yes", "healthcare": "pharmacy", "name": "Zdrowit", "ref:csioz": "1112154", "website": "https://aptekizdrowit.pl/"}}, {"type": "node", "id": 6185552493, "lat": 49.9329416, "lon": 19.0146888}, {"type": "node", "id": 6185552494, "lat": 49.9330278, "lon": 19.0147034}, {"type": "node", "id": 6185552495, "lat": 49.9330137, "lon": 19.0148567}, {"type": "node", "id": 6185552496, "lat": 49.9329291, "lon": 19.0148372}, {"type": "node", "id": 6367429182, "lat": 49.8252493, "lon": 19.0509574, "tags": {"amenity": "pharmacy", "dispensing": "yes", "healthcare": "pharmacy", "name": "Ziko Apteka", "opening_hours": "Mo-Fr 07:00-20:00, Su 08:00-15:00", "payment:cash": "yes", "payment:coins": "yes", "payment:mastercard": "yes", "payment:visa": "yes", "phone": "+48 12 687 57 47", "ref:csioz": "1204251", "website": "https://www.ziko.pl/bielsko-biala-apteki-drogerie-ziko/pilsudskiego-12-3/"}}, {"type": "node", "id": 6367644331, "lat": 49.9460739, "lon": 18.605008, "tags": {"addr:city": "Jastrz\u0119bie-Zdr\u00f3j", "addr:housenumber": "2", "addr:postcode": "44-335", "addr:street": "Warmi\u0144ska", "amenity": "pharmacy", "brand": "Ziko Apteka", "brand:wikidata": "Q63432892", "description": "Ziko Apteka zlokalizowana jest w Jastrz\u0119bie-Zdroju przy ulicy Warmi\u0144skiej 2. Czynna jest przez 6 dni w tygodniu \u2013 od poniedzia\u0142ku do soboty. W niedziele plac\u00f3wka jest nieczynna.", "dispensing": "yes", "healthcare": "pharmacy", "name": "Ziko Apteka", "opening_hours": "Mo-Fr 07:30-19:30; Sa 07:30-15:30", "payment:cash": "yes", "payment:coins": "yes", "payment:mastercard": "yes", "payment:visa": "yes", "phone": "+48 12 687 57 47", "ref:csioz": "1170566", "short_name": "Ziko", "website": "https://www.ziko.pl/jastrzebie-zdroj-apteki-drogerie-ziko/warminska-2/"}}, {"type": "node", "id": 6404982373, "lat": 50.1307385, "lon": 19.1071396, "tags": {"amenity": "pharmacy", "healthcare": "pharmacy", "name": "Apteka Centrum", "wheelchair": "yes"}}, {"type": "node", "id": 7025070227, "lat": 49.6465305, "lon": 18.8683466, "tags": {"addr:city": "Wis\u0142a", "addr:housenumber": "27", "addr:postcode": "43-460", "addr:street": "1 Maja", "amenity": "pharmacy", "check_date:opening_hours": "2023-06-08", "dispensing": "yes", "healthcare": "pharmacy", "name": "Apteka G\u0142\u00f3wna", "opening_hours": "Mo-Fr 08:00-19:00; Sa 08:00-15:00", "ref:csioz": "1172410"}}, {"type": "node", "id": 7378991051, "lat": 50.1149253, "lon": 19.0050124, "tags": {"amenity": "pharmacy", "email": "tychyedukacji@aptekabliskociebie.pl", "healthcare": "pharmacy", "name": "Blisko Ciebie", "opening_hours": "24/7", "phone": "+48 32 2272807", "website": "http://www.aptekabliskociebie.pl/index.php/apteki/10-apteki/30-tychy-24h-ul-edukacji-37"}}, {"type": "node", "id": 7379011980, "lat": 50.1029076, "lon": 18.9917392, "tags": {"amenity": "pharmacy", "healthcare": "pharmacy", "name": "Turkus", "opening_hours": "24/7"}}, {"type": "node", "id": 7379106833, "lat": 50.1047284, "lon": 18.9894958, "tags": {"amenity": "pharmacy", "brand": "Dbam o Zdrowie", "brand:wikidata": "Q62563833", "healthcare": "pharmacy", "name": "Dbam o Zdrowie", "opening_hours": "24/7", "website": "https://www.doz.pl/apteki/a74354-Apteka_Dbam_o_Zdrowie", "wheelchair": "yes"}}, {"type": "node", "id": 7392517830, "lat": 49.8034041, "lon": 18.7898469, "tags": {"addr:city": "Skocz\u00f3w", "addr:housenumber": "2", "addr:postcode": "43-430", "addr:street": "Objazdowa", "amenity": "pharmacy", "dispensing": "yes", "healthcare": "pharmacy", "name": "Apteka Isofarm", "ref:csioz": "1207579"}}, {"type": "node", "id": 7651693515, "lat": 49.7359349, "lon": 18.7392889, "tags": {"addr:city": "Golesz\u00f3w", "addr:housenumber": "12", "addr:postcode": "43-440", "addr:street": "1 Maja", "amenity": "pharmacy", "dispensing": "yes", "healthcare": "pharmacy", "name": "Medea", "ref:csioz": "1215326"}}, {"type": "node", "id": 8051581142, "lat": 49.7256621, "lon": 19.1358766, "tags": {"amenity": "pharmacy", "dispensing": "yes", "healthcare": "pharmacy", "name": "Pod Grap\u0105"}}, {"type": "node", "id": 8166872017, "lat": 50.1067283, "lon": 18.9743605, "tags": {"addr:housenumber": "128", "addr:postcode": "43-100", "addr:street": "Aleja Bielska", "amenity": "pharmacy", "healthcare": "pharmacy", "name": "Apteka Gemini", "opening_hours": "Mo-Fr 07:30-20:00; Sa 08:00-14:00"}}, {"type": "node", "id": 8402761660, "lat": 49.9134766, "lon": 19.151608}, {"type": "node", "id": 8402761661, "lat": 49.913406, "lon": 19.1516195}, {"type": "node", "id": 8402761662, "lat": 49.9134806, "lon": 19.1516815}, {"type": "node", "id": 8402761663, "lat": 49.9134099, "lon": 19.1516908}, {"type": "node", "id": 8589207922, "lat": 50.1127137, "lon": 18.9852854, "tags": {"amenity": "pharmacy", "healthcare": "pharmacy", "name": "S\u0142oneczna"}}, {"type": "node", "id": 8784639757, "lat": 49.7490756, "lon": 18.6429745, "tags": {"addr:city": "Cieszyn", "addr:housenumber": "37", "addr:postcode": "43-400", "addr:street": "Bielska", "amenity": "pharmacy", "dispensing": "yes", "healthcare": "pharmacy", "name": "Medea", "ref:csioz": "1200312"}}, {"type": "node", "id": 8806732715, "lat": 49.7215521, "lon": 18.9139582, "tags": {"addr:city": "Brenna", "addr:housenumber": "38B", "addr:postcode": "43-438", "addr:street": "Wyzwolenia", "amenity": "pharmacy", "dispensing": "yes", "healthcare": "pharmacy", "name": "Apteka Centrum", "ref:csioz": "1174306"}}, {"type": "node", "id": 9017870896, "lat": 49.8074156, "lon": 19.0620691, "tags": {"addr:city": "Bielsko-Bia\u0142a", "addr:housenumber": "24", "addr:postcode": "43-300", "addr:street": "Jutrzenki", "amenity": "pharmacy", "dispensing": "yes", "healthcare": "pharmacy", "level": "1", "name": "Apteka \"Z\u0142ote \u0141any\"", "ref:csioz": "1057910"}}, {"type": "node", "id": 9393788542, "lat": 50.0470093, "lon": 18.6971316, "tags": {"addr:city": "\u017bory", "addr:housenumber": "7", "addr:street": "Dolne Przedmie\u015bcie", "amenity": "pharmacy", "dispensing": "yes", "healthcare": "pharmacy", "name": "Higieja", "ref:csioz": "1072124"}}, {"type": "node", "id": 9527654172, "lat": 50.0892681, "lon": 18.998637, "tags": {"amenity": "pharmacy", "dispensing": "yes", "healthcare": "pharmacy", "name": "Apteka Centrum Zdrowia", "opening_hours": "Mo-Su 08:00-20:00", "phone": "324947343", "wheelchair": "yes"}}, {"type": "node", "id": 9530018513, "lat": 50.1121245, "lon": 19.0016185, "tags": {"amenity": "pharmacy", "dispensing": "yes", "drive_through": "no", "healthcare": "pharmacy", "name": "Apteka Zdrowit", "opening_hours": "Mo-Su 07:00-20:00", "website": "https://aptekizdrowit.pl/"}}, {"type": "node", "id": 9530018514, "lat": 50.1121463, "lon": 19.0021833, "tags": {"amenity": "pharmacy", "dispensing": "yes", "drive_through": "no", "healthcare": "pharmacy", "name": "Apteka T\u0119cza", "opening_hours": "Mo-Sa 08:00-20:00", "website": "https://aptekahit.pl/"}}, {"type": "node", "id": 9595544207, "lat": 49.8761081, "lon": 19.2184326, "tags": {"addr:city": "K\u0119ty", "addr:housenumber": "25", "addr:postcode": "32-650", "addr:street": "\u017bwirki i Wigury", "amenity": "pharmacy", "healthcare": "pharmacy", "name": "Apteka Jana Kantego", "ref:csioz": "1036996"}}, {"type": "node", "id": 9595544210, "lat": 49.9740577, "lon": 19.1457903, "tags": {"addr:city": "Brzeszcze", "addr:housenumber": "20", "addr:postcode": "32-620", "addr:street": "Ofiar O\u015bwi\u0119cimia", "amenity": "pharmacy", "healthcare": "pharmacy", "name": "Centrum - Centrum Tanich Lek\u00f3w", "ref:csioz": "1038592"}}, {"type": "node", "id": 9595544212, "lat": 49.8701374, "lon": 19.2250764, "tags": {"addr:city": "K\u0119ty", "addr:housenumber": "106", "addr:postcode": "32-650", "addr:street": "Tadeusza Ko\u015bciuszki", "amenity": "pharmacy", "name": "Hygieia", "ref:csioz": "1226508"}}, {"type": "node", "id": 9595668919, "lat": 49.8825248, "lon": 19.2220455, "tags": {"addr:city": "K\u0119ty", "addr:housenumber": "2", "addr:postcode": "32-650", "addr:street": "R\u00f3\u017cana", "amenity": "pharmacy", "name": "Apteka Na R\u00f3\u017canej Centrum Tanich Lek\u00f3w", "ref:csioz": "1075137"}}, {"type": "node", "id": 9595668920, "lat": 49.9039616, "lon": 19.21769, "tags": {"addr:city": "Nowa Wie\u015b", "addr:housenumber": "52 A", "addr:postcode": "32-651", "addr:street": "O\u015bwi\u0119cimska", "amenity": "pharmacy", "healthcare": "pharmacy", "name": "Prima", "ref:csioz": "1196326"}}, {"type": "node", "id": 9595668922, "lat": 49.9718134, "lon": 19.1384603, "tags": {"addr:city": "Brzeszcze", "addr:housenumber": "1A", "addr:postcode": "32-620", "addr:street": "Dworcowa", "amenity": "pharmacy", "healthcare": "pharmacy", "name": "Apteka B\u0105d\u017a Zdr\u00f3w", "ref:csioz": "1120933"}}, {"type": "node", "id": 9595668923, "lat": 49.9689151, "lon": 19.136585, "tags": {"addr:city": "Brzeszcze", "addr:housenumber": "13A", "addr:postcode": "32-620", "addr:street": "Marsza\u0142ka J\u00f3zefa Pi\u0142sudskiego", "amenity": "pharmacy", "name": "Sigma", "ref:csioz": "1034884"}}, {"type": "node", "id": 9595668925, "lat": 49.882028, "lon": 19.2197066, "tags": {"addr:city": "K\u0119ty", "addr:housenumber": "19", "addr:postcode": "32-650", "addr:street": "Jana III Sobieskiego", "amenity": "pharmacy", "name": "Nowa Du\u017ca", "ref:csioz": "1195801"}}, {"type": "node", "id": 9652549455, "lat": 49.7864735, "lon": 19.0530876, "tags": {"amenity": "pharmacy", "dispensing": "yes", "healthcare": "pharmacy", "name": "Cyga\u0144ski Las", "opening_hours": "Mo-Fr 08:00-18:00", "ref:csioz": "1058225"}}, {"type": "node", "id": 9652549456, "lat": 49.8525108, "lon": 19.0421055, "tags": {"amenity": "pharmacy", "dispensing": "yes", "healthcare": "pharmacy", "name": "Pod Z\u0142otym Lwem", "ref:csioz": "1058198"}}, {"type": "node", "id": 9652549457, "lat": 49.8328316, "lon": 18.9840408, "tags": {"amenity": "pharmacy", "dispensing": "yes", "healthcare": "pharmacy", "name": "Dr. Max", "ref:csioz": "1058111"}}, {"type": "node", "id": 9652549458, "lat": 49.8085988, "lon": 18.9818476, "tags": {"amenity": "pharmacy", "dispensing": "yes", "healthcare": "pharmacy", "name": "Apteka Ma\u0142gorzata", "ref:csioz": "1058090"}}, {"type": "node", "id": 9652549459, "lat": 49.8139488, "lon": 19.0351154, "tags": {"amenity": "pharmacy", "dispensing": "yes", "email": "apt86529@dbamozdrowie.pl", "healthcare": "pharmacy", "name": "Dbam o Zdrowie", "official_name": "Apteka Dbam O Zdrowie", "opening_hours": "Mo-Fr 08:00-18:00; Sa 08:00-14:00", "phone": "+48338211135", "ref:csioz": "1058053", "website": "https://www.doz.pl/apteki/a86529-DOZ_Apteka_Dbam_o_Zdrowie"}}, {"type": "node", "id": 9652549460, "lat": 49.8277314, "lon": 19.0333343, "tags": {"amenity": "pharmacy", "dispensing": "yes", "healthcare": "pharmacy", "name": "Apteka Sante", "ref:csioz": "1058028"}}, {"type": "node", "id": 9652549461, "lat": 49.8074545, "lon": 18.9801277, "tags": {"amenity": "pharmacy", "dispensing": "yes", "healthcare": "pharmacy", "name": "W Wapienicy", "ref:csioz": "1057791"}}, {"type": "node", "id": 9652549462, "lat": 49.8144763, "lon": 19.0178027, "tags": {"amenity": "pharmacy", "dispensing": "yes", "healthcare": "pharmacy", "name": "Pharma-Land", "official_name": "Apteka Pharma-Land Kraina Niskich Cen", "ref:csioz": "1057788"}}, {"type": "node", "id": 9652549464, "lat": 49.7925424, "lon": 19.0384706, "tags": {"amenity": "pharmacy", "dispensing": "yes", "healthcare": "pharmacy", "name": "Apteka Z U\u015bmiechem", "ref:csioz": "1057734"}}, {"type": "node", "id": 9652647529, "lat": 49.81564, "lon": 19.0149656, "tags": {"amenity": "pharmacy", "dispensing": "yes", "healthcare": "pharmacy", "name": "Apteka Pod Eskulapem", "ref:csioz": "1057895"}}, {"type": "node", "id": 9652647530, "lat": 49.8076469, "lon": 19.0556872, "tags": {"amenity": "pharmacy", "dispensing": "yes", "healthcare": "pharmacy", "name": "Pod Magurk\u0105", "ref:csioz": "1058426"}}, {"type": "node", "id": 9652647531, "lat": 49.8505682, "lon": 19.0871592, "tags": {"amenity": "pharmacy", "dispensing": "yes", "healthcare": "pharmacy", "name": "\u015aw. \u0141ukasza", "ref:csioz": "1057880"}}, {"type": "node", "id": 9652647532, "lat": 49.8103618, "lon": 19.0622445, "tags": {"amenity": "pharmacy", "dispensing": "yes", "healthcare": "pharmacy", "name": "Apteka \u015bw. Miko\u0142aja", "official_name": "Apteka \u015aw. Miko\u0142aja Marta Piskorz", "ref:csioz": "1220418"}}, {"type": "node", "id": 9652647533, "lat": 49.8252601, "lon": 19.0495298, "tags": {"amenity": "pharmacy", "dispensing": "yes", "healthcare": "pharmacy", "name": "Apteka B\u0105d\u017a Zdr\u00f3w", "ref:csioz": "1179816"}}, {"type": "node", "id": 9652647534, "lat": 49.8079342, "lon": 19.0623865, "tags": {"addr:city": "Bielsko-Bia\u0142a", "addr:housenumber": "20", "addr:postcode": "43-300", "addr:street": "Jutrzenki", "amenity": "pharmacy", "dispensing": "yes", "healthcare": "pharmacy", "name": "Doz Apteka Dbam O Zdrowie", "ref:csioz": "1179796"}}, {"type": "node", "id": 9652647535, "lat": 49.7819422, "lon": 19.0669065, "tags": {"amenity": "pharmacy", "dispensing": "yes", "healthcare": "pharmacy", "name": "Apteka \u015awi\u0119tego \u0141ukasza", "ref:csioz": "1112187"}}, {"type": "node", "id": 9652647536, "lat": 49.8512792, "lon": 19.0967134, "tags": {"amenity": "pharmacy", "dispensing": "yes", "healthcare": "pharmacy", "name": "W Ha\u0142cnowie", "ref:csioz": "1058418"}}, {"type": "node", "id": 9652647538, "lat": 49.8116718, "lon": 19.0125847, "tags": {"amenity": "pharmacy", "dispensing": "yes", "healthcare": "pharmacy", "name": "Elena", "ref:csioz": "1058351"}}, {"type": "node", "id": 9652647539, "lat": 49.807989, "lon": 19.0256412, "tags": {"amenity": "pharmacy", "dispensing": "yes", "healthcare": "pharmacy", "name": "Beskid", "ref:csioz": "1058346"}}, {"type": "node", "id": 9652713379, "lat": 49.8136691, "lon": 19.0512796, "tags": {"amenity": "pharmacy", "dispensing": "yes", "healthcare": "pharmacy", "name": "Bielskie Centrum Lek\u00f3w", "ref:csioz": "1203324"}}, {"type": "node", "id": 9652713380, "lat": 49.808367, "lon": 18.9805178, "tags": {"amenity": "pharmacy", "dispensing": "yes", "healthcare": "pharmacy", "name": "Wapienickie Centrum Lek\u00f3w", "ref:csioz": "1114358"}}, {"type": "node", "id": 9655429443, "lat": 49.8322184, "lon": 18.6539277, "tags": {"addr:city": "Ko\u0144czyce Wielkie", "addr:housenumber": "8", "addr:postcode": "43-419", "addr:street": "Ksi\u0119dza Olszaka", "amenity": "pharmacy", "dispensing": "yes", "healthcare": "pharmacy", "name": "Nasze Leki", "ref:csioz": "1188692"}}, {"type": "node", "id": 9655429444, "lat": 49.7172458, "lon": 18.6679551, "tags": {"addr:city": "Pu\u0144c\u00f3w", "addr:housenumber": "4", "addr:postcode": "43-400", "addr:street": "Sportowa", "amenity": "pharmacy", "dispensing": "yes", "healthcare": "pharmacy", "name": "Nasze Leki", "ref:csioz": "1073198"}}, {"type": "node", "id": 9655429446, "lat": 49.7197402, "lon": 18.8112583, "tags": {"addr:city": "Ustro\u0144", "addr:housenumber": "1", "addr:postcode": "43-450", "addr:street": "Ignacego Daszy\u0144skiego", "amenity": "pharmacy", "dispensing": "yes", "healthcare": "pharmacy", "name": "Apteka Centrum Lek\u00f3w Max", "ref:csioz": "1181488"}}, {"type": "node", "id": 9655429447, "lat": 49.7456645, "lon": 18.8053368, "tags": {"addr:city": "Ustro\u0144", "addr:housenumber": "76", "addr:postcode": "43-450", "addr:street": "Skoczowska", "amenity": "pharmacy", "dispensing": "yes", "healthcare": "pharmacy", "name": "Doz Apteka. Dbam O Zdrowie Rumiankowa", "ref:csioz": "1122524"}}, {"type": "node", "id": 9655429448, "lat": 49.7186901, "lon": 18.8078311, "tags": {"addr:city": "Ustro\u0144", "addr:housenumber": "8A", "addr:postcode": "43-450", "addr:street": "Andrzeja Brody", "amenity": "pharmacy", "dispensing": "yes", "healthcare": "pharmacy", "name": "Apteka Dr Libro", "ref:csioz": "1070743"}}, {"type": "node", "id": 9655429449, "lat": 49.8017804, "lon": 18.6628331, "tags": {"addr:city": "Ha\u017clach", "addr:housenumber": "25B", "addr:postcode": "43-419", "addr:street": "D\u0142uga", "amenity": "pharmacy", "dispensing": "yes", "healthcare": "pharmacy", "name": "Ha\u017clach", "ref:csioz": "1062562"}}, {"type": "node", "id": 9655429452, "lat": 49.7997322, "lon": 18.798365, "tags": {"addr:city": "Skocz\u00f3w", "addr:housenumber": "25", "addr:postcode": "43-430", "addr:street": "G\u00f3recka", "amenity": "pharmacy", "dispensing": "yes", "healthcare": "pharmacy", "name": "Centrum Za Wis\u0142\u0105", "ref:csioz": "1204272"}}, {"type": "node", "id": 9655429453, "lat": 49.8710198, "lon": 18.8145153, "tags": {"addr:city": "Zaborze", "addr:housenumber": "37", "addr:postcode": "42-310", "addr:street": "Czere\u015bniowa", "amenity": "pharmacy", "dispensing": "yes", "healthcare": "pharmacy", "ref:csioz": "1186843"}}, {"type": "node", "id": 9655512786, "lat": 49.8668977, "lon": 18.6997082, "tags": {"addr:city": "Pruchna", "addr:housenumber": "68", "addr:postcode": "43-523", "addr:street": "G\u0142\u00f3wna", "amenity": "pharmacy", "dispensing": "yes", "healthcare": "pharmacy", "name": "Medea", "ref:csioz": "1185537"}}, {"type": "node", "id": 9655512788, "lat": 49.7543659, "lon": 18.8043561, "tags": {"addr:city": "Ustro\u0144", "addr:housenumber": "137", "addr:postcode": "43-450", "addr:street": "Skoczowska", "amenity": "pharmacy", "dispensing": "yes", "healthcare": "pharmacy", "name": "Lawenda", "ref:csioz": "1176225"}}, {"type": "node", "id": 9655512789, "lat": 49.846601, "lon": 18.6325195, "tags": {"addr:city": "Ko\u0144czyce Ma\u0142e", "addr:housenumber": "2A", "addr:postcode": "43-410", "addr:street": "Kasztela\u0144ska", "amenity": "pharmacy", "dispensing": "yes", "healthcare": "pharmacy", "name": "W Ko\u0144czycach", "ref:csioz": "1064985"}}, {"type": "node", "id": 9655512790, "lat": 49.7301696, "lon": 18.8056605, "tags": {"addr:city": "Ustro\u0144", "addr:housenumber": "73", "addr:postcode": "43-450", "addr:street": "Ignacego Daszy\u0144skiego", "amenity": "pharmacy", "dispensing": "yes", "healthcare": "pharmacy", "name": "Apteka Dr.Zdrowitt", "ref:csioz": "1174485"}}, {"type": "node", "id": 9655512791, "lat": 49.8008682, "lon": 18.7887773, "tags": {"addr:city": "Skocz\u00f3w", "addr:housenumber": "11", "addr:postcode": "43-430", "addr:street": "Rynek", "amenity": "pharmacy", "brand": "Dbam o Zdrowie", "brand:wikidata": "Q62563833", "dispensing": "yes", "healthcare": "pharmacy", "name": "Dbam o Zdrowie", "ref:csioz": "1068807", "short_name": "DOZ"}}, {"type": "node", "id": 9655512792, "lat": 49.7949571, "lon": 18.7862606, "tags": {"addr:city": "Skocz\u00f3w", "addr:housenumber": "16B", "addr:postcode": "43-430", "addr:street": "Gustawa Morcinka", "amenity": "pharmacy", "dispensing": "yes", "healthcare": "pharmacy", "name": "Apteka Melisa", "ref:csioz": "1068784"}}, {"type": "node", "id": 9655512793, "lat": 49.7953724, "lon": 18.7864403, "tags": {"addr:city": "Skocz\u00f3w", "addr:housenumber": "16B", "addr:postcode": "43-430", "addr:street": "Gustawa Morcinka", "amenity": "pharmacy", "dispensing": "yes", "healthcare": "pharmacy", "name": "Nzoz Centrum Lekarskie 'Alfa' Sp. J. Ryszard S\u0119dziak I Wsp\u00f3lnicy - Opieka Ca\u0142odobowa", "ref:csioz": "1213652"}}, {"type": "node", "id": 9655512794, "lat": 49.7950355, "lon": 18.7872562, "tags": {"addr:city": "Skocz\u00f3w", "addr:housenumber": "10", "addr:postcode": "43-430", "addr:street": "Gustawa Morcinka", "amenity": "pharmacy", "dispensing": "yes", "healthcare": "pharmacy", "name": "Apteka Familia Na G\u00f3rnym Borze", "ref:csioz": "1068776"}}, {"type": "node", "id": 9655514859, "lat": 49.8675776, "lon": 18.7618926, "tags": {"addr:city": "Drogomy\u015bl", "addr:housenumber": "10", "addr:postcode": "43-424", "addr:street": "Oblaski", "amenity": "pharmacy", "dispensing": "yes", "healthcare": "pharmacy", "name": "Punkt Apteczny W Drogomy\u015blu", "ref:csioz": "1072630"}}, {"type": "node", "id": 9655514860, "lat": 49.7702508, "lon": 18.7269091, "tags": {"addr:city": "Ogrodzona", "addr:housenumber": "10", "addr:postcode": "43-426", "addr:street": "Centralna", "amenity": "pharmacy", "dispensing": "yes", "healthcare": "pharmacy", "name": "Nasze Leki", "ref:csioz": "1073077"}}, {"type": "node", "id": 9655514861, "lat": 49.7956661, "lon": 18.7887288, "tags": {"addr:city": "Skocz\u00f3w", "addr:housenumber": "26", "addr:postcode": "43-430", "addr:street": "Targowa", "amenity": "pharmacy", "dispensing": "yes", "healthcare": "pharmacy", "name": "Przy Pomniku", "ref:csioz": "1068832"}}, {"type": "node", "id": 9655514863, "lat": 49.7996615, "lon": 18.7866953, "tags": {"addr:city": "Skocz\u00f3w", "addr:housenumber": "7", "addr:postcode": "43-430", "addr:street": "Adama Mickiewicza", "amenity": "pharmacy", "dispensing": "yes", "healthcare": "pharmacy", "name": "Familia Centrum", "ref:csioz": "1068792"}}, {"type": "node", "id": 9655514864, "lat": 49.8920892, "lon": 18.8182546, "tags": {"addr:city": "Chybie", "addr:housenumber": "33A", "addr:postcode": "43-520", "addr:street": "Bielska", "amenity": "pharmacy", "dispensing": "yes", "healthcare": "pharmacy", "name": "S\u0142oneczna", "opening_hours": "Mo-Fr 08:00-17:00, Sa 08:00-13:00", "ref:csioz": "1059738"}}, {"type": "node", "id": 9655514865, "lat": 49.8012205, "lon": 18.7904614, "tags": {"addr:city": "Skocz\u00f3w", "addr:housenumber": "9", "addr:postcode": "43-430", "addr:street": "Fabryczna", "amenity": "pharmacy", "dispensing": "yes", "healthcare": "pharmacy", "name": "Mediq Apteka Niskich Cen", "ref:csioz": "1068745"}}, {"type": "node", "id": 9655514867, "lat": 49.7344835, "lon": 18.7370321, "tags": {"addr:city": "Golesz\u00f3w", "addr:housenumber": "16", "addr:postcode": "43-440", "addr:street": "Cieszy\u0144ska", "amenity": "pharmacy", "dispensing": "yes", "healthcare": "pharmacy", "name": "Apteka Centrum Lek\u00f3w Max", "ref:csioz": "1210521"}}, {"type": "node", "id": 9655514868, "lat": 49.8035348, "lon": 18.8006832, "tags": {"addr:city": "Skocz\u00f3w", "addr:housenumber": "45a", "addr:postcode": "43-430", "addr:street": "Bielska", "amenity": "pharmacy", "dispensing": "yes", "healthcare": "pharmacy", "name": "Apteka Max", "ref:csioz": "1225732"}}, {"type": "node", "id": 9655514870, "lat": 49.8036408, "lon": 18.7877774, "tags": {"addr:city": "Skocz\u00f3w", "addr:housenumber": "8", "addr:postcode": "43-430", "addr:street": "Paw\u0142a Stalmacha", "amenity": "pharmacy", "dispensing": "yes", "healthcare": "pharmacy", "name": "Twoja Apteka", "ref:csioz": "1068829"}}, {"type": "node", "id": 9831629852, "lat": 49.9831939, "lon": 18.9328213, "tags": {"addr:city": "Pszczyna", "addr:housenumber": "23", "addr:street": "Karola Szymanowskiego", "amenity": "pharmacy", "dispensing": "yes", "healthcare": "pharmacy", "name": "Maria-Pharm", "ref:csioz": "1219744"}}, {"type": "node", "id": 9831629853, "lat": 49.9714195, "lon": 18.9842669, "tags": {"addr:city": "\u0106wiklice", "addr:housenumber": "6", "addr:street": "Aleksandra Zawadzkiego", "amenity": "pharmacy", "dispensing": "yes", "healthcare": "pharmacy", "name": "Punkt Apteczny \u015aw. Stanis\u0142awa", "ref:csioz": "1213517", "wheelchair": "yes"}}, {"type": "node", "id": 9831629854, "lat": 49.97679, "lon": 18.9454729, "tags": {"addr:city": "Pszczyna", "addr:housenumber": "20", "addr:street": "Miko\u0142aja Kopernika", "amenity": "pharmacy", "dispensing": "yes", "healthcare": "pharmacy", "name": "\u015awiat Lek\u00f3w", "ref:csioz": "1206926"}}, {"type": "node", "id": 9831629855, "lat": 49.9622011, "lon": 18.6964357, "tags": {"addr:city": "Paw\u0142owice", "addr:housenumber": "22", "addr:street": "Wojska Polskiego", "amenity": "pharmacy", "dispensing": "yes", "healthcare": "pharmacy", "name": "Pod Baranem", "ref:csioz": "1193499"}}, {"type": "node", "id": 9831629856, "lat": 50.0067587, "lon": 18.8679162, "tags": {"addr:city": "Kobielice", "addr:housenumber": "4", "addr:street": "Rolna", "amenity": "pharmacy", "dispensing": "yes", "healthcare": "pharmacy", "name": "Punkt Apteczny \u015aw. Stanis\u0142awa 2", "ref:csioz": "1178317"}}, {"type": "node", "id": 9831629857, "lat": 49.9616418, "lon": 18.6976477, "tags": {"addr:city": "Paw\u0142owice", "addr:housenumber": "16", "addr:street": "Wojska Polskiego", "amenity": "pharmacy", "dispensing": "yes", "healthcare": "pharmacy", "name": "Paw\u0142owicka", "ref:csioz": "1177933"}}, {"type": "node", "id": 9831629858, "lat": 49.9473544, "lon": 18.8473229, "tags": {"addr:city": "Wis\u0142a Wielka", "addr:housenumber": "27", "addr:street": "Cieszy\u0144ska", "amenity": "pharmacy", "dispensing": "yes", "healthcare": "pharmacy", "name": "Punkt Apteczny", "ref:csioz": "1173776"}}, {"type": "node", "id": 9831629859, "lat": 49.9447839, "lon": 18.9590308, "tags": {"addr:city": "Gocza\u0142kowice-Zdr\u00f3j", "addr:housenumber": "72", "addr:street": "Szkolna", "amenity": "pharmacy", "dispensing": "yes", "healthcare": "pharmacy", "name": "\u015aw. Stanis\u0142awa 3", "ref:csioz": "1120109"}}, {"type": "node", "id": 9831629860, "lat": 49.984056, "lon": 18.9535774, "tags": {"addr:city": "Pszczyna", "addr:housenumber": "13", "addr:street": "Genera\u0142a J\u00f3zefa Hallera", "amenity": "pharmacy", "dispensing": "yes", "healthcare": "pharmacy", "name": "Na Hallera", "opening_hours": "Mo-Fr 07:30-19:00; Sa 08:00-13:00", "ref:csioz": "1115041"}}, {"type": "node", "id": 9831629861, "lat": 49.9058794, "lon": 18.6627195, "tags": {"addr:city": "Pielgrzymowice", "addr:housenumber": "4", "addr:street": "Golasowicka", "amenity": "pharmacy", "brand": "Dbam o Zdrowie", "brand:wikidata": "Q62563833", "dispensing": "yes", "healthcare": "pharmacy", "name": "Dbam o Zdrowie", "ref:csioz": "1115032", "short_name": "DOZ"}}, {"type": "node", "id": 9831629862, "lat": 50.0598026, "lon": 18.9337493, "tags": {"addr:city": "Kobi\u00f3r", "addr:housenumber": "1A", "addr:postcode": "43-210", "addr:street": "Kobi\u00f3rska", "amenity": "pharmacy", "dispensing": "yes", "healthcare": "pharmacy", "name": "Vita", "ref:csioz": "1111628"}}, {"type": "node", "id": 9831629863, "lat": 49.9138632, "lon": 18.6785889, "tags": {"addr:city": "Golasowice", "addr:housenumber": "6A", "addr:street": "Janusza Korczaka", "amenity": "pharmacy", "dispensing": "yes", "healthcare": "pharmacy", "name": "Punkt Apteczny Bemvita", "ref:csioz": "1072696"}}, {"type": "node", "id": 9831629864, "lat": 49.9691919, "lon": 18.9442778, "tags": {"addr:city": "Pszczyna", "addr:housenumber": "7", "addr:street": "Dobrawy", "amenity": "pharmacy", "dispensing": "yes", "healthcare": "pharmacy", "name": "Hipokrates III", "ref:csioz": "1067012"}}, {"type": "node", "id": 9831629865, "lat": 49.9625916, "lon": 18.7192567, "tags": {"addr:city": "Paw\u0142owice", "addr:housenumber": "62A", "addr:street": "Zjednoczenia", "amenity": "pharmacy", "dispensing": "yes", "healthcare": "pharmacy", "ref:csioz": "1066461"}}, {"type": "node", "id": 9831629866, "lat": 49.9639113, "lon": 18.6918166, "tags": {"addr:city": "Pni\u00f3wek", "addr:housenumber": "12", "addr:street": "Krucza", "amenity": "pharmacy", "dispensing": "yes", "healthcare": "pharmacy", "name": "Pni\u00f3wek", "ref:csioz": "1066448"}}, {"type": "node", "id": 9841634303, "lat": 49.9521903, "lon": 18.5924406, "tags": {"addr:city": "Jastrz\u0119bie-Zdr\u00f3j", "addr:housenumber": "20", "addr:street": "Wroc\u0142awska", "amenity": "pharmacy", "brand": "Dr. Max", "brand:wikidata": "Q56317371", "dispensing": "yes", "healthcare": "pharmacy", "name": "Dr. Max", "ref:csioz": "1062931"}}, {"type": "node", "id": 9965965582, "lat": 50.0261553, "lon": 18.5875236, "tags": {"addr:city": "\u015awierklany", "addr:housenumber": "79", "addr:postcode": "44-266", "addr:street": "Ko\u015bcielna", "amenity": "pharmacy", "dispensing": "yes", "healthcare": "pharmacy", "name": "Apteka Familia", "ref:csioz": "1069868"}}, {"type": "node", "id": 9965978132, "lat": 50.0266288, "lon": 18.5893906, "tags": {"addr:city": "\u015awierklany", "addr:housenumber": "2", "addr:postcode": "44-266", "addr:street": "Bory\u0144ska", "amenity": "pharmacy", "dispensing": "yes", "healthcare": "pharmacy", "name": "Apteka \u015aw. Stanis\u0142awa", "ref:csioz": "1224203"}}, {"type": "node", "id": 9965990855, "lat": 49.9686119, "lon": 18.5278201, "tags": {"addr:city": "Mszana", "addr:housenumber": "81", "addr:postcode": "44-325", "addr:street": "1 Maja", "amenity": "pharmacy", "dispensing": "yes", "healthcare": "pharmacy", "name": "Familia", "ref:csioz": "1185105"}}, {"type": "node", "id": 9966048853, "lat": 49.990468, "lon": 18.5550593, "tags": {"addr:city": "Po\u0142omia", "addr:housenumber": "78", "addr:postcode": "44-323", "addr:street": "Centralna", "amenity": "pharmacy", "dispensing": "yes", "healthcare": "pharmacy", "name": "U Tomka", "ref:csioz": "1220140"}}, {"type": "node", "id": 10112085565, "lat": 49.9374737, "lon": 18.6465916, "tags": {"addr:city": "Jastrz\u0119bie-Zdr\u00f3j", "addr:housenumber": "178", "addr:street": "Niepodleg\u0142o\u015bci", "amenity": "pharmacy", "dispensing": "yes", "healthcare": "pharmacy", "name": "Maria-Pharm", "ref:csioz": "1225034"}}, {"type": "node", "id": 10112085566, "lat": 49.9648957, "lon": 18.5713783, "tags": {"addr:city": "Jastrz\u0119bie-Zdr\u00f3j", "addr:housenumber": "4", "addr:street": "Piast\u00f3w", "amenity": "pharmacy", "dispensing": "yes", "healthcare": "pharmacy", "name": "Damian VI", "ref:csioz": "1201265"}}, {"type": "node", "id": 10112085567, "lat": 49.9666639, "lon": 18.6196502, "tags": {"addr:city": "Jastrz\u0119bie-Zdr\u00f3j", "addr:housenumber": "21", "addr:street": "Adolfa Wodeckiego", "amenity": "pharmacy", "dispensing": "yes", "healthcare": "pharmacy", "name": "Pod R\u0119k\u0105", "ref:csioz": "1062928"}}, {"type": "node", "id": 10112085568, "lat": 49.9484607, "lon": 18.5939426, "tags": {"addr:city": "Jastrz\u0119bie-Zdr\u00f3j", "addr:housenumber": "5A", "addr:street": "Wielkopolska", "amenity": "pharmacy", "dispensing": "yes", "healthcare": "pharmacy", "name": "Zdrowit", "ref:csioz": "1062915"}}, {"type": "node", "id": 10112085569, "lat": 49.9458794, "lon": 18.6049553, "tags": {"addr:city": "Jastrz\u0119bie-Zdr\u00f3j", "addr:housenumber": "2B", "addr:street": "Warmi\u0144ska", "amenity": "pharmacy", "brand": "Dbam o Zdrowie", "brand:wikidata": "Q62563833", "dispensing": "yes", "healthcare": "pharmacy", "name": "Dbam o Zdrowie", "ref:csioz": "1062888", "short_name": "DOZ"}}, {"type": "node", "id": 10112085570, "lat": 49.9480611, "lon": 18.6130884, "tags": {"addr:city": "Jastrz\u0119bie-Zdr\u00f3j", "addr:housenumber": "36", "addr:street": "Turystyczna", "amenity": "pharmacy", "dispensing": "yes", "healthcare": "pharmacy", "name": "Damian 2", "ref:csioz": "1062875"}}, {"type": "node", "id": 10112085571, "lat": 49.9548914, "lon": 18.5769079, "tags": {"addr:city": "Jastrz\u0119bie-Zdr\u00f3j", "addr:housenumber": "8", "addr:street": "Pszczy\u0144ska", "amenity": "pharmacy", "brand": "Dbam o Zdrowie", "brand:wikidata": "Q62563833", "dispensing": "yes", "healthcare": "pharmacy", "name": "Dbam o Zdrowie", "ref:csioz": "1062869", "short_name": "DOZ"}}, {"type": "node", "id": 10112085572, "lat": 49.9423259, "lon": 18.5783515, "tags": {"addr:city": "Jastrz\u0119bie-Zdr\u00f3j", "addr:housenumber": "16", "addr:street": "Heleny Marusarz\u00f3wny", "amenity": "pharmacy", "dispensing": "yes", "healthcare": "pharmacy", "name": "Damian IV", "ref:csioz": "1062816"}}, {"type": "node", "id": 10112085573, "lat": 49.9388313, "lon": 18.5433391, "tags": {"addr:city": "Jastrz\u0119bie-Zdr\u00f3j", "addr:housenumber": "18", "addr:street": "Komuny Paryskiej", "amenity": "pharmacy", "dispensing": "yes", "healthcare": "pharmacy", "ref:csioz": "1062796"}}, {"type": "node", "id": 10112085574, "lat": 49.9494253, "lon": 18.5943827, "tags": {"addr:city": "Jastrz\u0119bie-Zdr\u00f3j", "addr:housenumber": "2A", "addr:street": "Aleja J\u00f3zefa Pi\u0142sudskiego", "amenity": "pharmacy", "dispensing": "yes", "healthcare": "pharmacy", "name": "Pod Lwem", "ref:csioz": "1062758"}}, {"type": "node", "id": 10112085575, "lat": 49.9474121, "lon": 18.5838715, "tags": {"addr:city": "Jastrz\u0119bie-Zdr\u00f3j", "addr:housenumber": "7", "addr:street": "Aleja Jana Paw\u0142a II", "amenity": "pharmacy", "dispensing": "yes", "healthcare": "pharmacy", "name": "Damian V", "ref:csioz": "1062749"}}, {"type": "node", "id": 10200327538, "lat": 50.0369016, "lon": 18.6792614, "tags": {"addr:city": "\u017bory", "addr:housenumber": "22A", "addr:place": "Osiedle Powsta\u0144c\u00f3w \u015al\u0105skich", "amenity": "pharmacy", "dispensing": "yes", "fixme": "Lokalizacja apteki do weryfikacji", "healthcare": "pharmacy", "name": "Pharmacon", "ref:csioz": "1225462"}}, {"type": "node", "id": 10200327539, "lat": 50.0386833, "lon": 18.6808361, "tags": {"addr:city": "\u017bory", "addr:housenumber": "PU-8", "addr:place": "Osiedle Powsta\u0144c\u00f3w \u015al\u0105skich", "addr:postcode": "44-240", "amenity": "pharmacy", "dispensing": "yes", "healthcare": "pharmacy", "name": "Pharmacon", "opening_hours": "Mo-Fr 07:30-20:00; Sa 08:00-14:00", "phone": "+48 32 434 14 26", "ref:csioz": "1190736", "website": "http://www.aptekapharmacon.pl/nasze-apteki/"}}, {"type": "node", "id": 10200327540, "lat": 50.0294224, "lon": 18.689032, "tags": {"addr:city": "\u017bory", "addr:housenumber": "1A", "addr:street": "Promienna", "amenity": "pharmacy", "dispensing": "yes", "healthcare": "pharmacy", "name": "Pharmacon", "ref:csioz": "1187426"}}, {"type": "node", "id": 10200327541, "lat": 50.0387918, "lon": 18.6908192, "tags": {"addr:city": "\u017bory", "addr:housenumber": "3", "addr:street": "S\u0105dowa", "amenity": "pharmacy", "dispensing": "yes", "healthcare": "pharmacy", "name": "Pharmacon", "ref:csioz": "1172024"}}, {"type": "node", "id": 10200327542, "lat": 50.0296848, "lon": 18.6903861, "tags": {"addr:city": "\u017bory", "addr:housenumber": "44", "addr:street": "Osiedle W\u0142adys\u0142awa Sikorskiego", "amenity": "pharmacy", "dispensing": "yes", "healthcare": "pharmacy", "name": "Astra", "ref:csioz": "1072275"}}, {"type": "node", "id": 10200327543, "lat": 50.0382465, "lon": 18.6843163, "tags": {"addr:city": "\u017bory", "addr:housenumber": "27", "addr:street": "Osiedle Ksi\u0119cia W\u0142adys\u0142awa", "amenity": "pharmacy", "dispensing": "yes", "healthcare": "pharmacy", "name": "Pharmacon", "ref:csioz": "1072242"}}, {"type": "node", "id": 10200327544, "lat": 50.0477604, "lon": 18.6880704, "tags": {"addr:city": "\u017bory", "addr:housenumber": "PU-15", "addr:street": "Osiedle 700-lecia \u017bor", "amenity": "pharmacy", "dispensing": "yes", "healthcare": "pharmacy", "name": "Pod Eskulapem", "ref:csioz": "1072216"}}, {"type": "node", "id": 10200327545, "lat": 50.0314103, "lon": 18.6993717, "tags": {"addr:city": "\u017bory", "addr:housenumber": "2", "addr:street": "Okr\u0119\u017cna", "amenity": "pharmacy", "brand": "Dr. Max", "brand:wikidata": "Q56317371", "dispensing": "yes", "healthcare": "pharmacy", "name": "Dr. Max", "ref:csioz": "1072203"}}, {"type": "node", "id": 10200327546, "lat": 50.0442499, "lon": 18.6913581, "tags": {"addr:city": "\u017bory", "addr:housenumber": "18", "addr:street": "Ogrodowa", "amenity": "pharmacy", "brand": "Dbam o Zdrowie", "brand:wikidata": "Q62563833", "dispensing": "yes", "healthcare": "pharmacy", "name": "Dbam o Zdrowie", "ref:csioz": "1072197", "short_name": "DOZ"}}, {"type": "node", "id": 10200327547, "lat": 50.0452132, "lon": 18.6952755, "tags": {"addr:city": "\u017bory", "addr:housenumber": "1", "addr:street": "Tadeusza Ko\u015bciuszki", "amenity": "pharmacy", "dispensing": "yes", "healthcare": "pharmacy", "name": "Zdrowit", "ref:csioz": "1072170"}}, {"type": "node", "id": 10200327548, "lat": 50.0397674, "lon": 18.7028493, "tags": {"addr:city": "\u017bory", "addr:housenumber": "11", "addr:street": "Francuska", "amenity": "pharmacy", "brand": "Dbam o Zdrowie", "brand:wikidata": "Q62563833", "dispensing": "yes", "healthcare": "pharmacy", "name": "Dbam o Zdrowie", "ref:csioz": "1072156", "short_name": "DOZ"}}, {"type": "node", "id": 10200327549, "lat": 50.0433695, "lon": 18.6887572, "tags": {"addr:city": "\u017bory", "addr:housenumber": "2", "addr:street": "Folwarecka", "amenity": "pharmacy", "dispensing": "yes", "healthcare": "pharmacy", "name": "Pod Eskulapem 2", "ref:csioz": "1072143"}}, {"type": "node", "id": 10200371945, "lat": 50.0282359, "lon": 18.6979514, "tags": {"addr:city": "\u017bory", "addr:housenumber": "6", "addr:postcode": "44-244", "addr:street": "Bankowa", "amenity": "pharmacy", "dispensing": "yes", "healthcare": "pharmacy", "name": "Zdrowit", "ref:csioz": "1231358"}}, {"type": "node", "id": 10265677957, "lat": 49.7935949, "lon": 18.9466232, "tags": {"addr:city": "Jaworze", "addr:housenumber": "7", "addr:postcode": "43-384", "addr:street": "Szkolna", "amenity": "pharmacy", "healthcare": "pharmacy"}}, {"type": "node", "id": 10543476879, "lat": 49.8475374, "lon": 19.148059, "tags": {"amenity": "pharmacy", "check_date": "2023-01-12", "healthcare": "pharmacy", "name": "Apteka Kozia\u0144skie Centrum Lek\u00f3w", "opening_hours": "Mo-Fr 08:00-21:00; Sa 08:00-18:00"}}, {"type": "node", "id": 11155418465, "lat": 49.8822075, "lon": 19.2190816, "tags": {"amenity": "pharmacy", "healthcare": "pharmacy"}}, {"type": "node", "id": 11283380012, "lat": 49.9688482, "lon": 19.1395722, "tags": {"amenity": "pharmacy", "contact:email": "sklep@ziolowa-apteczka.com", "contact:phone": "+48 508 386 771", "healthcare": "pharmacy", "name": "Zio\u0142owa Apteczka", "website": "https://www.ziolowa-apteczka.com/"}}, {"type": "node", "id": 11482785530, "lat": 49.7268941, "lon": 19.0680339, "tags": {"amenity": "pharmacy", "healthcare": "pharmacy", "name": "Dr.Max", "website": "https://www.drmax.pl/"}}, {"type": "node", "id": 11646643987, "lat": 49.7205423, "lon": 19.0412572, "tags": {"amenity": "pharmacy", "dispensing": "yes", "email": "szk.beskidzka.apt@ziko.pl", "name": "Apteka Ziko", "opening_hours": "Mo-Fr 08:00-20:00; Sa 08:00-16:00; Su off", "phone": "+48 511 899 284"}}, {"type": "node", "id": 11646923927, "lat": 49.7162052, "lon": 19.0262977, "tags": {"amenity": "pharmacy", "dispensing": "yes", "email": "aptekapodstarapoczta@interia.pl", "name": "Apteka Pod Star\u0105 Poczt\u0105", "opening_hours": "Mo-Fr 08:00-22:00; Sa 08:00-20:00; Su 10:00-18:00", "phone": "+48 33 829 93 50"}}, {"type": "node", "id": 11878588087, "lat": 49.839935, "lon": 19.0361896, "tags": {"addr:city": "Bielsko-Bia\u0142a", "addr:housenumber": "2", "addr:postcode": "43-300", "addr:street": "Sarni Stok", "amenity": "pharmacy", "healthcare": "pharmacy", "name": "Apteka Dr.Max"}}, {"type": "node", "id": 12057972284, "lat": 49.9124349, "lon": 19.0058249, "tags": {"amenity": "pharmacy", "healthcare": "pharmacy", "name": "Apteka S\u0142oneczna"}}, {"type": "node", "id": 12174100936, "lat": 49.9462159, "lon": 18.6050122, "tags": {"amenity": "pharmacy", "brand": "Dbam o Zdrowie", "brand:wikidata": "Q62563833", "healthcare": "pharmacy", "name": "Dbam o Zdrowie", "short_name": "DOZ"}}, {"type": "node", "id": 12544607107, "lat": 49.9073822, "lon": 18.9439367}, {"type": "node", "id": 12544607108, "lat": 49.9074121, "lon": 18.9439559}, {"type": "node", "id": 12544607109, "lat": 49.9073997, "lon": 18.944002}, {"type": "node", "id": 12604176943, "lat": 49.7827332, "lon": 19.0676082, "tags": {"addr:city": "Bielsko-Bia\u0142a", "addr:housenumber": "94", "addr:postcode": "43-309", "addr:street": "Bystrza\u0144ska", "amenity": "pharmacy", "dispensing": "yes", "drive_through": "no", "healthcare": "pharmacy", "level": "0", "name": "Apteka Bystrza\u0144ska", "opening_hours": "Mon-Fr 08:00-19:00; Sa 08:00-14:00"}}, {"type": "node", "id": 12663117007, "lat": 50.0594523, "lon": 19.0897434, "tags": {"amenity": "pharmacy", "healthcare": "pharmacy", "name": "Apteka Hipokrates", "opening_hours": "+48 32 2169666"}}, {"type": "node", "id": 12919967404, "lat": 49.8157011, "lon": 19.0053026, "tags": {"access": "customers", "door": "hinged", "entrance": "shop"}}, {"type": "node", "id": 12919967406, "lat": 49.8157081, "lon": 19.0051449, "tags": {"door": "hinged", "entrance": "service"}}, {"type": "node", "id": 12919967421, "lat": 49.815736, "lon": 19.005168}, {"type": "node", "id": 12919967422, "lat": 49.815712, "lon": 19.005174}, {"type": "node", "id": 13075882593, "lat": 50.0969015, "lon": 19.0081268, "tags": {"amenity": "pharmacy", "brand": "Ziko Apteka", "brand:wikidata": "Q63432892", "dispensing": "yes", "drive_through": "no", "healthcare": "pharmacy", "level": "0", "name": "Ziko Apteka", "opening_hours": "Mo-Sa 09:00-21:00, Su 09:00-20:00", "phone": "+48 324 388 667;+48 126 875 747", "short_name": "Ziko", "website": "https://www.ziko.pl/apteki/tychy/towarowa-2c/"}}, {"type": "way", "id": 103565914, "nodes": [1195783637, 1195783589, 1195783772, 1195783700, 1195783617, 1195783525, 1195783715, 1195783602, 1195783520, 1195783637], "tags": {"addr:city": "Kozy", "addr:city:simc": "0058028", "addr:housenumber": "17", "addr:postcode": "43-340", "addr:street": "Krakowska", "addr:street:sym_ul": "09796", "amenity": "pharmacy", "building": "yes", "dispensing": "yes", "healthcare": "pharmacy", "source:addr": "emuia.gugik.gov.pl"}}, {"type": "way", "id": 107823993, "nodes": [1238491021, 1238491029, 1238491025, 1238491028, 1238491020, 1238491021], "tags": {"addr:city": "Kozy", "addr:city:simc": "0058028", "addr:housenumber": "4", "addr:postcode": "43-340", "addr:street": "Ludowa", "addr:street:sym_ul": "11383", "amenity": "pharmacy", "building": "yes", "dispensing": "yes", "healthcare": "pharmacy", "source:addr": "emuia.gugik.gov.pl"}}, {"type": "way", "id": 107951927, "nodes": [3845844377, 3845843941, 3845857691, 3845843937, 3845843936, 3845876903, 3845843926, 3845843930, 3845843929, 3845877368, 3845876905, 3845840568, 3845844863, 3845840571, 3845844272, 3845857689, 3845843939, 3845843940, 3845843942, 3845857693, 3845871106, 3845877376, 3845844377], "tags": {"addr:city": "Jaworze", "addr:city:simc": "0055290", "addr:housenumber": "138", "addr:postcode": "43-384", "addr:street": "Zdrojowa", "addr:street:sym_ul": "25944", "amenity": "pharmacy", "building": "yes", "dispensing": "yes", "name": "Apteka Ostoja", "opening_hours": "Mo-Fr 07:30-19:30; Sa 08:00-14:00", "source:addr": "emuia.gugik.gov.pl"}}, {"type": "way", "id": 168135534, "nodes": [1794372601, 12919967404, 1794372596, 12919967422, 12919967406, 1794372599, 1794372610, 1794372617, 12919967421, 1794372614, 1794372601], "tags": {"addr:city": "Bielsko-Bia\u0142a", "addr:housenumber": "50", "addr:postcode": "43-300", "addr:street": "Sp\u00f3\u0142dzielc\u00f3w", "amenity": "pharmacy", "building": "retail", "building:levels": "1", "dispensing": "yes", "healthcare": "pharmacy", "name": "Centauria", "official_name": "Doz Apteka Dbam O Zdrowie Centauria", "opening_hours": "Mo-Fr 08:00-19:00; Sa 08:00-13:00", "ref:csioz": "1058338", "source:building": "BDOT", "source:geometry": "EGiB", "website": "https://www.doz.pl/apteki/a142413-DOZ_Apteka._Dbam_o_Zdrowie._CENTAURIA"}}, {"type": "way", "id": 196187499, "nodes": [4916353163, 4916353162, 4916353161, 4916353160, 4916353159, 4916353158, 4916353157, 4916353156, 4916353155, 4916353154, 4916353153, 4916353152, 4916353163], "tags": {"addr:city": "Cieszyn", "addr:housenumber": "65", "addr:postcode": "43-400", "addr:street": "Genera\u0142a J\u00f3zefa Hallera", "amenity": "pharmacy", "building": "yes", "emuia:id": "PKT_1082", "healthcare": "pharmacy", "name": "Na Banot\u00f3wce", "opening_hours": "Mo-Fr 08:00-19:00, Sa 08:00-14:00", "ref:csioz": "1059839", "source": "UM Cieszyn"}}, {"type": "way", "id": 257747596, "nodes": [2632203517, 2632203505, 2632203463, 2632203466, 2632203494, 2632203517], "tags": {"addr:city": "Czechowice-Dziedzice", "addr:housenumber": "4", "addr:postcode": "43-502", "addr:street": "Henryka Sienkiewicza", "amenity": "pharmacy", "building": "yes", "healthcare": "pharmacy", "name": "Zdrowie"}}, {"type": "way", "id": 354029595, "nodes": [3797201287, 3797201609, 3797201581, 3797201573, 3797201565, 3797201270, 3797201564, 3797201266, 3797183682, 3797201584, 3797201290, 3797201307, 3797201648, 3797201287], "tags": {"addr:city": "Bojszowy", "addr:city:simc": "0212707", "addr:housenumber": "4", "addr:postcode": "43-220", "addr:street": "Ksi\u0105\u017c\u0119ca", "addr:street:sym_ul": "10223", "amenity": "pharmacy", "building": "yes", "dispensing": "yes", "healthcare": "pharmacy", "source:addr": "emuia.gugik.gov.pl"}}, {"type": "way", "id": 375507348, "nodes": [3804736563, 3804734460, 3804716438, 8402761661, 8402761663, 8402761662, 8402761660, 3804716446, 3804736563], "tags": {"addr:city": "Wilamowice", "addr:city:simc": "0926996", "addr:housenumber": "15", "addr:postcode": "43-330", "addr:street": "Ignacego Paderewskiego", "addr:street:sym_ul": "15529", "amenity": "pharmacy", "building": "yes", "dispensing": "yes", "healthcare": "pharmacy", "name": "Apteka Wilamowicka", "source:addr": "emuia.gugik.gov.pl"}}, {"type": "way", "id": 401021903, "nodes": [3179299066, 4034985489, 4034985490, 4034985491, 4034985492, 4034985493, 4034985494, 4034985495, 4034985496, 4034985497, 4034985498, 3179299058, 3179299066], "tags": {"amenity": "pharmacy", "building": "yes", "name": "Apteka Szpitalna"}}, {"type": "way", "id": 409341021, "nodes": [12544607109, 12544607108, 12544607107, 4112534204, 4112534203, 4112534202, 4112534201, 12544607109], "tags": {"addr:city": "Zabrzeg", "addr:housenumber": "1", "addr:postcode": "43-516", "addr:street": "Widna", "amenity": "pharmacy", "building": "yes", "building:levels": "2", "healthcare": "pharmacy", "name": "Na Widnej", "source:addr": "emuia.gugik.gov.pl", "source:building": "BDOT", "source:geometry": "EGiB"}}, {"type": "way", "id": 621495610, "nodes": [5871087120, 5871087114, 5871087113, 5871087117, 5871087115, 5871087116, 5871087118, 5871087119, 5871087120], "tags": {"addr:city": "Pier\u015bciec", "addr:housenumber": "2", "addr:postcode": "43-430", "addr:street": "Nad Potokiem", "amenity": "pharmacy", "building": "yes", "healthcare": "pharmacy", "name": "Paracelsus"}}, {"type": "way", "id": 660670877, "nodes": [6185552493, 6185552494, 6185552495, 6185552496, 6185552493], "tags": {"addr:city": "Czechowice-Dziedzice", "addr:housenumber": "1", "addr:postcode": "43-502", "addr:street": "Nad Bia\u0142k\u0105", "amenity": "pharmacy", "building": "yes", "dispensing": "yes", "healthcare": "pharmacy", "name": "Apteka Dobrych Rad"}}]}