{"version": 0.6, "generator": "Overpass API 0.7.62.8 e802775f", "osm3s": {"timestamp_osm_base": "2025-10-06T08:31:13Z", "copyright": "The data included in this document is from www.openstreetmap.org. The data is made available under ODbL."}, "elements": [{"type": "node", "id": 4879929129, "lat": 43.467913, "lon": 24.5212382, "tags": {"amenity": "pharmacy", "healthcare": "pharmacy"}}, {"type": "node", "id": 10180698281, "lat": 43.4090691, "lon": 24.4441315, "tags": {"amenity": "pharmacy", "brand": "SOpharmacy", "brand:wikidata": "Q108852081", "healthcare": "pharmacy", "name": "Sopharmacy"}}, {"type": "node", "id": 10180747476, "lat": 43.3478519, "lon": 24.4143034, "tags": {"amenity": "pharmacy"}}, {"type": "node", "id": 12228103244, "lat": 43.4240318, "lon": 24.5986813, "tags": {"amenity": "pharmacy", "brand": "SOpharmacy", "brand:wikidata": "Q108852081", "check_date": "2024-10-05", "healthcare": "pharmacy", "internet_access": "no", "name": "SOpharmacy", "opening_hours": "Mo-Fr 09:00-20:00; Sa 09:00-18:00; Su 10:00-19:00", "operator": "\u0421\u043e\u0444\u0430\u0440\u043c\u0430\u0441\u0438 33 \u0415\u041e\u041e\u0414", "payment:cash": "yes", "payment:credit_cards": "yes", "payment:debit_cards": "yes", "wheelchair": "yes"}}, {"type": "node", "id": 12229694718, "lat": 43.4105118, "lon": 24.6170426, "tags": {"amenity": "pharmacy", "brand": "SOpharmacy", "brand:wikidata": "Q108852081", "check_date": "2024-11-16", "healthcare": "pharmacy", "internet_access": "no", "name": "SOpharmacy", "payment:cash": "yes", "payment:credit_cards": "yes", "payment:debit_cards": "yes", "wheelchair": "limited"}}, {"type": "node", "id": 12237553637, "lat": 43.3482646, "lon": 24.7996905, "tags": {"amenity": "pharmacy", "healthcare": "pharmacy", "source": "https://www.bing.com/maps?cp=43.348336%7E24.799583&lvl=19.0&pi=-19.1&style=x&mo=om.1&dir=146.1"}}, {"type": "node", "id": 12345995790, "lat": 43.4103755, "lon": 24.616592, "tags": {"amenity": "pharmacy", "brand": "\u041c\u0430\u0440\u0435\u0448\u043a\u0438", "brand:wikidata": "Q108852051", "check_date": "2024-11-16", "healthcare": "pharmacy", "int_name": "Mareshki", "name": "\u041c\u0430\u0440\u0435\u0448\u043a\u0438", "name:bg": "\u041c\u0430\u0440\u0435\u0448\u043a\u0438", "opening_hours": "Mo-Fr 08:00-20:00; Sa-Su 09:00-19:00", "wheelchair": "no"}}, {"type": "node", "id": 12378624521, "lat": 43.4203475, "lon": 24.5994466, "tags": {"amenity": "pharmacy", "healthcare": "pharmacy", "name": "\u0424\u0435\u043d\u0438\u043a\u0441", "opening_hours": "Mo-Fr 07:30-19:00; Sa 08:00-14:00"}}, {"type": "node", "id": 12381894860, "lat": 43.4210757, "lon": 24.6000797, "tags": {"amenity": "pharmacy", "brand": "\u041c\u0430\u0440\u0435\u0448\u043a\u0438", "brand:wikidata": "Q108852051", "healthcare": "pharmacy", "int_name": "Mareshki", "name": "\u041c\u0430\u0440\u0435\u0448\u043a\u0438", "name:bg": "\u041c\u0430\u0440\u0435\u0448\u043a\u0438", "opening_hours": "Mo-Fr 08:00-20:00; Sa,Su 09:00-19:00"}}, {"type": "node", "id": 12452871954, "lat": 43.4102628, "lon": 24.6307502, "tags": {"addr:housenumber": "13", "addr:street": "\u0425\u0440\u0438\u0441\u0442\u043e \u042f\u0441\u0435\u043d\u043e\u0432", "amenity": "pharmacy", "healthcare": "pharmacy", "name": "META"}}, {"type": "node", "id": 12607572838, "lat": 43.4190023, "lon": 24.6269386, "tags": {"amenity": "pharmacy", "brand": "SOpharmacy", "brand:wikidata": "Q108852081", "check_date": "2025-02-21", "healthcare": "pharmacy", "name": "SOpharmacy", "opening_hours": "Mo-Sa 08:00-20:30; Su 09:00-20:00", "payment:cash": "yes", "payment:credit_cards": "yes", "payment:debit_cards": "yes", "wheelchair": "yes"}}, {"type": "node", "id": 12798216151, "lat": 43.4102859, "lon": 24.6083625, "tags": {"amenity": "pharmacy", "healthcare": "pharmacy"}}, {"type": "node", "id": 12811196175, "lat": 43.4201631, "lon": 24.6081602, "tags": {"amenity": "pharmacy", "brand": "SOpharmacy", "brand:wikidata": "Q108852081", "check_date": "2025-05-05", "healthcare": "pharmacy", "name": "SOpharmacy", "opening_hours": "09:00-20:00", "payment:cash": "yes", "payment:credit_cards": "yes", "payment:debit_cards": "yes", "wheelchair": "yes"}}, {"type": "node", "id": 12995518540, "lat": 43.3951798, "lon": 24.6207212, "tags": {"addr:street": "San Stefano", "amenity": "pharmacy", "name": "SOpharmacy", "opening_hours": "Mo-Sa 08:00-21:00; Su 08:00-20:00", "website": "sopharmacy.bg"}}, {"type": "node", "id": 13068606882, "lat": 43.4197966, "lon": 24.6126179, "tags": {"amenity": "pharmacy", "brand": "Subra", "brand:wikidata": "Q118120555", "healthcare": "pharmacy", "level": "0", "name": "Subra", "name:bg": "\u0421\u0443\u0431\u0440\u0430", "name:en": "Subra", "opening_hours": "Mo-Su 10:00-21:00"}}, {"type": "node", "id": 13125279451, "lat": 43.4066767, "lon": 24.6201225, "tags": {"amenity": "pharmacy", "brand": "Subra", "brand:wikidata": "Q118120555", "check_date": "2025-09-07", "healthcare": "pharmacy", "name": "Subra", "name:bg": "\u0421\u0443\u0431\u0440\u0430", "name:en": "Subra", "payment:cash": "yes", "payment:credit_cards": "yes", "payment:debit_cards": "yes", "wheelchair": "no"}}, {"type": "node", "id": 13144693030, "lat": 43.5213808, "lon": 24.4721854, "tags": {"amenity": "pharmacy"}}]}