{"version": 0.6, "generator": "Overpass API 0.7.62.8 e802775f", "osm3s": {"timestamp_osm_base": "2025-10-06T07:51:29Z", "copyright": "The data included in this document is from www.openstreetmap.org. The data is made available under ODbL."}, "elements": [{"type": "node", "id": 1578206739, "lat": 44.6374846, "lon": 18.8440062, "tags": {"amenity": "pharmacy"}}, {"type": "node", "id": 1635558238, "lat": 44.6324779, "lon": 18.8430299, "tags": {"amenity": "pharmacy", "dispensing": "no"}}, {"type": "node", "id": 2262134069, "lat": 44.4428668, "lon": 18.8739498, "tags": {"amenity": "pharmacy", "name": "Apoteka"}}, {"type": "node", "id": 2262357913, "lat": 44.4803518, "lon": 18.7876748}, {"type": "node", "id": 2262357914, "lat": 44.4801813, "lon": 18.7877402}, {"type": "node", "id": 2262357915, "lat": 44.4803255, "lon": 18.7875398}, {"type": "node", "id": 2262357916, "lat": 44.4801549, "lon": 18.7876052}, {"type": "node", "id": 3529390269, "lat": 44.5314935, "lon": 19.2230328, "tags": {"addr:city": "\u041b\u043e\u0437\u043d\u0438\u0446\u0430", "addr:housenumber": "7", "addr:postcode": "15300", "addr:street": "\u0413\u0438\u043c\u043d\u0430\u0437\u0438\u0458\u0441\u043a\u0430", "amenity": "pharmacy", "name": "Galen", "name:en": "Galen", "name:sr": "\u0413\u0430\u043b\u0435\u043d", "opening_hours": "Mo-Sa 07:00-21:00", "phone": "+38115877356"}}, {"type": "node", "id": 3529399933, "lat": 44.5316967, "lon": 19.2229687, "tags": {"addr:city": "\u041b\u043e\u0437\u043d\u0438\u0446\u0430", "addr:postcode": "15300", "addr:street": "\u0413\u0438\u043c\u043d\u0430\u0437\u0438\u0458\u0441\u043a\u0430", "amenity": "pharmacy", "healthcare": "pharmacy"}}, {"type": "node", "id": 4201954761, "lat": 44.6364873, "lon": 18.841698, "tags": {"amenity": "pharmacy"}}, {"type": "node", "id": 4201958238, "lat": 44.6369654, "lon": 18.8428869, "tags": {"amenity": "pharmacy"}}, {"type": "node", "id": 4337607089, "lat": 44.3650791, "lon": 19.3635054, "tags": {"amenity": "pharmacy", "healthcare": "pharmacy", "int_name": "ZU Loznica", "name": "\u0417\u0423 \u041b\u043e\u0437\u043d\u0438\u0446\u0430", "name:sr-Latn": "ZU Loznica"}}, {"type": "node", "id": 4375893397, "lat": 44.5307894, "lon": 19.2217597, "tags": {"addr:postcode": "15300", "addr:street": "\u0408\u043e\u0432\u0430\u043d\u0430 \u0426\u0432\u0438\u0458\u0438\u045b\u0430", "amenity": "pharmacy", "healthcare": "pharmacy", "name": "TG Pharm Melem", "name:en": "TG Pharm Melem", "opening_hours": "Mo-Sa 07:00-21:00", "phone": "+38115884178"}}, {"type": "node", "id": 4375893697, "lat": 44.652889, "lon": 19.3112058, "tags": {"addr:housenumber": "10", "addr:postcode": "15307", "addr:street": "\u041a\u0440\u0430\u0459\u0430 \u041f\u0435\u0442\u0440\u0430 1.", "amenity": "pharmacy", "name": "TG Pharm MENTA", "name:en": "TG Pharm MENTA", "name:sr-Latn": "TG Pharm MENTA", "opening_hours": "Mo-Sa 07:00-21:00", "phone": "+38115840161", "ref:RS:kucni_broj": "5103805"}}, {"type": "node", "id": 4375928692, "lat": 44.3653042, "lon": 19.3639842, "tags": {"addr:housenumber": "4", "addr:postcode": "15314", "addr:street": "\u0412\u043b\u0430\u0434\u0435 \u0417\u0435\u0447\u0435\u0432\u0438\u045b\u0430", "amenity": "pharmacy", "healthcare": "pharmacy", "name": "TG Pharm Melisa", "name:en": "TG Pharm Melisa", "name:sr-Latn": "TG Pharm Melisa", "opening_hours": "Mo-Sa 07:00-21:00", "phone": "+38115583036", "ref:RS:kucni_broj": "4960271"}}, {"type": "node", "id": 4375944789, "lat": 44.5330629, "lon": 19.2149601, "tags": {"addr:postcode": "15300", "amenity": "pharmacy", "name": "TG Pharm HERBA", "name:en": "TG Pharm HERBA", "name:sr-Latn": "TG Pharm HERBA", "opening_hours": "Mo-Sa 07:00-20:00", "phone": "+38115881007"}}, {"type": "node", "id": 4375947389, "lat": 44.5149116, "lon": 19.1539089, "tags": {"addr:housenumber": "122", "addr:postcode": "15316", "addr:street": "\u041c\u0430\u0440\u0448\u0430\u043b\u0430 \u0422\u0438\u0442\u0430", "amenity": "pharmacy", "healthcare": "pharmacy", "name": "TG Pharm ALTEA", "name:en": "TG Pharm ALTEA", "name:sr-Latn": "TG Pharm ALTEA", "opening_hours": "Mo-Sa 07:00-21:00", "phone": "+38115820216", "ref:RS:kucni_broj": "5107053"}}, {"type": "node", "id": 4414731301, "lat": 44.5355508, "lon": 19.236458, "tags": {"addr:housenumber": "52", "addr:postcode": "15300", "addr:street": "\u0412\u043e\u0458\u0432\u043e\u0434\u0435 \u041f\u0443\u0442\u043d\u0438\u043a\u0430", "amenity": "pharmacy", "healthcare": "pharmacy", "name": "TG Pharm KALE 4", "name:en": "TG Pharm KALE 4", "name:sr-Latn": "TG Pharm KALE 4", "opening_hours": "Mo-Sa 07:00-21:00", "phone": "+38115878710", "ref:RS:kucni_broj": "5111101"}}, {"type": "node", "id": 8946938032, "lat": 44.5150762, "lon": 19.1529464, "tags": {"addr:city": "\u0411\u0430\u045a\u0430 \u041a\u043e\u0432\u0438\u0459\u0430\u0447\u0430", "addr:housenumber": "126a", "addr:postcode": "15316", "addr:street": "\u041c\u0430\u0440\u0448\u0430\u043b\u0430 \u0422\u0438\u0442\u0430", "amenity": "pharmacy", "name": "Galenus", "name:en": "Galenus", "name:sr": "\u0413\u0430\u043b\u0435\u043d\u0443\u0441", "name:sr-Latn": "Galenus", "phone": "+38115892612", "ref:RS:kucni_broj": "5124592", "shop": "hairdresser_supply"}}, {"type": "node", "id": 8946940630, "lat": 44.5152193, "lon": 19.1549201, "tags": {"addr:city": "\u0411\u0430\u045a\u0430 \u041a\u043e\u0432\u0438\u0459\u0430\u0447\u0430", "addr:postcode": "15316", "addr:street": "\u041c\u0430\u0440\u0448\u0430\u043b\u0430 \u0422\u0438\u0442\u0430", "air_conditioning": "yes", "amenity": "pharmacy", "dispensing": "yes", "healthcare": "pharmacy", "name": "\u0414\u0440 \u041b\u0430\u0437\u0430 \u041b\u0430\u0437\u0430\u0440\u0435\u0432\u0438\u045b", "name:en": "Dr Laza Lazarevi\u0107", "name:sr": "\u0414\u0440 \u041b\u0430\u0437\u0430 \u041b\u0430\u0437\u0430\u0440\u0435\u0432\u0438\u045b", "name:sr-Latn": "Dr Laza Lazarevi\u0107", "payment:cash": "yes", "payment:debit_cards": "yes", "payment:mastercard": "yes", "payment:visa": "yes", "phone": "+38115819212", "shop": "medical_supply"}}, {"type": "node", "id": 9452853939, "lat": 44.5355977, "lon": 19.2282637}, {"type": "node", "id": 9452853940, "lat": 44.5355506, "lon": 19.2282645}, {"type": "node", "id": 9452853941, "lat": 44.5355498, "lon": 19.2281732}, {"type": "node", "id": 9452853942, "lat": 44.5355969, "lon": 19.2281723}, {"type": "node", "id": 9455366335, "lat": 44.5353113, "lon": 19.2287182, "tags": {"addr:city": "\u041b\u043e\u0437\u043d\u0438\u0446\u0430", "addr:country": "RS", "addr:postcode": "15300", "amenity": "pharmacy", "email": "apoteka1lo@eunet.rs", "government": "healthcare", "healthcare": "pharmacy", "int_name": "Loznica I", "name": "\u041b\u043e\u0437\u043d\u0438\u0446\u0430 I", "name:sr-Latn": "Loznica I", "office": "government", "opening_hours": "24/7", "phone": "+38115891928", "website": "https://www.apotekaloznica.com/"}}, {"type": "node", "id": 10606488224, "lat": 44.5311527, "lon": 19.2231472, "tags": {"amenity": "pharmacy", "healthcare": "pharmacy", "name": "Family Pharm"}}, {"type": "node", "id": 10774278097, "lat": 44.5358208, "lon": 19.2249061, "tags": {"amenity": "pharmacy", "brand": "Benu", "brand:wikidata": "Q62562792", "healthcare": "pharmacy", "name": "Benu", "name:sr": "\u0411\u0435\u043d\u0443", "name:sr-Latn": "Benu"}}, {"type": "node", "id": 10830590028, "lat": 44.5324343, "lon": 19.2243647}, {"type": "node", "id": 10830590029, "lat": 44.5324019, "lon": 19.2243745}, {"type": "node", "id": 10830590030, "lat": 44.5323751, "lon": 19.2242003}, {"type": "node", "id": 10830590031, "lat": 44.5324076, "lon": 19.2241905}, {"type": "node", "id": 11229753314, "lat": 44.5349472, "lon": 19.2244484, "tags": {"amenity": "pharmacy", "healthcare": "pharmacy", "name": "Belladonna", "name:sr": "\u0411\u0435\u043b\u0430\u0434\u043e\u043d\u0430", "name:sr-Latn": "Beladona", "opening_hours": "Mo-Fr 08:00-20:00; Sa 08:00-18:00"}}, {"type": "way", "id": 216918430, "nodes": [2262357913, 2262357915, 2262357916, 2262357914, 2262357913], "tags": {"amenity": "pharmacy", "building": "yes", "name": "Ospharm apoteka"}}, {"type": "way", "id": 1025199583, "nodes": [9452853939, 9452853940, 9452853941, 9452853942, 9452853939], "tags": {"addr:housenumber": "13", "addr:postcode": "15300", "addr:street": "\u0414\u0440 \u041c\u0430\u0440\u0438\u043d", "amenity": "pharmacy", "building": "yes", "healthcare": "pharmacy", "name": "TG Pharm ZDRAVLJE", "name:en": "TG Pharm ZDRAVLJE", "name:sr-Latn": "TG Pharm ZDRAVLJE", "opening_hours": "24/7", "phone": "+38115893470", "ref:RS:kucni_broj": "5107986"}}, {"type": "way", "id": 1164528638, "nodes": [10830590031, 10830590030, 10830590029, 10830590028, 10830590031], "tags": {"amenity": "pharmacy", "building": "yes", "building:levels": "1"}}]}