{"version": 0.6, "generator": "Overpass API 0.7.62.8 e802775f", "osm3s": {"timestamp_osm_base": "2025-10-06T08:04:48Z", "copyright": "The data included in this document is from www.openstreetmap.org. The data is made available under ODbL."}, "elements": [{"type": "node", "id": 4693308893, "lat": 43.2394619, "lon": 21.601971, "tags": {"amenity": "pharmacy", "healthcare": "pharmacy", "int_name": "Drzavna apoteka", "name": "\u0414\u0440\u0436\u0430\u0432\u043d\u0430 \u0430\u043f\u043e\u0442\u0435\u043a\u0430", "name:sr": "\u0414\u0440\u0436\u0430\u0432\u043d\u0430 \u0430\u043f\u043e\u0442\u0435\u043a\u0430", "name:sr-Latn": "Dr\u017eavna apoteka"}}, {"type": "node", "id": 4693369089, "lat": 43.2397299, "lon": 21.6026356, "tags": {"amenity": "pharmacy", "healthcare": "pharmacy", "name": "Betty", "name:en": "Betty"}}, {"type": "node", "id": 4693380289, "lat": 43.234904, "lon": 21.5880925, "tags": {"alt_name": "\u0413\u043b\u0430\u0432\u043d\u0430 \u0434\u0440\u0436\u0430\u0432\u043d\u0430 \u0430\u043f\u043e\u0442\u0435\u043a\u0430", "amenity": "pharmacy", "healthcare": "pharmacy", "int_name": "Prokuplje", "name": "\u041f\u0440\u043e\u043a\u0443\u043f\u0459\u0435", "name:sr": "\u041f\u0440\u043e\u043a\u0443\u043f\u0459\u0435", "phone": "+38127335555", "website": "www.apotekaprokuplje.rs"}}, {"type": "node", "id": 5470797221, "lat": 43.2336691, "lon": 21.5862101, "tags": {"amenity": "pharmacy", "dispensing": "yes", "drive_through": "no", "healthcare": "pharmacy", "int_name": "Lipa", "name": "\u041b\u0438\u043f\u0430", "name:sr-Latn": "Lipa"}}, {"type": "node", "id": 8899556984, "lat": 43.1379995, "lon": 21.271102, "tags": {"addr:city": "\u041a\u0443\u0440\u0448\u0443\u043c\u043b\u0438\u0458\u0430", "addr:postcode": "18430", "addr:street": "\u041f\u0430\u043b\u0438\u0445 \u0431\u043e\u0440\u0430\u0446\u0430", "amenity": "pharmacy", "dispensing": "yes", "drive_through": "no", "healthcare": "pharmacy", "name": "Gradska", "opening_hours": "Mo-Sa 07:00-21:00", "wheelchair": "yes"}}, {"type": "node", "id": 9866713647, "lat": 43.1396827, "lon": 21.2713232, "tags": {"addr:city": "\u041a\u0443\u0440\u0448\u0443\u043c\u043b\u0438\u0458\u0430", "addr:housenumber": "32", "addr:postcode": "18430", "addr:street": "\u041d\u0435\u043c\u0430\u045a\u0438\u043d\u0430", "amenity": "pharmacy", "brand": "Benu", "brand:wikidata": "Q62562792", "contact:website": "http://benu.rs/", "dispensing": "yes", "drive_through": "no", "healthcare": "pharmacy", "name": "Benu", "opening_hours": "Mo-Fr 07:30-19:00", "operator": "Benu", "wheelchair": "no"}}, {"type": "node", "id": 12007409814, "lat": 43.141262, "lon": 21.2724028, "tags": {"addr:city": "\u041a\u0443\u0440\u0448\u0443\u043c\u043b\u0438\u0458\u0430", "addr:housenumber": "1", "addr:postcode": "18430", "addr:street": "\u0414\u043e\u043a\u0442\u043e\u0440\u0430 \u041c\u0435\u043b\u0433\u0430\u0440\u0434\u0430", "amenity": "pharmacy", "dispensing": "yes", "email": "apotokajevremovic@gmail.com", "healthcare": "pharmacy", "name": "Jevremovic", "opening_hours": "Mo-Sa 08:00-18:00", "operator": "Dragica", "phone": "027381212", "ref:RS:kucni_broj": "6581628", "wheelchair": "yes"}}, {"type": "node", "id": 12289026646, "lat": 43.1388584, "lon": 21.2717354, "tags": {"amenity": "pharmacy", "healthcare": "pharmacy"}}]}