{"version": 0.6, "generator": "Overpass API 0.7.62.8 e802775f", "osm3s": {"timestamp_osm_base": "2025-10-06T08:53:43Z", "copyright": "The data included in this document is from www.openstreetmap.org. The data is made available under ODbL."}, "elements": [{"type": "node", "id": 1377410770, "lat": 37.2130622, "lon": 28.360707, "tags": {"amenity": "pharmacy", "healthcare": "pharmacy", "int_name": "DAS Pharamcy", "name": "DA\u015e Eczanesi"}}, {"type": "node", "id": 6530380789, "lat": 37.177447, "lon": 28.3722451, "tags": {"addr:city": "Mu\u011fla", "addr:district": "Merkez", "amenity": "pharmacy", "dispensing": "yes", "healthcare": "pharmacy", "name": "G\u00fcnizi Eczanesi"}}, {"type": "node", "id": 6530380790, "lat": 37.1777072, "lon": 28.3722202, "tags": {"addr:city": "Mu\u011fla", "addr:district": "Merkez", "amenity": "pharmacy", "dispensing": "yes", "healthcare": "pharmacy", "name": "Esen Eczanesi"}}, {"type": "node", "id": 6550730274, "lat": 37.2167905, "lon": 28.3642697, "tags": {"addr:city": "Mu\u011fla", "addr:district": "Mente\u015fe", "amenity": "pharmacy", "dispensing": "yes", "healthcare": "pharmacy", "name": "Can Eczanesi"}}, {"type": "node", "id": 6551346259, "lat": 37.2199042, "lon": 28.3504632, "tags": {"addr:city": "Mu\u011fla", "addr:district": "Mente\u015fe", "addr:housenumber": "72", "addr:street": "Abdi \u0130pek\u00e7i Bulvar\u0131", "amenity": "pharmacy", "dispensing": "yes", "healthcare": "pharmacy", "name": "Leyne Eczanesi", "phone": "0252 212 39 30"}}, {"type": "node", "id": 6551356804, "lat": 37.2199746, "lon": 28.3502471, "tags": {"addr:city": "Mu\u011fla", "addr:district": "Mente\u015fe", "addr:housenumber": "74", "addr:street": "Abdi \u0130pek\u00e7i Bulvar\u0131", "amenity": "pharmacy", "dispensing": "yes", "healthcare": "pharmacy", "name": "\u0130dil Eczanesi", "phone": "0252 212 65 58"}}, {"type": "node", "id": 6551426292, "lat": 37.2151955, "lon": 28.3706662, "tags": {"addr:city": "Mu\u011fla", "addr:district": "Merkez", "amenity": "pharmacy", "dispensing": "yes", "healthcare": "pharmacy", "name": "Gonca Eczanesi"}}, {"type": "node", "id": 6551426293, "lat": 37.215125, "lon": 28.3704757, "tags": {"addr:city": "Mu\u011fla", "addr:district": "Merkez", "amenity": "pharmacy", "dispensing": "yes", "healthcare": "pharmacy", "name": "Mu\u011fla Eczanesi"}}, {"type": "node", "id": 6551426296, "lat": 37.2148558, "lon": 28.3708995, "tags": {"addr:city": "Mu\u011fla", "addr:district": "Mente\u015fe", "addr:street": "14. Sokak", "amenity": "pharmacy", "dispensing": "yes", "healthcare": "pharmacy", "name": "\u00c7a\u011flar Eczanesi"}}, {"type": "node", "id": 6551426297, "lat": 37.2149257, "lon": 28.3714022, "tags": {"addr:city": "Mu\u011fla", "addr:district": "Mente\u015fe", "addr:street": "14. Sokak", "amenity": "pharmacy", "dispensing": "yes", "healthcare": "pharmacy", "name": "Ka\u015f\u0131kara Eczanesi", "phone": "0252 214 97 44"}}, {"type": "node", "id": 6551426299, "lat": 37.2148895, "lon": 28.3717299, "tags": {"addr:city": "Mu\u011fla", "addr:district": "Mente\u015fe", "addr:street": "14. Sokak", "amenity": "pharmacy", "dispensing": "yes", "healthcare": "pharmacy", "name": "G\u00f6k\u00e7e Eczanesi", "phone": "0252 213 04 11"}}, {"type": "node", "id": 6551593809, "lat": 37.213976, "lon": 28.3706393, "tags": {"addr:city": "Mu\u011fla", "addr:district": "Mente\u015fe", "amenity": "pharmacy", "dispensing": "yes", "healthcare": "pharmacy", "name": "Defne Eczanesi"}}, {"type": "node", "id": 6551593811, "lat": 37.2138562, "lon": 28.3706543, "tags": {"addr:city": "Mu\u011fla", "addr:district": "Mente\u015fe", "amenity": "pharmacy", "dispensing": "yes", "healthcare": "pharmacy", "name": "Alinda Eczanesi"}}, {"type": "node", "id": 6551593812, "lat": 37.2143066, "lon": 28.3706141, "tags": {"addr:city": "Mu\u011fla", "addr:district": "Mente\u015fe", "amenity": "pharmacy", "dispensing": "yes", "healthcare": "pharmacy", "name": "Didem Eczanesi"}}, {"type": "node", "id": 6553849395, "lat": 37.2130739, "lon": 28.3603757, "tags": {"addr:city": "Mu\u011fla", "addr:district": "Mente\u015fe", "amenity": "pharmacy", "dispensing": "yes", "healthcare": "pharmacy", "name": "Kurano\u011flu Eczanesi"}}, {"type": "node", "id": 6553849397, "lat": 37.212854, "lon": 28.360285, "tags": {"addr:city": "Mu\u011fla", "addr:district": "Mente\u015fe", "amenity": "pharmacy", "dispensing": "yes", "healthcare": "pharmacy", "name": "Sabanc\u0131 Eczanesi", "phone": "0252 214 26 08"}}, {"type": "node", "id": 6553863492, "lat": 37.2138731, "lon": 28.3590971, "tags": {"addr:city": "Mu\u011fla", "addr:district": "Mente\u015fe", "addr:neighbourhood": "Emirbeyaz\u0131t Mah.", "addr:street": "Hasan Ercan Caddesi", "amenity": "pharmacy", "dispensing": "yes", "healthcare": "pharmacy", "name": "Kafadar Eczanesi"}}, {"type": "node", "id": 6557193433, "lat": 37.2132168, "lon": 28.3675285, "tags": {"addr:city": "Mu\u011fla", "addr:district": "Mente\u015fe", "amenity": "pharmacy", "dispensing": "yes", "healthcare": "pharmacy", "name": "Mine Eczanesi"}}, {"type": "node", "id": 6557193434, "lat": 37.2133689, "lon": 28.3679075, "tags": {"addr:city": "Mu\u011fla", "addr:district": "Mente\u015fe", "amenity": "pharmacy", "dispensing": "yes", "healthcare": "pharmacy", "name": "Ba\u015fak Eczanesi"}}, {"type": "node", "id": 6557193435, "lat": 37.2132732, "lon": 28.3676579, "tags": {"addr:city": "Mu\u011fla", "addr:district": "Mente\u015fe", "amenity": "pharmacy", "dispensing": "yes", "healthcare": "pharmacy", "name": "Sel\u00e7uk Eczanesi", "phone": "0252 212 29 11"}}, {"type": "node", "id": 6557193441, "lat": 37.2134621, "lon": 28.3681047, "tags": {"addr:city": "Mu\u011fla", "addr:district": "Mente\u015fe", "amenity": "pharmacy", "dispensing": "yes", "healthcare": "pharmacy", "name": "Tezcan Eczanesi"}}, {"type": "node", "id": 6557193443, "lat": 37.2135075, "lon": 28.3682017, "tags": {"amenity": "pharmacy", "dispensing": "yes", "healthcare": "pharmacy", "name": "Y\u00fcksel Eczanesi", "phone": "0252 212 19 07"}}, {"type": "node", "id": 6557193446, "lat": 37.2135419, "lon": 28.3682664, "tags": {"addr:city": "Mu\u011fla", "addr:district": "Mente\u015fe", "amenity": "pharmacy", "dispensing": "yes", "healthcare": "pharmacy", "name": "Saba Eczanesi", "phone": "0252 214 17 10"}}, {"type": "node", "id": 6557193447, "lat": 37.2135726, "lon": 28.3683404, "tags": {"addr:city": "Mu\u011fla", "addr:district": "Mente\u015fe", "amenity": "pharmacy", "dispensing": "yes", "healthcare": "pharmacy", "name": "Hayat Eczanesi", "phone": "0252 214 37 14"}}, {"type": "node", "id": 6557290597, "lat": 37.2136906, "lon": 28.3682441, "tags": {"addr:city": "Mu\u011fla", "addr:district": "Mente\u015fe", "amenity": "pharmacy", "dispensing": "yes", "healthcare": "pharmacy", "name": "Nizamo\u011flu Eczanesi", "phone": "0252 212 36 70"}}, {"type": "node", "id": 6557290598, "lat": 37.2138444, "lon": 28.3681743, "tags": {"addr:city": "Mu\u011fla", "addr:district": "Mente\u015fe", "amenity": "pharmacy", "dispensing": "yes", "healthcare": "pharmacy", "name": "Genek Eczanesi", "phone": "0252 214 60 09"}}, {"type": "node", "id": 6557290600, "lat": 37.2146404, "lon": 28.367533, "tags": {"addr:city": "Mu\u011fla", "addr:district": "Mente\u015fe", "amenity": "pharmacy", "dispensing": "yes", "healthcare": "pharmacy", "name": "Odaba\u015f\u0131 Eczanesi", "phone": "0252 212 15 22"}}, {"type": "node", "id": 6557290601, "lat": 37.2144667, "lon": 28.367656, "tags": {"addr:city": "Mu\u011fla", "addr:district": "Mente\u015fe", "amenity": "pharmacy", "dispensing": "yes", "healthcare": "pharmacy", "name": "Fidan Eczanesi"}}, {"type": "node", "id": 6557290603, "lat": 37.2147292, "lon": 28.3674789, "tags": {"addr:city": "Mu\u011fla", "addr:district": "Mente\u015fe", "amenity": "pharmacy", "dispensing": "yes", "healthcare": "pharmacy", "name": "Deniz Eczanesi"}}, {"type": "node", "id": 6559410692, "lat": 37.2147987, "lon": 28.3651049, "tags": {"addr:city": "Mu\u011fla", "addr:district": "Mente\u015fe", "amenity": "pharmacy", "dispensing": "yes", "healthcare": "pharmacy", "name": "Derman Eczanesi"}}, {"type": "node", "id": 6560098421, "lat": 37.2062141, "lon": 28.3679713, "tags": {"addr:city": "Mu\u011fla", "addr:district": "Mente\u015fe", "amenity": "pharmacy", "dispensing": "yes", "healthcare": "pharmacy", "name": "Meltem Eczanesi"}}, {"type": "node", "id": 9610736523, "lat": 37.2158066, "lon": 28.3628848, "tags": {"amenity": "pharmacy", "healthcare": "pharmacy", "name": "S\u00fcsyolu Eczanesi"}}, {"type": "node", "id": 11025891164, "lat": 37.177645, "lon": 28.3722268, "tags": {"amenity": "pharmacy", "healthcare": "pharmacy", "name": "Eczane O\u011ful"}}, {"type": "node", "id": 11595809172, "lat": 37.4457292, "lon": 28.3622377, "tags": {"amenity": "pharmacy", "name": "Selin Eczanesi", "phone": "+90 252 592 7630"}}, {"type": "node", "id": 11595809173, "lat": 37.4461957, "lon": 28.3637277, "tags": {"amenity": "pharmacy", "name": "Sever Eczanesi", "phone": "+90 252 592 7448"}}, {"type": "node", "id": 11595809174, "lat": 37.481533, "lon": 28.3433626, "tags": {"amenity": "pharmacy", "name": "\u00c7ayboyu Eczanesi", "phone": "+90 252 595 8788"}}]}