{"version": 0.6, "generator": "Overpass API 0.7.62.8 e802775f", "osm3s": {"timestamp_osm_base": "2025-10-06T08:45:30Z", "copyright": "The data included in this document is from www.openstreetmap.org. The data is made available under ODbL."}, "elements": [{"type": "node", "id": 2254646392, "lat": 53.0888003, "lon": 22.438615, "tags": {"amenity": "pharmacy", "brand": "Dbam o Zdrowie", "brand:wikidata": "Q62563833", "dispensing": "yes", "healthcare": "pharmacy", "name": "Dbam o Zdrowie", "ref:csioz": "1019524", "short_name": "DOZ", "wheelchair": "yes"}}, {"type": "node", "id": 2633487801, "lat": 52.9886722, "lon": 22.2489093, "tags": {"amenity": "pharmacy", "dispensing": "yes", "healthcare": "pharmacy", "name": "Na Bia\u0142ostockiej", "opening_hours": "Mo-Fr 07:30-19:00; Sa 07:30-15:00; PH off", "ref:csioz": "1019394"}}, {"type": "node", "id": 2633487803, "lat": 52.9858119, "lon": 22.2420343, "tags": {"amenity": "pharmacy", "brand": "Dbam o Zdrowie", "brand:wikidata": "Q62563833", "dispensing": "yes", "healthcare": "pharmacy", "name": "Dbam o Zdrowie", "opening_hours": "Mo-Sa 07:30-21:00; Su 08:00-18:00; PH off", "ref:csioz": "1025402", "short_name": "DOZ"}}, {"type": "node", "id": 2633487804, "lat": 52.9854834, "lon": 22.2459824, "tags": {"amenity": "pharmacy", "dispensing": "yes", "healthcare": "pharmacy", "name": "T&P", "opening_hours": "Mo-Sa 08:00-20:00; Su 09:00-16:00; PH off", "ref:csioz": "1019079"}}, {"type": "node", "id": 2633487806, "lat": 52.984485, "lon": 22.2446738, "tags": {"amenity": "pharmacy", "check_date:opening_hours": "2021-12-31", "dispensing": "yes", "healthcare": "pharmacy", "name": "Zambrowska", "opening_hours": "Mo-Fr 08:00-20:00; Sa 08:00-16:00; PH off", "ref:csioz": "1120205"}}, {"type": "node", "id": 2633487809, "lat": 52.9739017, "lon": 22.2445516, "tags": {"amenity": "pharmacy", "brand": "Dbam o Zdrowie", "brand:wikidata": "Q62563833", "dispensing": "yes", "healthcare": "pharmacy", "name": "Dbam o Zdrowie", "opening_hours": "Mo-Fr 07:00-20:00; Sa 08:00-16:00; PH off", "ref:csioz": "1017344", "short_name": "DOZ"}}, {"type": "node", "id": 2930891827, "lat": 52.9700015, "lon": 22.2469284, "tags": {"amenity": "pharmacy", "dispensing": "yes", "healthcare": "pharmacy", "name": "Osiedlowa", "opening_hours": "Mo-Fr 08:00-19:00; Sa 08:00-14:00; PH off", "ref:csioz": "1024212"}}, {"type": "node", "id": 2993501776, "lat": 52.9151817, "lon": 22.5108041, "tags": {"addr:city": "Wysokie Mazowieckie", "addr:housenumber": "54", "addr:street": "Ludowa", "amenity": "pharmacy", "dispensing": "yes", "name": "Dbam o Zdrowie (Doz)", "opening_hours": "Mo-Fr 08:00-19:00; Sa 08:00-16:00", "phone": "86 275 47 27", "ref:csioz": "1024094", "website": "https://www.doz.pl/apteki/a25017-DOZ_Apteka_Dbam_o_Zdrowie"}}, {"type": "node", "id": 3372169733, "lat": 52.977796, "lon": 22.2448181, "tags": {"amenity": "pharmacy", "brand": "Cef@Rm 36,6", "dispensing": "yes", "healthcare": "pharmacy", "name": "Cef@Rm 36,6", "opening_hours": "Mo-Fr 08:00-20:00; Sa 08:00-15:00; PH off", "ref:csioz": "1175073"}}, {"type": "node", "id": 4303180017, "lat": 52.920777, "lon": 22.6491292, "tags": {"addr:city": "Jab\u0142o\u0144 Ko\u015bcielna", "addr:housenumber": "4", "addr:postcode": "18-212", "addr:street": "Cmentarna", "amenity": "pharmacy", "name": "Punkt apteczny (J. Szymborska)", "ref:csioz": "1015127"}}, {"type": "node", "id": 4426460189, "lat": 52.9195335, "lon": 22.5225121, "tags": {"addr:city": "Wysokie Mazowieckie", "addr:housenumber": "4/4 lok. C", "addr:postcode": "18-200", "addr:street": "Bia\u0142ostocka", "amenity": "pharmacy", "dispensing": "yes", "email": "bialostocka@pogodnaapteka.pl", "level": "0", "name": "Pogodna", "operator": "Pogodna Apteka Weronika \u017bebrowska", "payment:cash": "yes", "payment:credit_cards": "yes", "phone": "603 773 366", "ref:csioz": "1020524", "start_date": "2009-12-09", "website": "https://pogodnaapteka.pl/", "wheelchair": "yes"}}, {"type": "node", "id": 5747618126, "lat": 52.801297, "lon": 22.3096459, "tags": {"addr:city": "Czy\u017cew", "addr:housenumber": "1B", "addr:postcode": "18-220", "addr:street": "Zambrowska", "amenity": "pharmacy", "dispensing": "yes", "email": "czyzew@pogodnaapteka.pl", "healthcare": "pharmacy", "level": "0", "name": "Pogodna Apteka", "operator": "Pogodna Apteka Weronika \u017bebrowska", "payment:cash": "yes", "payment:credit_cards": "yes", "ref:csioz": "1187338", "website": "https://pogodnaapteka.pl/", "wheelchair": "yes"}}, {"type": "node", "id": 5747672046, "lat": 52.9189024, "lon": 22.5102962, "tags": {"addr:city": "Wysokie Mazowieckie", "addr:housenumber": "6", "addr:postcode": "18-200", "addr:street": "Jagiello\u0144ska", "amenity": "pharmacy", "dispensing": "yes", "email": "jagiellonska@pogodnaapteka.pl", "healthcare": "pharmacy", "name": "Pogodna", "operator": "Weronika \u017bebrowska", "ref:csioz": "1195755"}}, {"type": "node", "id": 8931044949, "lat": 53.0898862, "lon": 22.4395158, "tags": {"amenity": "pharmacy", "dispensing": "yes", "drive_through": "no", "healthcare": "pharmacy", "name": "Ekoapteka", "ref:csioz": "1176859"}}, {"type": "node", "id": 9549636279, "lat": 53.038854, "lon": 21.987867, "tags": {"addr:city": "\u015aniadowo", "addr:housenumber": "5", "addr:postcode": "18-411", "addr:street": "Ostro\u0142\u0119cka", "amenity": "pharmacy", "brand": "Cef@Rm 36,6", "dispensing": "yes", "healthcare": "pharmacy", "name": "Cef@Rm 36,6", "ref:csioz": "1022927"}}, {"type": "node", "id": 9554269629, "lat": 52.9187755, "lon": 22.5111749, "tags": {"addr:city": "Wysokie Mazowieckie", "addr:housenumber": "5", "addr:postcode": "18-200", "addr:street": "D\u0142uga", "amenity": "pharmacy", "name": "Choma", "ref:csioz": "1185208"}}, {"type": "node", "id": 9554269630, "lat": 52.8700265, "lon": 22.5434604, "tags": {"addr:city": "Szepietowo", "addr:housenumber": "1", "addr:postcode": "18-210", "addr:street": "Mazowiecka", "amenity": "pharmacy", "name": "\u015awi\u0119tych Kosmy I Damiana", "ref:csioz": "1023320"}}, {"type": "node", "id": 9554269631, "lat": 52.9154919, "lon": 22.5198865, "tags": {"addr:city": "Wysokie Mazowieckie", "addr:housenumber": "5A", "addr:postcode": "18-200", "addr:street": "Szpitalna", "amenity": "pharmacy", "name": "Ars Medica", "ref:csioz": "1021823"}}, {"type": "node", "id": 9554269632, "lat": 52.9149356, "lon": 22.5203796, "tags": {"addr:city": "Wysokie Mazowieckie", "addr:housenumber": "16", "addr:postcode": "18-200", "addr:street": "Szpitalna", "amenity": "pharmacy", "name": "Dbam o Zdrowie (Doz)", "ref:csioz": "1225109"}}, {"type": "node", "id": 9554269633, "lat": 52.8554424, "lon": 22.7068654, "tags": {"addr:city": "Nowe Piekuty", "addr:flats": "2", "addr:housenumber": "6", "addr:postcode": "18-212", "addr:street": "G\u0142\u00f3wna", "amenity": "pharmacy", "name": "Apteka (J. Szymborska)", "ref:csioz": "1182708"}}, {"type": "node", "id": 9554269634, "lat": 52.8679051, "lon": 22.5378431, "tags": {"addr:city": "Szepietowo", "addr:housenumber": "1", "addr:postcode": "18-210", "addr:street": "Lipowa", "amenity": "pharmacy", "name": "Apteka prywatna (E. Bia\u0142a)", "ref:csioz": "1025300"}}, {"type": "node", "id": 9554269635, "lat": 52.9151637, "lon": 22.512526, "tags": {"addr:city": "Wysokie Mazowieckie", "addr:housenumber": "17A", "addr:postcode": "18-200", "addr:street": "Ludowa", "amenity": "pharmacy", "name": "Apteka Przy Banku", "ref:csioz": "1019112"}}, {"type": "node", "id": 9554269637, "lat": 52.9522197, "lon": 22.3726573, "tags": {"addr:housenumber": "52", "addr:place": "Jab\u0142onka Ko\u015bcielna", "addr:postcode": "18-200", "amenity": "pharmacy", "name": "Dbam O Zdrowie (Doz)", "ref:csioz": "1015103"}}, {"type": "node", "id": 9554269638, "lat": 52.7762886, "lon": 22.5078137, "tags": {"addr:city": "Klukowo", "addr:housenumber": "4C", "addr:postcode": "18-214", "addr:street": "Szkolna", "amenity": "pharmacy", "name": "Nowa Farmacja (Punkt Apteczny)", "ref:csioz": "1197887"}}, {"type": "node", "id": 9554269641, "lat": 52.7985101, "lon": 22.312632, "tags": {"addr:city": "Czy\u017cew", "addr:housenumber": "12A", "addr:postcode": "18-220", "addr:street": "Du\u017cy Rynek", "amenity": "pharmacy", "name": "W Rynku", "ref:csioz": "1018951"}}, {"type": "node", "id": 9554269642, "lat": 52.7977594, "lon": 22.3210965, "tags": {"addr:city": "Czy\u017cew", "addr:housenumber": "5B", "addr:postcode": "18-220", "addr:street": "Polna", "amenity": "pharmacy", "name": "Apteka (M. Strza\u0142kowska)", "ref:csioz": "1017315"}}, {"type": "node", "id": 9557752895, "lat": 52.9756314, "lon": 22.2458876, "tags": {"addr:city": "Zambr\u00f3w", "addr:housenumber": "1", "addr:postcode": "18-300", "addr:street": "Fabryczna", "amenity": "pharmacy", "name": "Top Apteka", "ref:csioz": "1208758"}}, {"type": "node", "id": 9557752896, "lat": 52.9193447, "lon": 22.0839968, "tags": {"addr:city": "Szumowo", "addr:housenumber": "54", "addr:postcode": "18-305", "addr:street": "1 Maja", "amenity": "pharmacy", "ref:csioz": "1025321"}}, {"type": "node", "id": 9624311294, "lat": 52.7561933, "lon": 22.127065, "tags": {"addr:city": "Zar\u0119by Ko\u015bcielne", "addr:housenumber": "16A", "addr:street": "Kowalska", "amenity": "pharmacy", "dispensing": "yes", "fixme": "Lokalizacja do weryfikacji", "name": "Punkt Apteczny", "ref:csioz": "1091685"}}, {"type": "node", "id": 9624311296, "lat": 52.8302399, "lon": 22.2003015, "tags": {"addr:city": "Andrzejewo", "addr:housenumber": "35", "addr:street": "Warszawska", "amenity": "pharmacy", "dispensing": "yes", "name": "Ars Medica", "ref:csioz": "1091417"}}, {"type": "node", "id": 10274226699, "lat": 52.9917045, "lon": 22.2486313, "tags": {"addr:city": "Zambr\u00f3w", "addr:housenumber": "2b", "addr:postcode": "18-300", "addr:street": "Kazimierza Pu\u0142askiego", "amenity": "pharmacy", "dispensing": "yes", "healthcare": "pharmacy", "name": "Od Serca", "opening_hours": "Mo-Fr 07:30-21:00; Sa 08:00-18:00; PH off", "ref:csioz": "1020360"}}]}