{"version": 0.6, "generator": "Overpass API 0.7.62.8 e802775f", "osm3s": {"timestamp_osm_base": "2025-10-06T08:31:13Z", "copyright": "The data included in this document is from www.openstreetmap.org. The data is made available under ODbL."}, "elements": [{"type": "node", "id": 355524600, "lat": 44.117592, "lon": 24.3560144, "tags": {"amenity": "pharmacy", "created_by": "Potlatch 0.10f", "name": "Farm Micu", "operator": "Farm Micu"}}, {"type": "node", "id": 387738505, "lat": 44.1151245, "lon": 24.3537943, "tags": {"amenity": "pharmacy", "fixme": "name-is-missing", "name": "Farmacie"}}, {"type": "node", "id": 387739887, "lat": 44.112648, "lon": 24.3499629, "tags": {"addr:city": "Caracal", "addr:housenumber": "35", "addr:postcode": "235200", "addr:street": "Bulevardul Antonius Caracalla", "amenity": "pharmacy", "healthcare": "pharmacy", "name": "Viofarm", "operator": "Viofarm", "phone": "+40 249 513 138", "source": "survey"}}, {"type": "node", "id": 577871291, "lat": 44.4221214, "lon": 24.384659, "tags": {"amenity": "pharmacy", "healthcare": "pharmacy", "name": "Farmacia Galenus"}}, {"type": "node", "id": 577877227, "lat": 44.420041, "lon": 24.3847181, "tags": {"amenity": "pharmacy", "healthcare": "pharmacy"}}, {"type": "node", "id": 1297040298, "lat": 44.3676833, "lon": 24.2562421, "tags": {"amenity": "pharmacy", "name": "Farmacie"}}, {"type": "node", "id": 1297040299, "lat": 44.3674571, "lon": 24.2555661, "tags": {"amenity": "pharmacy", "name": "Farmacie Veterinar\u0103"}}, {"type": "node", "id": 1706703994, "lat": 44.1124364, "lon": 24.3492409, "tags": {"amenity": "pharmacy", "name": "Farmacia Brad"}}, {"type": "node", "id": 2918459648, "lat": 44.1678189, "lon": 24.524507, "tags": {"addr:city": "Dr\u0103g\u0103ne\u0219ti-Olt", "addr:street": "Strada Nicolae Titulescu", "amenity": "pharmacy", "brand": "Catena", "brand:wikidata": "Q24035728", "healthcare": "pharmacy", "name": "Catena"}}, {"type": "node", "id": 2918483851, "lat": 44.1680517, "lon": 24.5231444, "tags": {"addr:city": "Dr\u0103g\u0103ne\u0219ti-Olt", "addr:housename": "Farmacie veterinar\u0103", "addr:street": "Strada Nicolae Titulescu", "amenity": "pharmacy", "name": "Farmacie veterinar\u0103", "source": "survey"}}, {"type": "node", "id": 2918483853, "lat": 44.1680345, "lon": 24.5223559, "tags": {"addr:city": "Dr\u0103g\u0103ne\u0219ti-Olt", "addr:housename": "Farmacia Bujorfarm", "addr:street": "Strada Nicolae Titulescu", "amenity": "pharmacy", "healthcare": "pharmacy", "name": "Farmacia Bujorfarm", "source": "survey"}}, {"type": "node", "id": 2938510583, "lat": 44.1676225, "lon": 24.5220532, "tags": {"addr:city": "Dr\u0103g\u0103ne\u0219ti-Olt", "amenity": "pharmacy", "brand": "Catena", "brand:wikidata": "Q24035728", "healthcare": "pharmacy", "name": "Catena"}}, {"type": "node", "id": 3422288435, "lat": 44.4310894, "lon": 24.3554623, "tags": {"addr:city": "Slatina", "addr:street": "Strada Oituz", "amenity": "pharmacy", "name": "Eliana"}}, {"type": "node", "id": 3422289024, "lat": 44.4311635, "lon": 24.3564848, "tags": {"addr:city": "Slatina", "addr:street": "Strada Nicolae Titulescu", "amenity": "pharmacy"}}, {"type": "node", "id": 3422289042, "lat": 44.4314097, "lon": 24.357168, "tags": {"addr:city": "Slatina", "addr:street": "Strada Nicolae Titulescu", "amenity": "pharmacy"}}, {"type": "node", "id": 4605715090, "lat": 44.4297039, "lon": 24.3638811, "tags": {"amenity": "pharmacy", "brand": "Catena", "brand:wikidata": "Q24035728", "brand:wikipedia": "ro:Farmacia Catena", "healthcare": "pharmacy", "name": "Catena", "name:ro": "Catena"}}, {"type": "node", "id": 5161558132, "lat": 44.1880151, "lon": 23.9991107, "tags": {"amenity": "pharmacy", "name": "Dalia farm", "source": "survey"}}, {"type": "node", "id": 5161558140, "lat": 44.1884613, "lon": 23.9973619, "tags": {"amenity": "pharmacy", "name": "Hygea", "source": "survey"}}, {"type": "node", "id": 5311710067, "lat": 44.2443586, "lon": 24.2793515, "tags": {"addr:city": "Osica de Jos", "addr:housenumber": "100", "addr:postcode": "237153", "addr:street": "Strada Principal\u0103", "amenity": "pharmacy", "healthcare": "pharmacy", "name": "Farmacia Pharma Byamar"}}, {"type": "node", "id": 5679023585, "lat": 44.2221149, "lon": 24.4622621}, {"type": "node", "id": 5679023586, "lat": 44.2220542, "lon": 24.4623541}, {"type": "node", "id": 5679023587, "lat": 44.2219769, "lon": 24.4622716}, {"type": "node", "id": 5679023588, "lat": 44.222037, "lon": 24.4621621}, {"type": "node", "id": 5821361911, "lat": 44.0534505, "lon": 24.2983745}, {"type": "node", "id": 5821361912, "lat": 44.0533965, "lon": 24.2983745}, {"type": "node", "id": 5821361913, "lat": 44.05341, "lon": 24.2980553}, {"type": "node", "id": 5821361914, "lat": 44.0534678, "lon": 24.298058}, {"type": "node", "id": 6170124055, "lat": 44.4946684, "lon": 24.3306706, "tags": {"addr:city": "Curti\u0219oara", "amenity": "pharmacy", "dispensing": "yes", "healthcare": "pharmacy"}}, {"type": "node", "id": 6361125643, "lat": 44.4270651, "lon": 24.3723308, "tags": {"addr:city": "Slatina", "amenity": "pharmacy", "brand": "Dr. Max", "brand:wikidata": "Q56317371", "dispensing": "yes", "healthcare": "pharmacy", "name": "Dr. Max", "operator": "Dr.Max", "website": "https://www.drmax.ro"}}, {"type": "node", "id": 6361125644, "lat": 44.4273629, "lon": 24.3708873, "tags": {"addr:city": "Slatina", "addr:street": "Bulevardul Alexandru Ioan Cuza", "amenity": "pharmacy", "brand": "Catena", "brand:wikidata": "Q24035728", "brand:wikipedia": "ro:Farmacia Catena", "dispensing": "yes", "healthcare": "pharmacy", "name": "Catena", "opening_hours": "24/7", "operator": "Catena"}}, {"type": "node", "id": 6475971281, "lat": 44.4193949, "lon": 24.3842446, "tags": {"amenity": "pharmacy", "dispensing": "yes", "healthcare": "pharmacy"}}, {"type": "node", "id": 6579663196, "lat": 44.1727643, "lon": 24.3557139, "tags": {"amenity": "pharmacy", "lead_pharmacist": "Barbu Daniela Maria", "name": "Ad Farm", "reviewed": "no"}}, {"type": "node", "id": 6942485088, "lat": 44.4275723, "lon": 24.369931, "tags": {"amenity": "pharmacy", "brand": "Farmacia Dona", "brand:wikidata": "Q12726919", "dispensing": "yes", "healthcare": "pharmacy", "name": "Farmacia Dona"}}, {"type": "node", "id": 7087847417, "lat": 44.4309131, "lon": 24.3644774, "tags": {"amenity": "pharmacy", "dispensing": "yes", "healthcare": "pharmacy", "name": "Medifarm"}}, {"type": "node", "id": 7095815396, "lat": 44.4292469, "lon": 24.3651168, "tags": {"amenity": "pharmacy", "dispensing": "yes", "healthcare": "pharmacy", "name": "Prosana"}}, {"type": "node", "id": 8719102812, "lat": 44.4266265, "lon": 24.3751041, "tags": {"addr:street": "Bulevardul Alexandru Ioan Cuza", "amenity": "pharmacy", "brand": "Pharmacie Principale", "brand:wikidata": "Q1547749", "brand:wikipedia": "fr:Groupe PP Holding", "dispensing": "yes", "drive_through": "no", "healthcare": "pharmacy", "name": "FARMACIA DONA", "opening_hours": "Mo-Su 09:00-21:00", "operator": "DONA"}}, {"type": "node", "id": 8731895655, "lat": 44.4324445, "lon": 24.3719744, "tags": {"amenity": "pharmacy", "brand": "Farmacia Dona", "brand:wikidata": "Q12726919", "brand:wikipedia": "ro:Dona", "healthcare": "pharmacy", "name": "Farmacia Dona"}}, {"type": "node", "id": 8731895659, "lat": 44.4327322, "lon": 24.3719033, "tags": {"amenity": "pharmacy", "brand": "Pharmacie Principale", "brand:wikidata": "Q1547749", "brand:wikipedia": "fr:Groupe PP Holding", "healthcare": "pharmacy", "name": "FARMACIA CRISFARM"}}, {"type": "node", "id": 8775681824, "lat": 44.2539459, "lon": 24.3226324, "tags": {"addr:city": "Osica de Sus", "addr:housenumber": "4", "addr:street": "Strada Alexandru Ioan Cuza", "amenity": "pharmacy", "healthcare": "pharmacy", "name": "Al Shefa", "opening_hours": "Mo-Fr 08:00-16:00 Sat 08:00-12:00 Sun 08:00-13:00"}}, {"type": "node", "id": 8776304845, "lat": 44.2539419, "lon": 24.3235283, "tags": {"addr:city": "Osica de Sus", "addr:housenumber": "2", "addr:street": "Strada Alexandru Ioan Cuza", "amenity": "pharmacy", "healthcare": "pharmacy", "name": "Farmacia Teofarm"}}, {"type": "node", "id": 9346565250, "lat": 44.1124734, "lon": 24.3483583, "tags": {"amenity": "pharmacy", "dispensing": "yes", "healthcare": "pharmacy", "name": "Farmacie Veterinara"}}, {"type": "node", "id": 9385734988, "lat": 44.4271233, "lon": 24.3698237, "tags": {"amenity": "pharmacy", "healthcare": "pharmacy"}}, {"type": "node", "id": 10257625086, "lat": 44.4269153, "lon": 24.3648904, "tags": {"amenity": "pharmacy", "healthcare": "pharmacy", "name": "Farmacia Geopaca"}}, {"type": "node", "id": 10270995488, "lat": 44.4326394, "lon": 24.370833, "tags": {"addr:city": "Slatina", "addr:street": "Strada Cri\u0219an", "amenity": "pharmacy", "healthcare": "pharmacy", "name": "Farmacia Crisfarm Slatina"}}, {"type": "node", "id": 10570708897, "lat": 44.4227489, "lon": 24.3862185, "tags": {"amenity": "pharmacy", "healthcare": "pharmacy", "name": "Medimfarm"}}, {"type": "way", "id": 596016947, "nodes": [5679023585, 5679023586, 5679023587, 5679023588, 5679023585], "tags": {"addr:city": "M\u0103run\u021bei", "amenity": "pharmacy", "building": "yes", "dispensing": "yes", "healthcare": "pharmacy"}}, {"type": "way", "id": 615627707, "nodes": [5821361911, 5821361912, 5821361913, 5821361914, 5821361911], "tags": {"addr:city": "Redea", "addr:country": "RO", "addr:postcode": "237370", "amenity": "pharmacy", "building": "yes", "dispensing": "yes", "healthcare": "pharmacy", "name": "Farmacia Remedia"}}]}