{"version": 0.6, "generator": "Overpass API 0.7.62.8 e802775f", "osm3s": {"timestamp_osm_base": "2025-10-06T08:52:35Z", "copyright": "The data included in this document is from www.openstreetmap.org. The data is made available under ODbL."}, "elements": [{"type": "node", "id": 2158102997, "lat": 45.6751031, "lon": 26.0331427, "tags": {"amenity": "pharmacy", "healthcare": "pharmacy", "name": "Farmira"}}, {"type": "node", "id": 8733927404, "lat": 45.353765, "lon": 26.0402047, "tags": {"addr:city": "Slon", "addr:housenumber": "35", "addr:street": "Strada Cuza-Vod\u0103", "amenity": "pharmacy", "dispensing": "yes", "healthcare": "pharmacy", "name": "Farmacia Cereus Farm"}}, {"type": "node", "id": 8734000865, "lat": 45.3239578, "lon": 26.040195, "tags": {"addr:city": "Cera\u0219u", "addr:street": "DC30 - Strada Mihai Viteazul", "amenity": "pharmacy", "dispensing": "yes", "healthcare": "pharmacy", "name": "Farmacia Cereus Farm"}}, {"type": "node", "id": 10672328332, "lat": 45.3149568, "lon": 26.3614969, "tags": {"addr:city": "P\u0103t\u00e2rlagele", "addr:street": "Strada Nicolae B\u0103lcescu", "amenity": "pharmacy", "healthcare": "pharmacy", "name": "Farmacie"}}, {"type": "node", "id": 11132273319, "lat": 45.4171299, "lon": 26.3016164, "tags": {"amenity": "pharmacy", "healthcare": "pharmacy", "name": "Farmacia Evofarm"}}, {"type": "node", "id": 11362899975, "lat": 45.6741851, "lon": 26.0311927, "tags": {"addr:city": "\u00centorsura Buz\u0103ului", "addr:housenumber": "204", "addr:street": "Strada Mihai Viteazul", "amenity": "pharmacy", "healthcare": "pharmacy", "opening_hours": "Mo-Fr 09:00-17:00"}}, {"type": "node", "id": 11804211849, "lat": 45.2812562, "lon": 26.1124001, "tags": {"amenity": "pharmacy", "healthcare": "pharmacy", "name": "Maxi Farma"}}, {"type": "node", "id": 11804274079, "lat": 45.3221106, "lon": 26.1861286, "tags": {"amenity": "pharmacy", "healthcare": "pharmacy"}}]}