{"version": 0.6, "generator": "Overpass API 0.7.62.8 e802775f", "osm3s": {"timestamp_osm_base": "2025-10-06T08:31:13Z", "copyright": "The data included in this document is from www.openstreetmap.org. The data is made available under ODbL."}, "elements": [{"type": "node", "id": 491002002, "lat": 47.7944775, "lon": 22.8737474, "tags": {"amenity": "pharmacy", "healthcare": "pharmacy"}}, {"type": "node", "id": 491009114, "lat": 47.7804812, "lon": 22.8826974, "tags": {"amenity": "pharmacy", "healthcare": "pharmacy"}}, {"type": "node", "id": 496799568, "lat": 47.7972708, "lon": 22.8876604, "tags": {"amenity": "pharmacy", "healthcare": "pharmacy", "name:signed": "no"}}, {"type": "node", "id": 740974663, "lat": 47.7955333, "lon": 22.873877, "tags": {"amenity": "pharmacy", "healthcare": "pharmacy"}}, {"type": "node", "id": 1081234255, "lat": 47.681853, "lon": 22.4665232, "tags": {"addr:city": "Carei", "amenity": "pharmacy", "healthcare": "pharmacy", "name": "Digitalis", "opening_hours": "Mo-Fr 08:00-21:00; Sa,Su 08:00-20:00"}}, {"type": "node", "id": 3830418554, "lat": 47.7809826, "lon": 22.8919224, "tags": {"amenity": "pharmacy"}}, {"type": "node", "id": 4208766440, "lat": 47.4784547, "lon": 22.5843814, "tags": {"amenity": "pharmacy", "healthcare": "pharmacy"}}, {"type": "node", "id": 4430733292, "lat": 47.7884104, "lon": 22.8776861, "tags": {"addr:street": "Strada Mircea cel B\u0103tr\u00e2n", "amenity": "pharmacy", "healthcare": "pharmacy", "name": "Farmacia Buna Vestire", "opening_hours": "Mo-Su 08:00-22:00"}}, {"type": "node", "id": 4430774389, "lat": 47.8015729, "lon": 22.883044, "tags": {"addr:street": "Strada Eroilor", "amenity": "pharmacy", "healthcare": "pharmacy", "name": "Farmacia Geranium", "opening_hours": "Mo-Fr 08:00-19:00; Sa 08:00-13:00"}}, {"type": "node", "id": 4713505147, "lat": 47.7087854, "lon": 22.5036766, "tags": {"addr:city": "Kaplony", "addr:postcode": "447080", "addr:street": "F\u0151 Utca", "amenity": "pharmacy", "name": "Gy\u00f3gyszert\u00e1r", "name:de": "Apotheke", "name:ro": "Farmacie"}}, {"type": "node", "id": 4716058800, "lat": 47.6836465, "lon": 22.4726232, "tags": {"amenity": "pharmacy", "brand": "Catena", "brand:wikidata": "Q24035728", "healthcare": "pharmacy", "name": "Catena", "name:ro": "Catena", "opening_hours": "Mo-Fr 08:00-20:00; Sa 08:00-15:00; Su 08:00-14:00"}}, {"type": "node", "id": 6291100288, "lat": 47.6868162, "lon": 22.4641826, "tags": {"addr:city": "Carei", "addr:housenumber": "37", "addr:postcode": "445100", "addr:street": "Strada 1 Decembrie 1918", "amenity": "pharmacy", "check_date:opening_hours": "2024-05-21", "dispensing": "yes", "healthcare": "pharmacy", "name": "Hepites", "opening_hours": "Mo-Fr 08:00-18:00; Sa 09:00-14:00", "operator": "Hepites SRL", "wheelchair": "yes"}}, {"type": "node", "id": 6291129056, "lat": 47.6800844, "lon": 22.470864, "tags": {"addr:city": "Carei", "addr:housenumber": "Bloc I3", "addr:postcode": "445100", "addr:street": "Strada Igni\u0219ului", "amenity": "pharmacy", "brand": "Catena", "brand:wikidata": "Q24035728", "dispensing": "yes", "healthcare": "pharmacy", "name": "Catena", "opening_hours": "Mo-Fr 09:00-20:00; Sa 09:00-15:00; Sa 08:00-12:00; Su 09:00-14:00", "operator": "Catena", "source": "survey", "wheelchair": "yes"}}, {"type": "node", "id": 6857256672, "lat": 47.7854418, "lon": 22.8447748, "tags": {"amenity": "pharmacy", "brand": "Dr. Max", "brand:wikidata": "Q56317371", "dispensing": "yes", "healthcare": "pharmacy", "name": "Dr. Max", "operator": "Dr.Max", "website": "https://www.drmax.ro"}}, {"type": "node", "id": 7095733077, "lat": 47.7856845, "lon": 22.8714784, "tags": {"addr:city": "Satu Mare", "addr:postcode": "440157", "amenity": "pharmacy", "brand": "Help Net", "brand:wikidata": "Q12729923", "brand:wikipedia": "ro:Help Net", "dispensing": "yes", "healthcare": "pharmacy", "name": "Help Net"}}, {"type": "node", "id": 7095733083, "lat": 47.785178, "lon": 22.8688364, "tags": {"addr:city": "Satu Mare", "addr:postcode": "440157", "amenity": "pharmacy", "brand": "Dr. Max", "brand:wikidata": "Q56317371", "dispensing": "yes", "healthcare": "pharmacy", "name": "Dr. Max", "operator": "Dr.Max", "website": "https://www.drmax.ro"}}, {"type": "node", "id": 9326871302, "lat": 47.7913091, "lon": 22.8681234, "tags": {"amenity": "pharmacy", "brand": "Dr. Max", "brand:wikidata": "Q56317371", "dispensing": "yes", "healthcare": "pharmacy", "name": "Dr. Max", "operator": "Dr.Max", "website": "https://www.drmax.ro"}}, {"type": "node", "id": 9714439217, "lat": 47.6836305, "lon": 22.4716425, "tags": {"amenity": "pharmacy", "healthcare": "pharmacy", "survey:date": "2022-05-04"}}, {"type": "node", "id": 9726719217, "lat": 47.689305, "lon": 22.4640207, "tags": {"addr:city": "Carei", "addr:postcode": "445100", "amenity": "pharmacy", "healthcare": "pharmacy", "name": "Digitalis", "name:ro": "Digitalis", "survey:date": "2022-05-09"}}, {"type": "node", "id": 10006018817, "lat": 47.7780442, "lon": 22.9231549, "tags": {"addr:housenumber": "109", "addr:street": "Strada Principala", "amenity": "pharmacy", "name": "Farmacia Primaverii", "name:en": "Springs Pharmacy"}}, {"type": "node", "id": 10735522592, "lat": 47.793724, "lon": 22.8768268, "tags": {"amenity": "pharmacy", "healthcare": "pharmacy", "name": "PANAX"}}, {"type": "node", "id": 10735573165, "lat": 47.792511, "lon": 22.8735702, "tags": {"amenity": "pharmacy", "brand": "Catena", "brand:wikidata": "Q24035728", "healthcare": "pharmacy", "name": "Catena"}}, {"type": "node", "id": 10735931063, "lat": 47.7750451, "lon": 22.8840511, "tags": {"amenity": "pharmacy", "brand": "Catena", "brand:wikidata": "Q24035728", "healthcare": "pharmacy", "name": "Catena"}}, {"type": "node", "id": 11335814872, "lat": 47.7843348, "lon": 22.864592, "tags": {"amenity": "pharmacy", "brand": "Catena", "brand:wikidata": "Q24035728", "dispensing": "yes", "drive_through": "no", "healthcare": "pharmacy", "name": "Catena"}}, {"type": "node", "id": 11597632930, "lat": 47.7928282, "lon": 22.8736044, "tags": {"amenity": "pharmacy", "brand": "Dr. Max", "brand:wikidata": "Q56317371", "drive_through": "no", "healthcare": "pharmacy", "name": "Dr. Max"}}, {"type": "node", "id": 11974754367, "lat": 47.7769964, "lon": 22.884701, "tags": {"amenity": "pharmacy", "healthcare": "pharmacy", "name": "Farmacia Hristiana"}}, {"type": "node", "id": 12104318015, "lat": 47.8052488, "lon": 22.8852276, "tags": {"amenity": "pharmacy", "healthcare": "pharmacy", "name": "Farmacia nr. 5"}}, {"type": "node", "id": 12140550375, "lat": 47.7916228, "lon": 22.8737082, "tags": {"amenity": "pharmacy", "healthcare": "pharmacy", "name": "P\u0103p\u0103dia"}}, {"type": "node", "id": 12154104883, "lat": 47.7774624, "lon": 22.892197, "tags": {"amenity": "pharmacy", "brand": "Catena", "brand:wikidata": "Q24035728", "healthcare": "pharmacy", "name": "Catena"}}, {"type": "node", "id": 12297300210, "lat": 47.6403264, "lon": 22.888742, "tags": {"amenity": "pharmacy", "healthcare": "pharmacy", "name": "Farmacie Help Net"}}, {"type": "node", "id": 12299722512, "lat": 47.6458658, "lon": 22.8935167, "tags": {"amenity": "pharmacy", "healthcare": "pharmacy", "name": "Farmacie"}}]}