{"version": 0.6, "generator": "Overpass API 0.7.62.8 e802775f", "osm3s": {"timestamp_osm_base": "2025-10-06T09:06:59Z", "copyright": "The data included in this document is from www.openstreetmap.org. The data is made available under ODbL."}, "elements": [{"type": "node", "id": 709009578, "lat": 56.3056736, "lon": 22.3400464, "tags": {"addr:city": "Ma\u017eeikiai", "addr:housenumber": "9B", "addr:postcode": "89239", "addr:street": "Naftinink\u0173 g.", "amenity": "pharmacy", "name": "Gintarin\u0117 vaistin\u0117", "opening_hours": "Mo-Fr 08:00-18:00", "phone": "+370 443 29086", "website": "https://www.gintarine.lt"}}, {"type": "node", "id": 2626805507, "lat": 56.2433692, "lon": 22.7519812, "tags": {"addr:city": "Akmen\u0117", "addr:contact": "yes", "addr:housenumber": "7A", "addr:street": "S. Daukanto g.", "amenity": "pharmacy", "dispensing": "no", "name": "Norfos vaistin\u0117"}}, {"type": "node", "id": 3713477506, "lat": 56.3125067, "lon": 22.3456228, "tags": {"amenity": "pharmacy", "name": "Eurovaistin\u0117"}}, {"type": "node", "id": 3713525408, "lat": 56.3139715, "lon": 22.3412384, "tags": {"addr:city": "Ma\u017eeikiai", "addr:contact": "yes", "addr:housenumber": "7", "addr:postcode": "89225", "addr:street": "Vasario 16-osios g.", "amenity": "pharmacy", "name": "Vaist\u0173 namai", "operator": "Vaigreda"}}, {"type": "node", "id": 3718450062, "lat": 56.3172841, "lon": 22.3400497, "tags": {"addr:city": "Ma\u017eeikiai", "addr:contact": "yes", "addr:housenumber": "56", "addr:postcode": "89223", "addr:street": "Laisv\u0117s g.", "amenity": "pharmacy", "name": "Eurovaistin\u0117"}}, {"type": "node", "id": 4665389269, "lat": 56.1510568, "lon": 22.7930761, "tags": {"addr:city": "Papil\u0117", "addr:contact": "yes", "addr:housenumber": "1", "addr:postcode": "85244", "addr:street": "S. Daukanto g.", "amenity": "pharmacy", "name": "Camelia", "opening_hours": "Mo-Fr 08:00-17:00; Sa,Su off", "website": "https://www.camelia.lt/"}}, {"type": "node", "id": 4681290314, "lat": 56.0980271, "lon": 23.2507789, "tags": {"addr:city": "Gruzd\u017eiai", "addr:contact": "yes", "addr:housenumber": "19A", "addr:postcode": "81418", "addr:street": "S. Dariaus ir S. Gir\u0117no g.", "amenity": "pharmacy", "brand": "Camelia", "brand:wikidata": "Q15867413", "drive_through": "no", "healthcare": "pharmacy", "name": "Camelia", "opening_hours": "Mo-Fr 08:00-17:00", "phone": "+370 41 372 338", "website": "https://www.camelia.lt/", "wheelchair": "designated"}}, {"type": "node", "id": 6030452839, "lat": 56.2330535, "lon": 22.5153248, "tags": {"amenity": "pharmacy", "name": "Camelia"}}, {"type": "node", "id": 12339027701, "lat": 56.464709, "lon": 22.8922569, "tags": {"addr:city": "Auce", "addr:country": "LV", "addr:district": "Dobeles novads", "addr:housenumber": "1", "addr:postcode": "LV-3708", "addr:street": "Bazn\u012bcas iela", "amenity": "pharmacy", "healthcare": "pharmacy", "name": "Apotheka", "opening_hours": "Mo-Fr 08:00-20:00; Sa 09:00-18:00; Su 09:00-16:00", "phone": "+371 63 745 164", "ref:LV:addr": "104827675", "website": "https://www.apotheka.lv"}}]}