{"version": 0.6, "generator": "Overpass API 0.7.62.8 e802775f", "osm3s": {"timestamp_osm_base": "2025-10-06T08:20:01Z", "copyright": "The data included in this document is from www.openstreetmap.org. The data is made available under ODbL."}, "elements": [{"type": "node", "id": 730708207, "lat": 52.6485796, "lon": 19.0703608, "tags": {"addr:city": "W\u0142oc\u0142awek", "addr:housenumber": "27", "addr:postcode": "87-800", "addr:street": "Chopina", "amenity": "pharmacy", "dispensing": "yes", "healthcare": "pharmacy", "name": "Apteka Aura", "ref:csioz": "1186744"}}, {"type": "node", "id": 730724580, "lat": 52.6543003, "lon": 19.0657034, "tags": {"amenity": "pharmacy", "healthcare": "pharmacy", "name": "Apteka Staromiejska"}}, {"type": "node", "id": 2350918099, "lat": 52.4881556, "lon": 19.0187032, "tags": {"addr:city": "Choce\u0144", "addr:housenumber": "11", "addr:postcode": "87-850", "addr:street": "W\u0142adys\u0142awa Sikorskiego", "amenity": "pharmacy", "dispensing": "yes", "healthcare": "pharmacy", "name": "Pod Kasztanem", "opening_hours": "Mo-Fr 08:00-18:00; Sa 08:00-13:00", "ref:csioz": "1103916"}}, {"type": "node", "id": 3629928489, "lat": 52.5035743, "lon": 18.6972575, "tags": {"amenity": "pharmacy", "brand": "Dbam o Zdrowie", "brand:wikidata": "Q62563833", "dispensing": "yes", "healthcare": "pharmacy", "name": "Dbam o Zdrowie", "ref:csioz": "1104435", "short_name": "DOZ"}}, {"type": "node", "id": 3747313621, "lat": 52.38794, "lon": 18.5036389, "tags": {"addr:city": "Sompolno", "addr:housenumber": "14", "addr:postcode": "62-610", "addr:street": "plac Wolno\u015bci", "amenity": "pharmacy", "healthcare": "pharmacy", "name": "Aloes"}}, {"type": "node", "id": 3747313623, "lat": 52.3879412, "lon": 18.5032464, "tags": {"addr:city": "Sompolno", "addr:housenumber": "16", "addr:postcode": "62-610", "addr:street": "plac Wolno\u015bci", "amenity": "pharmacy", "healthcare": "pharmacy", "name": "Dars"}}, {"type": "node", "id": 3835051758, "lat": 52.6390263, "lon": 19.0495888}, {"type": "node", "id": 3835051759, "lat": 52.6389614, "lon": 19.0497553}, {"type": "node", "id": 3835051760, "lat": 52.6388313, "lon": 19.0496175}, {"type": "node", "id": 3835051761, "lat": 52.6388961, "lon": 19.0494511}, {"type": "node", "id": 4031493244, "lat": 52.4874939, "lon": 19.0198755, "tags": {"addr:city": "Choce\u0144", "addr:housenumber": "15", "addr:postcode": "87-850", "addr:street": "W\u0142adys\u0142awa Sikorskiego", "amenity": "pharmacy", "dispensing": "yes", "healthcare": "pharmacy", "name": "Plusfarm", "opening_hours": "Mo-Fr 08:00-18:30; Sa 08:00-13:30", "ref:csioz": "1104585"}}, {"type": "node", "id": 4055208311, "lat": 52.6066816, "lon": 18.9019229, "tags": {"addr:city": "Brze\u015b\u0107 Kujawski", "addr:housenumber": "6a", "addr:postcode": "87-880", "addr:street": "Kolejowa", "addr:unit": "1", "amenity": "pharmacy", "dispensing": "yes", "healthcare": "pharmacy", "name": "Zdrowie i Uroda", "opening_hours": "Mo-Sa 08:00-20:00; Su 8:00-17:00", "ref:csioz": "1207881"}}, {"type": "node", "id": 4056604170, "lat": 52.6180419, "lon": 19.0279762, "tags": {"addr:city": "W\u0142oc\u0142awek", "addr:housenumber": "27", "addr:postcode": "87-800", "addr:street": "Aleja Jana Paw\u0142a II", "amenity": "pharmacy", "dispensing": "yes", "name": "Apteka Twoja", "opening_hours": "Mo-Fr 08:00-20:00; Sa 08:00-18:00; Su 09:00-14:00", "phone": "+48 54 426 29 50", "ref:csioz": "1104599"}}, {"type": "node", "id": 4056649551, "lat": 52.6411261, "lon": 19.0724206, "tags": {"addr:city": "W\u0142oc\u0142awek", "addr:housenumber": "10", "addr:postcode": "87-800", "addr:street": "Cmentarna", "amenity": "pharmacy", "brand": "Dr. Max", "brand:wikidata": "Q56317371", "dispensing": "yes", "healthcare": "pharmacy", "name": "Dr. Max", "opening_hours": "Mo-Sa 08:00-21:00; Su 09:00-20:00", "phone": "+48 54 231 29 47", "ref:csioz": "1104741", "website": "aptekadyzurna.pl"}}, {"type": "node", "id": 4060244791, "lat": 52.6558214, "lon": 19.0614133, "tags": {"addr:city": "W\u0142oc\u0142awek", "addr:housenumber": "18", "addr:postcode": "87-800", "addr:street": "Kazimierza Pu\u0142askiego", "amenity": "pharmacy", "brand": "Dr. Max", "brand:wikidata": "Q56317371", "dispensing": "yes", "healthcare": "pharmacy", "name": "Dr. Max", "opening_hours": "Mo-Fr 08:00-21:00, Sa 09:00-21:00; Su 10:00-18:00", "phone": "+48 54 411 72 25", "ref:csioz": "1100267"}}, {"type": "node", "id": 4060249468, "lat": 52.6704307, "lon": 19.0379812, "tags": {"addr:city": "W\u0142oc\u0142awek", "addr:housenumber": "87", "addr:postcode": "87-800", "addr:street": "Toru\u0144ska", "amenity": "pharmacy", "dispensing": "yes", "healthcare": "pharmacy", "name": "S\u0142oneczna", "opening_hours": "24/7", "phone": "+48 54 426 24 28", "ref:csioz": "1186094"}}, {"type": "node", "id": 4081219213, "lat": 52.6544832, "lon": 19.0674021, "tags": {"addr:city": "W\u0142oc\u0142awek", "addr:housenumber": "17", "addr:postcode": "87-800", "addr:street": "Plac Wolno\u015bci", "amenity": "pharmacy", "brand": "Dbam o Zdrowie", "brand:wikidata": "Q62563833", "dispensing": "yes", "healthcare": "pharmacy", "name": "Dbam o Zdrowie", "opening_hours": "24/7", "phone": "+48 54 231 12 00", "ref:csioz": "1099050", "website": "https://www.doz.pl/"}}, {"type": "node", "id": 4173773610, "lat": 52.8041532, "lon": 18.8718335}, {"type": "node", "id": 4173773611, "lat": 52.80417, "lon": 18.8717897}, {"type": "node", "id": 4173773613, "lat": 52.8042025, "lon": 18.871705}, {"type": "node", "id": 4173773615, "lat": 52.804226, "lon": 18.8719101}, {"type": "node", "id": 4173773616, "lat": 52.8042439, "lon": 18.8717489}, {"type": "node", "id": 4173773618, "lat": 52.8042742, "lon": 18.8717811}, {"type": "node", "id": 4470458541, "lat": 52.6737072, "lon": 18.3239704, "tags": {"addr:city": "Kruszwica", "addr:housenumber": "3", "addr:postcode": "88-150", "addr:street": "Zamkowa", "amenity": "pharmacy", "dispensing": "yes", "healthcare": "pharmacy", "name": "Prima", "opening_hours": "Mo-Fr 08:00-20:00; Sa 08:00-18:00", "ref:csioz": "1188613"}}, {"type": "node", "id": 4607800344, "lat": 52.4451521, "lon": 18.4639623}, {"type": "node", "id": 4607800345, "lat": 52.4451703, "lon": 18.4640573}, {"type": "node", "id": 4607800346, "lat": 52.4451418, "lon": 18.4640719}, {"type": "node", "id": 4607800347, "lat": 52.4451685, "lon": 18.4642125}, {"type": "node", "id": 4607800348, "lat": 52.4451032, "lon": 18.4642438}, {"type": "node", "id": 4607800349, "lat": 52.4451078, "lon": 18.4642683}, {"type": "node", "id": 4607800350, "lat": 52.4450743, "lon": 18.4642841}, {"type": "node", "id": 4607800351, "lat": 52.4450698, "lon": 18.4642594}, {"type": "node", "id": 4607800352, "lat": 52.4450045, "lon": 18.464291}, {"type": "node", "id": 4607800353, "lat": 52.4449783, "lon": 18.464144}, {"type": "node", "id": 4607800354, "lat": 52.4450581, "lon": 18.4641058}, {"type": "node", "id": 4607800355, "lat": 52.4450426, "lon": 18.4640179}, {"type": "node", "id": 5247714373, "lat": 52.5504034, "lon": 18.4961589, "tags": {"addr:city": "Piotrk\u00f3w Kujawski", "addr:housenumber": "18", "addr:postcode": "88-230", "addr:street": "Pozna\u0144ska", "amenity": "pharmacy", "dispensing": "yes", "healthcare": "pharmacy", "name": "Pod Magnoli\u0105", "ref:csioz": "1104315"}}, {"type": "node", "id": 6055125385, "lat": 52.6760419, "lon": 18.3228889, "tags": {"addr:housenumber": "11", "addr:street": "Rybacka", "amenity": "pharmacy", "dispensing": "yes", "healthcare": "pharmacy", "name": "Centrum Zdrowia", "ref:csioz": "1101627"}}, {"type": "node", "id": 7644531742, "lat": 52.6547139, "lon": 19.0650025, "tags": {"addr:city": "W\u0142oc\u0142awek", "addr:housenumber": "2", "addr:postcode": "87-800", "addr:street": "Tadeusza Ko\u015bciuszki", "amenity": "pharmacy", "dispensing": "yes", "healthcare": "pharmacy", "name": "Apteka Gemini", "ref:csioz": "1216502"}}, {"type": "node", "id": 9188736724, "lat": 52.4657404, "lon": 18.8827509, "tags": {"addr:city": "Boniewo", "addr:housenumber": "32a", "addr:postcode": "87-851", "addr:street": "Szkolna", "amenity": "pharmacy", "dispensing": "yes", "healthcare": "pharmacy", "name": "Punkt Apteczny", "ref:csioz": "1105606"}}, {"type": "node", "id": 9575404838, "lat": 52.4395522, "lon": 18.5082561, "tags": {"addr:housenumber": "112", "addr:place": "Wierzbinek", "addr:postcode": "62-619", "amenity": "pharmacy", "name": "Zdrowie I Uroda", "ref:csioz": "1230831"}}, {"type": "node", "id": 9590256688, "lat": 52.6284485, "lon": 18.7217682, "tags": {"addr:city": "Osi\u0119ciny", "addr:housenumber": "10", "addr:postcode": "88-220", "addr:street": "Tadeusza Ko\u015bciuszki", "amenity": "pharmacy", "dispensing": "yes", "name": "Apteka Zdrowie I Uroda", "ref:csioz": "1220950"}}, {"type": "node", "id": 9590279489, "lat": 52.6286201, "lon": 18.5308098, "tags": {"addr:city": "Radziej\u00f3w", "addr:housenumber": "25", "addr:postcode": "88-200", "addr:street": "Brzeska", "amenity": "pharmacy", "dispensing": "yes", "name": "Apteka Spo\u0142eczna Radziej\u00f3w", "ref:csioz": "1187619"}}, {"type": "node", "id": 9590281423, "lat": 52.6820425, "lon": 18.5759328, "tags": {"addr:city": "Dobre", "addr:housenumber": "1", "addr:postcode": "88-210", "addr:street": "Fabryczna", "amenity": "pharmacy", "dispensing": "yes", "healthcare": "pharmacy", "name": "Agawa", "ref:csioz": "1104016"}}, {"type": "node", "id": 9590281537, "lat": 52.6263016, "lon": 18.5246078, "tags": {"addr:city": "Radziej\u00f3w", "addr:housenumber": "22", "addr:postcode": "88-200", "addr:street": "Dolna", "amenity": "pharmacy", "branch": "Markiewicz", "brand": "Dbam o Zdrowie", "brand:wikidata": "Q62563833", "dispensing": "yes", "healthcare": "pharmacy", "name": "Dbam o Zdrowie", "ref:csioz": "1104684", "short_name": "DOZ"}}, {"type": "node", "id": 9590283680, "lat": 52.629261, "lon": 18.7235139, "tags": {"addr:city": "Osi\u0119ciny", "addr:housenumber": "6", "addr:postcode": "88-220", "addr:street": "Plac Bohater\u00f3w Powstania Warszawy", "amenity": "pharmacy", "dispensing": "yes", "healthcare": "pharmacy", "name": "Salus", "ref:csioz": "1104283"}}, {"type": "node", "id": 9590290887, "lat": 52.5475777, "lon": 18.4957527, "tags": {"addr:city": "Piotrk\u00f3w Kujawski", "addr:housenumber": "2", "addr:postcode": "88-230", "addr:street": "Stra\u017cacka", "amenity": "pharmacy", "dispensing": "yes", "name": "Doz Apteka Dbam O Zdrowie M. Markiewicz", "ref:csioz": "1166464"}}, {"type": "node", "id": 9590292823, "lat": 52.6767037, "lon": 18.572071, "tags": {"addr:city": "Dobre", "addr:housenumber": "2", "addr:postcode": "88-120", "addr:street": "Lipowa", "amenity": "pharmacy", "dispensing": "yes", "name": "Malwa", "ref:csioz": "1185096"}}, {"type": "node", "id": 9590302519, "lat": 52.6199732, "lon": 18.5166834, "tags": {"addr:housenumber": "104", "addr:place": "Czo\u0142owo", "addr:postcode": "88-200", "amenity": "pharmacy", "dispensing": "yes", "name": "Pharmacon Apteka Prywatna Mgr Farm. Jolanta Sobieska", "ref:csioz": "1104328"}}, {"type": "node", "id": 9590308231, "lat": 52.5570734, "lon": 18.5949474, "tags": {"addr:housenumber": "51", "addr:place": "Byto\u0144", "addr:postcode": "88-231", "amenity": "pharmacy", "dispensing": "yes", "name": "Zdrowie I Uroda", "ref:csioz": "1230759"}}, {"type": "node", "id": 9590328944, "lat": 52.6276001, "lon": 18.5317621, "tags": {"addr:city": "Radziej\u00f3w", "addr:housenumber": "28", "addr:postcode": "88-200", "addr:street": "Brzeska", "amenity": "pharmacy", "dispensing": "yes", "name": "Doz Apteka Dbam O Zdrowie Przy Dworcu", "ref:csioz": "1104793"}}, {"type": "node", "id": 9590343267, "lat": 52.5481521, "lon": 18.4965306, "tags": {"addr:city": "Piotrk\u00f3w Kujawski", "addr:housenumber": "16", "addr:postcode": "88-230", "addr:street": "Plac Henryka Sienkiewicza", "amenity": "pharmacy", "dispensing": "yes", "name": "Twoja Apteka", "ref:csioz": "1121795"}}, {"type": "node", "id": 9592601049, "lat": 52.5106961, "lon": 18.7878121, "tags": {"addr:housenumber": "10", "addr:place": "Zg\u0142owi\u0105czka", "addr:postcode": "87-890", "amenity": "pharmacy", "dispensing": "yes", "name": "Dla Ciebie", "ref:csioz": "1176773"}}, {"type": "node", "id": 9592606207, "lat": 52.5399226, "lon": 18.8328292, "tags": {"addr:city": "Lubraniec", "addr:housenumber": "2a", "addr:postcode": "87-890", "addr:street": "dr. Mariana Szulca", "amenity": "pharmacy", "dispensing": "yes", "name": "Apteka Pigu\u0142ka Centrum Lek\u00f3w", "ref:csioz": "1209849"}}, {"type": "node", "id": 9592616313, "lat": 52.6085937, "lon": 18.9071812, "tags": {"addr:city": "Brze\u015b\u0107 Kujawski", "addr:housenumber": "10A", "addr:postcode": "87-880", "addr:street": "Kr\u00f3lewska", "amenity": "pharmacy", "dispensing": "yes", "name": "Nova", "ref:csioz": "1104922"}}, {"type": "node", "id": 9592631364, "lat": 52.6496527, "lon": 18.930116, "tags": {"addr:city": "Wieniec", "addr:housenumber": "2a", "addr:postcode": "87-880", "addr:street": "Klonowa", "amenity": "pharmacy", "dispensing": "yes", "name": "Apteka Klonowa", "ref:csioz": "1226944"}}, {"type": "node", "id": 9592657522, "lat": 52.7464369, "lon": 18.919483, "tags": {"addr:housenumber": "28", "addr:place": "Lubanie", "addr:postcode": "87-732", "amenity": "pharmacy", "dispensing": "yes", "name": "Pod Chabrami", "ref:csioz": "1104226"}}, {"type": "node", "id": 9592696625, "lat": 52.5294963, "lon": 19.1498322, "tags": {"addr:city": "Kowal", "addr:housenumber": "6", "addr:postcode": "87-820", "addr:street": "Jana Matejki", "amenity": "pharmacy", "dispensing": "yes", "name": "Kr\u00f3lewska", "ref:csioz": "1104114"}}, {"type": "node", "id": 9592697203, "lat": 52.4218576, "lon": 18.756722, "tags": {"addr:city": "Izbica Kujawska", "addr:housenumber": "34", "addr:postcode": "87-865", "addr:street": "Gabriela Narutowicza", "amenity": "pharmacy", "dispensing": "yes", "name": "Parkowa", "ref:csioz": "1104050"}}, {"type": "node", "id": 9592701683, "lat": 52.4210692, "lon": 18.7627772, "tags": {"addr:city": "Izbica Kujawska", "addr:housenumber": "19", "addr:postcode": "87-865", "addr:street": "Plac Wolno\u015bci", "amenity": "pharmacy", "dispensing": "yes", "name": "Zielona", "ref:csioz": "1104069"}}, {"type": "node", "id": 9592705029, "lat": 52.6079627, "lon": 18.904433, "tags": {"addr:city": "Brze\u015b\u0107 Kujawski", "addr:housenumber": "7", "addr:postcode": "87-880", "addr:street": "Kr\u00f3lewska", "amenity": "pharmacy", "brand": "Dbam o Zdrowie", "brand:wikidata": "Q62563833", "dispensing": "yes", "healthcare": "pharmacy", "name": "Dbam o Zdrowie", "ref:csioz": "1099075", "short_name": "DOZ"}}, {"type": "node", "id": 9592705885, "lat": 52.5426768, "lon": 18.8349691, "tags": {"addr:city": "Lubraniec", "addr:housenumber": "24", "addr:postcode": "87-890", "addr:street": "Brzeska", "amenity": "pharmacy", "dispensing": "yes", "name": "Apteka Puls Lubraniec", "ref:csioz": "1221150"}}, {"type": "node", "id": 9592708063, "lat": 52.4194038, "lon": 18.7637883, "tags": {"addr:city": "Izbica Kujawska", "addr:housenumber": "19", "addr:postcode": "87-865", "addr:street": "Garbarska", "amenity": "pharmacy", "dispensing": "yes", "name": "Aspirynka Centrum Lek\u00f3w", "ref:csioz": "1199496"}}, {"type": "node", "id": 9592710974, "lat": 52.5303969, "lon": 19.1495744, "tags": {"addr:city": "Kowal", "addr:housenumber": "2", "addr:postcode": "87-820", "addr:street": "Plac Rejtana", "amenity": "pharmacy", "dispensing": "yes", "name": "Vigor 1", "ref:csioz": "1197638"}}, {"type": "node", "id": 9592712975, "lat": 52.5083751, "lon": 19.0876756, "tags": {"addr:city": "Czerniewice", "addr:housenumber": "3B", "addr:postcode": "87-830", "addr:street": "Wiejska", "amenity": "pharmacy", "dispensing": "yes", "name": "Witaminka", "ref:csioz": "1104003"}}, {"type": "node", "id": 9592714278, "lat": 52.5301003, "lon": 19.1491886, "tags": {"addr:city": "Kowal", "addr:housenumber": "3", "addr:postcode": "87-820", "addr:street": "Miko\u0142aja Kopernika", "amenity": "pharmacy", "dispensing": "yes", "ref:csioz": "1104123"}}, {"type": "node", "id": 9592723937, "lat": 52.4215795, "lon": 18.7598108, "tags": {"addr:city": "Izbica Kujawska", "addr:housenumber": "18", "addr:postcode": "87-865", "addr:street": "Gabriela Narutowicza", "amenity": "pharmacy", "dispensing": "yes", "healthcare": "pharmacy", "name": "Twoje Leki", "ref:csioz": "1203117"}}, {"type": "node", "id": 9604031596, "lat": 52.6493284, "lon": 19.0530224, "tags": {"addr:city": "W\u0142oc\u0142awek", "addr:housenumber": "18A", "addr:postcode": "87-800", "addr:street": "Wiejska", "amenity": "pharmacy", "dispensing": "yes", "name": "Alba", "opening_hours": "Mo-Su 08:00-21:00", "ref:csioz": "1100422"}}, {"type": "node", "id": 9604047039, "lat": 52.6557377, "lon": 19.0659849, "tags": {"addr:city": "W\u0142oc\u0142awek", "addr:housenumber": "8", "addr:postcode": "87-800", "addr:street": "Plac Wolno\u015bci", "amenity": "pharmacy", "check_date": "2024-07-22", "dispensing": "yes", "name": "Apteka Spo\u0142eczna", "opening_hours": "Mo-Fr 07:30-20:00; Sa 08:00-16:00", "ref:csioz": "1175214"}}, {"type": "node", "id": 9604050023, "lat": 52.6665231, "lon": 19.0390637, "tags": {"addr:city": "W\u0142oc\u0142awek", "addr:housenumber": "8", "addr:postcode": "87-800", "addr:street": "Pogodna", "amenity": "pharmacy", "dispensing": "yes", "name": "Apteka Pogodna", "ref:csioz": "1189663"}}, {"type": "node", "id": 9604052669, "lat": 52.6388718, "lon": 19.0489172, "tags": {"addr:city": "W\u0142oc\u0142awek", "addr:housenumber": "102A", "addr:postcode": "87-800", "addr:street": "Kaliska", "amenity": "pharmacy", "brand": "Dbam o Zdrowie", "brand:wikidata": "Q62563833", "dispensing": "yes", "healthcare": "pharmacy", "name": "Apteka Dbam o Zdrowie", "opening_hours": "Mo-Fr 08:00-20:00; Sa 08:00-15:00", "ref:csioz": "1217723", "short_name": "DOZ"}}, {"type": "node", "id": 9604067084, "lat": 52.6540131, "lon": 19.0693255, "tags": {"addr:city": "W\u0142oc\u0142awek", "addr:housenumber": "41/43", "addr:postcode": "87-800", "addr:street": "Kr\u00f3lewiecka", "amenity": "pharmacy", "dispensing": "yes", "name": "Pigu\u0142ka", "ref:csioz": "1173962"}}, {"type": "node", "id": 9604067085, "lat": 52.6469151, "lon": 19.049002, "tags": {"addr:city": "W\u0142oc\u0142awek", "addr:housenumber": "31", "addr:postcode": "87-800", "addr:street": "Wiejska", "amenity": "pharmacy", "dispensing": "yes", "name": "Apteka S\u0142oneczna", "ref:csioz": "1104786"}}, {"type": "node", "id": 9604079544, "lat": 52.662618, "lon": 19.0475031, "tags": {"addr:city": "W\u0142oc\u0142awek", "addr:housenumber": "34", "addr:postcode": "87-800", "addr:street": "Wieniecka", "amenity": "pharmacy", "dispensing": "yes", "name": "Apteka \u015aw. Kosmy I Damiana", "ref:csioz": "1104874"}}, {"type": "node", "id": 9604080456, "lat": 52.6419249, "lon": 19.0478816, "tags": {"addr:city": "W\u0142oc\u0142awek", "addr:housenumber": "10", "addr:postcode": "87-800", "addr:street": "Kazimierza \u0141ady", "amenity": "pharmacy", "dispensing": "yes", "healthcare": "pharmacy", "name": "Victoria IV", "ref:csioz": "1209016"}}, {"type": "node", "id": 9604080457, "lat": 52.6669487, "lon": 19.0398977, "tags": {"addr:city": "W\u0142oc\u0142awek", "addr:housenumber": "7", "addr:postcode": "87-800", "addr:street": "Promienna", "amenity": "pharmacy", "dispensing": "yes", "healthcare": "pharmacy", "name": "Pigu\u0142ka", "ref:csioz": "1105024"}}, {"type": "node", "id": 9604081222, "lat": 52.647857, "lon": 19.057535, "tags": {"addr:city": "W\u0142oc\u0142awek", "addr:housenumber": "11", "addr:postcode": "87-800", "addr:street": "Stefana \u017beromskiego", "amenity": "pharmacy", "dispensing": "yes", "name": "Przy Rynku", "opening_hours": "Mo-Fr 07:00-20:00; Sa 07:00-15:00", "ref:csioz": "1105019"}}, {"type": "node", "id": 9604118026, "lat": 52.6378267, "lon": 19.0476014, "tags": {"addr:city": "W\u0142oc\u0142awek", "addr:housenumber": "104A", "addr:postcode": "87-800", "addr:street": "Kaliska", "amenity": "pharmacy", "dispensing": "yes", "name": "Apteka Gemini", "opening_hours": "24/7", "ref:csioz": "1224300"}}, {"type": "node", "id": 9604151229, "lat": 52.6639523, "lon": 19.0440461, "tags": {"addr:city": "W\u0142oc\u0142awek", "addr:housenumber": "6", "addr:postcode": "87-816", "addr:street": "Budowlanych", "amenity": "pharmacy", "dispensing": "yes", "name": "Viola", "ref:csioz": "1104830"}}, {"type": "node", "id": 9604151402, "lat": 52.6557535, "lon": 19.0695376, "tags": {"addr:city": "W\u0142oc\u0142awek", "addr:housenumber": "6", "addr:postcode": "87-800", "addr:street": "Przedmiejska", "amenity": "pharmacy", "dispensing": "yes", "name": "Doz Apteka Dbam O Zdrowie", "ref:csioz": "1104755"}}, {"type": "node", "id": 9604196676, "lat": 52.6443357, "lon": 19.0536578, "tags": {"addr:city": "W\u0142oc\u0142awek", "addr:housenumber": "31", "addr:postcode": "87-800", "addr:street": "Planty", "amenity": "pharmacy", "dispensing": "yes", "healthcare": "pharmacy", "name": "Omega Na Plantach", "ref:csioz": "1104764"}}, {"type": "node", "id": 9604197377, "lat": 52.6558113, "lon": 19.0723147, "tags": {"addr:city": "W\u0142oc\u0142awek", "addr:housenumber": "4", "addr:postcode": "87-800", "addr:street": "Zielony Rynek", "amenity": "pharmacy", "dispensing": "yes", "ref:csioz": "1104987"}}, {"type": "node", "id": 9604201777, "lat": 52.6443414, "lon": 19.0370178, "tags": {"addr:city": "W\u0142oc\u0142awek", "addr:housenumber": "26", "addr:postcode": "87-800", "addr:street": "\u017burawia", "amenity": "pharmacy", "brand": "Dbam o Zdrowie", "brand:wikidata": "Q62563833", "dispensing": "yes", "healthcare": "pharmacy", "name": "Dbam o Zdrowie", "ref:csioz": "1105043", "short_name": "DOZ"}}, {"type": "node", "id": 9604218836, "lat": 52.6635839, "lon": 19.0532333, "tags": {"addr:city": "W\u0142oc\u0142awek", "addr:housenumber": "14", "addr:postcode": "87-800", "addr:street": "Wieniecka", "amenity": "pharmacy", "dispensing": "yes", "name": "Apteka Wieniecka Tanie Leki", "ref:csioz": "1104707"}}, {"type": "node", "id": 9604236826, "lat": 52.653142, "lon": 19.0718105, "tags": {"addr:city": "W\u0142oc\u0142awek", "addr:housenumber": "34", "addr:postcode": "87-800", "addr:street": "\u015awi\u0119tego Antoniego", "amenity": "pharmacy", "dispensing": "yes", "name": "Apteka Dbam O Zdrowie", "ref:csioz": "1099069"}}, {"type": "node", "id": 9609642270, "lat": 52.7556644, "lon": 18.6266307, "tags": {"addr:city": "Zakrzewo", "addr:housenumber": "6A", "addr:postcode": "87-707", "addr:street": "Radziejowska", "amenity": "pharmacy", "dispensing": "yes", "ref:csioz": "1104998"}}, {"type": "node", "id": 9609662804, "lat": 52.7883611, "lon": 18.875806, "tags": {"addr:housenumber": "49a", "addr:place": "Zbrachlin", "addr:postcode": "87-731", "amenity": "pharmacy", "dispensing": "yes", "name": "Punkt Apteczny Zbrachlin", "ref:csioz": "1208438"}}, {"type": "node", "id": 9609677195, "lat": 52.7565955, "lon": 18.6263335, "tags": {"addr:city": "Zakrzewo", "addr:housenumber": "19", "addr:postcode": "87-707", "addr:street": "Osiedlowa", "amenity": "pharmacy", "dispensing": "yes", "name": "Doz Apteka Dbam O Zdrowie Markiewicz", "ref:csioz": "1220274"}}, {"type": "node", "id": 9609679949, "lat": 52.7808673, "lon": 18.7221578, "tags": {"addr:city": "Koneck", "addr:housenumber": "13", "addr:postcode": "87-702", "addr:street": "Wies\u0142awa Adamczyka", "amenity": "pharmacy", "dispensing": "yes", "name": "Zdrowie I Uroda", "ref:csioz": "1230767"}}, {"type": "node", "id": 9609685462, "lat": 52.7031134, "lon": 18.7900684, "tags": {"addr:city": "B\u0105dkowo", "addr:housenumber": "11", "addr:postcode": "87-704", "addr:street": "W\u0142oc\u0142awska", "amenity": "pharmacy", "dispensing": "yes", "name": "Pod Modrzewiem", "ref:csioz": "1103903"}}, {"type": "node", "id": 10218497372, "lat": 52.7791488, "lon": 18.9539249, "tags": {"addr:city": "Bobrowniki", "addr:housenumber": "9", "addr:postcode": "87-617", "addr:street": "Plac Wolno\u015bci", "amenity": "pharmacy", "dispensing": "yes", "fixme": "Lokalizacja do weryfikacji", "healthcare": "pharmacy", "name": "Punkt Apteczny Magnolia", "ref:csioz": "1228805"}}, {"type": "node", "id": 10218497378, "lat": 52.6760778, "lon": 18.3233496, "tags": {"amenity": "pharmacy", "dispensing": "yes", "healthcare": "pharmacy", "name": "W Przychodni", "ref:csioz": "1099911"}}, {"type": "node", "id": 10218497379, "lat": 52.6751415, "lon": 18.3213193, "tags": {"amenity": "pharmacy", "dispensing": "yes", "healthcare": "pharmacy", "name": "Vitafarm", "ref:csioz": "1101881"}}, {"type": "node", "id": 10218574254, "lat": 52.6247014, "lon": 18.5238422, "tags": {"amenity": "pharmacy", "dispensing": "yes", "healthcare": "pharmacy", "name": "Magnolia", "ref:csioz": "1209922"}}, {"type": "node", "id": 10218574255, "lat": 52.6291451, "lon": 18.7243456, "tags": {"amenity": "pharmacy", "dispensing": "yes", "healthcare": "pharmacy", "name": "Tara", "ref:csioz": "1104294"}}, {"type": "node", "id": 10218574256, "lat": 52.5623557, "lon": 18.6136601, "tags": {"amenity": "pharmacy", "dispensing": "yes", "healthcare": "pharmacy", "name": "Punkt Apteczny Zdrowie I Uroda", "ref:csioz": "1230788"}}, {"type": "node", "id": 10221184213, "lat": 52.6547029, "lon": 19.0675992, "tags": {"amenity": "pharmacy", "dispensing": "yes", "healthcare": "pharmacy", "name": "S\u0142oneczna", "ref:csioz": "1210208"}}, {"type": "way", "id": 380162147, "nodes": [3835051758, 3835051759, 3835051760, 3835051761, 3835051758], "tags": {"addr:city": "W\u0142oc\u0142awek", "addr:city:simc": "0984752", "addr:housenumber": "89a", "addr:postcode": "87-800", "addr:street": "Kaliska", "amenity": "pharmacy", "building": "yes", "dispensing": "yes", "healthcare": "pharmacy", "height": "6", "name": "Apteka Omega", "opening_hours": "Mo-Sa 07:00-21:00", "phone": "+48 54 307 08 00", "ref:csioz": "1195557", "source:addr": "gugik.gov.pl"}}, {"type": "way", "id": 416630257, "nodes": [4173773618, 4173773615, 4173773610, 4173773611, 4173773613, 4173773616, 4173773618], "tags": {"addr:city": "Waganiec", "addr:housenumber": "5", "addr:postcode": "87-731", "addr:street": "Dworcowa", "amenity": "pharmacy", "building": "yes", "dispensing": "yes", "name": "Arnika", "ref:csioz": "1104443"}}, {"type": "way", "id": 465873939, "nodes": [4607800344, 4607800345, 4607800346, 4607800347, 4607800348, 4607800349, 4607800350, 4607800351, 4607800352, 4607800353, 4607800354, 4607800355, 4607800344], "tags": {"addr:city:simc": "0299708", "addr:housenumber": "7A", "addr:place": "Sadlno", "addr:postcode": "62-619", "amenity": "pharmacy", "building": "retail", "building:levels": "1", "name": "Medica", "ref:csioz": "1221976"}}]}