{"version": 0.6, "generator": "Overpass API 0.7.62.8 e802775f", "osm3s": {"timestamp_osm_base": "2025-10-06T08:53:43Z", "copyright": "The data included in this document is from www.openstreetmap.org. The data is made available under ODbL."}, "elements": [{"type": "node", "id": 3944853370, "lat": 38.4847021, "lon": 28.1295796, "tags": {"addr:city": "Salihli/Manisa", "amenity": "pharmacy", "healthcare": "pharmacy", "name": "Kalkan Eczanesi", "phone": "+90 236 714 6000"}}, {"type": "node", "id": 3944853371, "lat": 38.4847777, "lon": 28.1295876, "tags": {"amenity": "pharmacy", "healthcare": "pharmacy", "name": "Eren Eczanesi", "phone": "+90 236 713 3552"}}, {"type": "node", "id": 3945296120, "lat": 38.4830153, "lon": 28.1504862, "tags": {"addr:city": "Salihli/Manisa", "amenity": "pharmacy", "healthcare": "pharmacy", "name": "\u00d6zden Eczanesi", "phone": "+90 236 714 6501"}}, {"type": "node", "id": 3945296121, "lat": 38.4830531, "lon": 28.1502931, "tags": {"addr:city": "Salihli/Manisa", "amenity": "pharmacy", "healthcare": "pharmacy", "name": "\u00c7i\u011fdem Eczanesi", "phone": "+90 236 712 3334"}}, {"type": "node", "id": 3945296127, "lat": 38.4830825, "lon": 28.1501563, "tags": {"addr:city": "Salihli/Manisa", "amenity": "pharmacy", "healthcare": "pharmacy", "name": "Hayat Eczanesi", "phone": "+90 236 714 4480"}}, {"type": "node", "id": 3945316195, "lat": 38.4790577, "lon": 28.1617938, "tags": {"addr:city": "Salihli/Manisa", "amenity": "pharmacy", "healthcare": "pharmacy", "name": "\u015eifa Eczanesi", "phone": "+90 236 713 0007"}}, {"type": "node", "id": 3945316201, "lat": 38.4792582, "lon": 28.1618182, "tags": {"addr:city": "Salihli/Manisa", "amenity": "pharmacy", "healthcare": "pharmacy", "name": "Ongun Eczanesi", "phone": "+90 236 713 8400"}}, {"type": "node", "id": 3945316210, "lat": 38.4795112, "lon": 28.1618467, "tags": {"addr:city": "Salihli/Manisa", "amenity": "pharmacy", "healthcare": "pharmacy", "name": "Sar\u0131gedik Eczanesi", "phone": "+90 236 714 5060"}}, {"type": "node", "id": 5744647433, "lat": 38.4811596, "lon": 28.1515322, "tags": {"amenity": "pharmacy", "healthcare": "pharmacy", "name": "Gencer Eczanesi", "phone": "+90 236 715 1332"}}, {"type": "node", "id": 5744647434, "lat": 38.4820719, "lon": 28.1502555, "tags": {"amenity": "pharmacy", "healthcare": "pharmacy", "name": "Egemen Eczanesi", "phone": "+90 236 715 5232"}}, {"type": "node", "id": 11527278570, "lat": 38.7474978, "lon": 28.4028335, "tags": {"amenity": "pharmacy", "name": "G\u00fclden Eczanesi", "phone": "+90 236 571 2661"}}, {"type": "node", "id": 11527286271, "lat": 38.7525239, "lon": 28.4680617, "tags": {"amenity": "pharmacy", "name": "Alpay Eczanesi", "phone": "+90 236 473 7555"}}, {"type": "node", "id": 11527286272, "lat": 38.7476322, "lon": 28.4030847, "tags": {"amenity": "pharmacy", "name": "Ayd\u0131n Eczanesi", "phone": "+90 236 571 2865"}}, {"type": "node", "id": 11607109470, "lat": 38.4967678, "lon": 28.0430889, "tags": {"amenity": "pharmacy", "name": "Yeni \u015eart Eczanesi", "phone": "+90 236 724 2008"}}, {"type": "node", "id": 11607109569, "lat": 38.4966003, "lon": 28.0430251, "tags": {"amenity": "pharmacy", "name": "Esra Eczanesi", "phone": "+90 236 724 2901"}}, {"type": "node", "id": 11607186970, "lat": 38.5155823, "lon": 28.2483347, "tags": {"amenity": "pharmacy", "name": "Ekinci Eczanesi", "phone": "+90 236 734 2878"}}, {"type": "node", "id": 11607186971, "lat": 38.577824, "lon": 28.2695018, "tags": {"amenity": "pharmacy", "name": "Adala Eczanesi", "phone": "+90 236 732 2050"}}, {"type": "node", "id": 11607186972, "lat": 38.6223942, "lon": 28.1393463, "tags": {"amenity": "pharmacy", "name": "\u00dcnl\u00fc Eczanesi", "phone": "+90 236 745 2424"}}, {"type": "node", "id": 11607190569, "lat": 38.4947998, "lon": 28.1121721, "tags": {"amenity": "pharmacy", "name": "Y\u0131lmaz Eczanesi", "phone": "+90 236 714 6775"}}, {"type": "node", "id": 11607190570, "lat": 38.478309, "lon": 28.134049, "tags": {"amenity": "pharmacy", "name": "Deva Eczanesi", "phone": "+90 236 714 2032"}}, {"type": "node", "id": 11607190571, "lat": 38.4859735, "lon": 28.1387063, "tags": {"amenity": "pharmacy", "name": "Bi\u00e7er Eczanesi", "phone": "+90 236 715 5911"}}, {"type": "node", "id": 11607190769, "lat": 38.4787248, "lon": 28.1277832, "tags": {"amenity": "pharmacy", "name": "Salihli Eczanesi", "phone": "+90 236 714 7923"}}, {"type": "node", "id": 11607190770, "lat": 38.4838533, "lon": 28.1302002, "tags": {"amenity": "pharmacy", "name": "\u015eefkat Eczanesi", "phone": "+90 236 712 2171"}}, {"type": "node", "id": 11607190771, "lat": 38.4792009, "lon": 28.1345628, "tags": {"amenity": "pharmacy", "name": "Aybike Eczanesi", "phone": "+90 236 714 7700"}}, {"type": "node", "id": 11607190772, "lat": 38.4782003, "lon": 28.1399894, "tags": {"amenity": "pharmacy", "name": "Acil Eczanesi", "phone": "+90 236 714 2029"}}, {"type": "node", "id": 11607190773, "lat": 38.4830447, "lon": 28.1392653, "tags": {"amenity": "pharmacy", "name": "Can Eczanesi", "phone": "+90 236 713 6943"}}, {"type": "node", "id": 11607190774, "lat": 38.4875475, "lon": 28.1445428, "tags": {"amenity": "pharmacy", "name": "Modern Eczanesi", "opening_hours": "Mo-Sa 08:30-18:00", "phone": "+90 535 445 9789"}}, {"type": "node", "id": 11607190779, "lat": 38.4861164, "lon": 28.1394406, "tags": {"amenity": "pharmacy", "name": "Merkez Nur Eczanesi", "phone": "+90 538 227 7300"}}, {"type": "node", "id": 11607190780, "lat": 38.4842152, "lon": 28.1354777, "tags": {"amenity": "pharmacy", "name": "Atalay Eczanesi", "phone": "+90 236 714 7309"}}, {"type": "node", "id": 11607190781, "lat": 38.483955, "lon": 28.133862, "tags": {"amenity": "pharmacy", "name": "G\u00fclda\u011f Eczanesi", "phone": "+90 236 713 7089"}}, {"type": "node", "id": 11607190782, "lat": 38.4827817, "lon": 28.1507325, "tags": {"amenity": "pharmacy", "name": "Huzur Eczanesi", "phone": "+90 236 716 2626"}}, {"type": "node", "id": 11607190783, "lat": 38.48322, "lon": 28.1508147, "tags": {"amenity": "pharmacy", "name": "Hilal \u00dcnl\u00fc Eczanesi", "phone": "+90 236 712 1499"}}, {"type": "node", "id": 11607190784, "lat": 38.4901775, "lon": 28.1625425, "tags": {"amenity": "pharmacy", "healthcare": "pharmacy", "name": "Yeni Kaya Eczanesi", "phone": "+90 236 716 2424"}}, {"type": "node", "id": 11607190785, "lat": 38.4797522, "lon": 28.1613752, "tags": {"amenity": "pharmacy", "healthcare": "pharmacy", "name": "G\u00f6k\u00e7e Eczanesi", "phone": "+90 236 712 1414"}}, {"type": "node", "id": 11607190786, "lat": 38.4758721, "lon": 28.1612548, "tags": {"amenity": "pharmacy", "name": "Ko\u015fuyolu Eczanesi", "phone": "+90 236 713 0717"}}, {"type": "node", "id": 11607190869, "lat": 38.4847492, "lon": 28.1295914, "tags": {"amenity": "pharmacy", "name": "Ya\u011fmur Eczanesi", "phone": "+90 236 712 5004"}}, {"type": "node", "id": 11607190870, "lat": 38.4799315, "lon": 28.1358965, "tags": {"amenity": "pharmacy", "name": "Ezgi Eczanesi", "phone": "+90 236 714 8265"}}, {"type": "node", "id": 11607190871, "lat": 38.4779014, "lon": 28.1399747, "tags": {"amenity": "pharmacy", "name": "Do\u011fa Eczanesi", "phone": "+90 543 638 3188"}}, {"type": "node", "id": 11607190872, "lat": 38.4791065, "lon": 28.1409828, "tags": {"amenity": "pharmacy", "name": "Tuba Eczanesi", "phone": "+90 236 713 7835"}}, {"type": "node", "id": 11607190873, "lat": 38.4788819, "lon": 28.1400286, "tags": {"amenity": "pharmacy", "name": "Okan Eczanesi", "phone": "+90 236 715 2336"}}, {"type": "node", "id": 11607190874, "lat": 38.4859145, "lon": 28.1374114, "tags": {"amenity": "pharmacy", "name": "Alt\u0131n Eczanesi", "phone": "+90 236 714 4919"}}, {"type": "node", "id": 11607190875, "lat": 38.4849797, "lon": 28.1367943, "tags": {"amenity": "pharmacy", "name": "Sevgiyolu Eczanesi", "phone": "+90 532 509 9789"}}, {"type": "node", "id": 11607190876, "lat": 38.4841625, "lon": 28.1342106, "tags": {"amenity": "pharmacy", "name": "Bilger Eczanesi", "phone": "+90 236 714 5513"}}, {"type": "node", "id": 11607190877, "lat": 38.4813209, "lon": 28.1515241, "tags": {"amenity": "pharmacy", "name": "H\u00fcseyin Atalay Eczanesi", "phone": "+90 236 712 1717"}}, {"type": "node", "id": 11607190878, "lat": 38.48244, "lon": 28.1506758, "tags": {"amenity": "pharmacy", "name": "\u00c7ivgin Eczanesi", "phone": "+90 236 713 5387"}}, {"type": "node", "id": 11607190879, "lat": 38.4829165, "lon": 28.1507581, "tags": {"amenity": "pharmacy", "name": "Seda Eczanesi", "phone": "+90 236 713 3100"}}, {"type": "node", "id": 11607190880, "lat": 38.4831182, "lon": 28.1507774, "tags": {"amenity": "pharmacy", "name": "Akayd\u0131n Eczanesi", "phone": "+90 236 713 9839"}}, {"type": "node", "id": 11607190881, "lat": 38.4835831, "lon": 28.1506139, "tags": {"amenity": "pharmacy", "name": "Demirta\u015f Eczanesi", "phone": "+90 506 324 3976"}}, {"type": "node", "id": 11607190882, "lat": 38.4811596, "lon": 28.1577274, "tags": {"amenity": "pharmacy", "name": "Ege Eczanesi", "phone": "+90 236 713 3437"}}, {"type": "node", "id": 11607190883, "lat": 38.4761916, "lon": 28.1598949, "tags": {"amenity": "pharmacy", "name": "Bet\u00fcl Eczanesi", "phone": "+90 236 714 1994"}}, {"type": "node", "id": 11607190884, "lat": 38.4762769, "lon": 28.1604549, "tags": {"amenity": "pharmacy", "name": "Yal\u00e7\u0131nkaya Eczanesi", "phone": "+90 236 714 7224"}}, {"type": "node", "id": 11607191169, "lat": 38.4806329, "lon": 28.1363226, "tags": {"amenity": "pharmacy", "name": "Esin Eczanesi", "phone": "+90 236 714 4646"}}, {"type": "node", "id": 11607191170, "lat": 38.4789902, "lon": 28.1400028, "tags": {"amenity": "pharmacy", "name": "Hekimo\u011flu Eczanesi", "phone": "+90 236 714 1381"}}, {"type": "node", "id": 11607191171, "lat": 38.479141, "lon": 28.1400418, "tags": {"amenity": "pharmacy", "name": "Akar Eczanesi", "phone": "+90 236 712 0201"}}, {"type": "node", "id": 11607191172, "lat": 38.4792344, "lon": 28.1399723, "tags": {"amenity": "pharmacy", "name": "B\u00fcy\u00fck Eczanesi", "phone": "+90 236 713 1673"}}, {"type": "node", "id": 11607191173, "lat": 38.4792754, "lon": 28.1398432, "tags": {"amenity": "pharmacy", "name": "Berkay Y\u0131lmaz Eczanesi", "phone": "+90 236 713 1673"}}, {"type": "node", "id": 11607191174, "lat": 38.4793072, "lon": 28.1397297, "tags": {"amenity": "pharmacy", "name": "Ayverdi Eczanesi", "phone": "+90 236 714 5777"}}, {"type": "node", "id": 11607191175, "lat": 38.4793375, "lon": 28.1396338, "tags": {"amenity": "pharmacy", "name": "Ya\u011f\u0131z Kayda Eczanesi", "phone": "+90 236 712 0088"}}, {"type": "node", "id": 11607191176, "lat": 38.487317, "lon": 28.14164, "tags": {"amenity": "pharmacy", "name": "Tezcan Eczanesi", "phone": "+90 236 714 7711"}}, {"type": "node", "id": 11607191177, "lat": 38.4872193, "lon": 28.1414105, "tags": {"amenity": "pharmacy", "name": "Turan Eczanesi", "phone": "+90 236 712 2230"}}, {"type": "node", "id": 11607191178, "lat": 38.4860772, "lon": 28.139333, "tags": {"amenity": "pharmacy", "name": "Nil Eczanesi", "phone": "+90 236 713 4567"}}, {"type": "node", "id": 11607191179, "lat": 38.4839219, "lon": 28.1342637, "tags": {"amenity": "pharmacy", "name": "G\u00fcr Eczanesi", "phone": "+90 236 715 5980"}}, {"type": "node", "id": 11607191180, "lat": 38.4838754, "lon": 28.1336966, "tags": {"amenity": "pharmacy", "name": "Ecem Eczanesi", "phone": "+90 236 732 3232"}}, {"type": "node", "id": 11607191181, "lat": 38.4835033, "lon": 28.1506086, "tags": {"amenity": "pharmacy", "name": "Kulta\u015f Eczanesi", "phone": "+90 236 503 9885"}}, {"type": "node", "id": 11607191182, "lat": 38.488153, "lon": 28.15483, "tags": {"amenity": "pharmacy", "name": "Akdeniz Eczanesi", "opening_hours": "Mo-Sa 08:30-18:00", "phone": "+90 236 715 5588"}}, {"type": "node", "id": 11607191269, "lat": 38.4787673, "lon": 28.1400321, "tags": {"amenity": "pharmacy", "name": "\u00d6zdemir Eczanesi", "phone": "+90 236 714 2463"}}, {"type": "node", "id": 11607191270, "lat": 38.4871402, "lon": 28.1412363, "tags": {"amenity": "pharmacy", "name": "Atar Eczanesi", "phone": "+90 236 713 7874"}}, {"type": "node", "id": 11607191271, "lat": 38.4849611, "lon": 28.1389676, "tags": {"amenity": "pharmacy", "name": "Lotus Eczanesi", "phone": "+90 501 272 7987"}}, {"type": "node", "id": 11607191272, "lat": 38.4861067, "lon": 28.1379522, "tags": {"amenity": "pharmacy", "name": "Ula\u015f Eczanesi", "phone": "+90 236 713 7069"}}, {"type": "node", "id": 11607191273, "lat": 38.485052, "lon": 28.137759, "tags": {"amenity": "pharmacy", "name": "Girgin Eczanesi", "phone": "+90 236 713 0135"}}, {"type": "node", "id": 11607191274, "lat": 38.4834004, "lon": 28.1508539, "tags": {"amenity": "pharmacy", "name": "Papatya Eczanesi", "phone": "+90 236 713 1991"}}, {"type": "node", "id": 11607191275, "lat": 38.4840956, "lon": 28.1613254, "tags": {"amenity": "pharmacy", "name": "Buket Eczanesi", "phone": "+90 236 716 1817"}}, {"type": "node", "id": 11607191276, "lat": 38.4784182, "lon": 28.1616771, "tags": {"amenity": "pharmacy", "healthcare": "pharmacy", "name": "Ya\u015fam Eczanesi", "phone": "+90 236 712 0222"}}, {"type": "node", "id": 11607191277, "lat": 38.4764214, "lon": 28.1604624, "tags": {"amenity": "pharmacy", "name": "\u00d6zg\u00fcr Eczanesi", "phone": "+90 236 715 3768"}}, {"type": "node", "id": 11607191369, "lat": 38.4873846, "lon": 28.1417762, "tags": {"amenity": "pharmacy", "name": "Murat Eczanesi", "opening_hours": "Mo-Sa 08:30-18:00", "phone": "+90 236 714 2424"}}, {"type": "node", "id": 11607191370, "lat": 38.4861652, "lon": 28.1395403, "tags": {"amenity": "pharmacy", "name": "\u015eahin Eczanesi", "phone": "+90 236 713 3938"}}, {"type": "node", "id": 11607191469, "lat": 38.4834033, "lon": 28.1505688, "tags": {"amenity": "pharmacy", "name": "Yeni Salihli Eczanesi", "phone": "+90 236 715 0757"}}, {"type": "node", "id": 11607191470, "lat": 38.4843473, "lon": 28.1649425, "tags": {"amenity": "pharmacy", "healthcare": "pharmacy", "name": "\u00d6zge Eczanesi", "phone": "+90 236 716 3814"}}, {"type": "node", "id": 11607196569, "lat": 38.5210175, "lon": 28.2002799, "tags": {"amenity": "pharmacy", "healthcare": "pharmacy", "name": "Taytan Eczanesi", "phone": "+90 236 739 2434"}}]}