{"version": 0.6, "generator": "Overpass API 0.7.62.8 e802775f", "osm3s": {"timestamp_osm_base": "2025-10-06T08:45:30Z", "copyright": "The data included in this document is from www.openstreetmap.org. The data is made available under ODbL."}, "elements": [{"type": "node", "id": 1856915731, "lat": 53.6260717, "lon": 21.7985226, "tags": {"addr:city": "Pisz", "addr:housenumber": "4", "addr:postcode": "19-200", "addr:street": "Henryka Sienkiewicza", "amenity": "pharmacy", "dispensing": "yes", "healthcare": "pharmacy", "ref:csioz": "1041760"}}, {"type": "node", "id": 1920066409, "lat": 53.6099185, "lon": 22.0600795, "tags": {"addr:city": "Bia\u0142a Piska", "addr:housenumber": "18", "addr:street": "Plac Adama Mickiewicza", "amenity": "pharmacy", "brand": "Dbam o Zdrowie", "brand:wikidata": "Q62563833", "dispensing": "yes", "healthcare": "pharmacy", "name": "Dbam o Zdrowie", "ref:csioz": "1041403"}}, {"type": "node", "id": 1920067455, "lat": 53.6106839, "lon": 22.062609, "tags": {"addr:city": "Bia\u0142a Piska", "addr:housenumber": "1", "addr:street": "Juliusza S\u0142owackiego", "amenity": "pharmacy", "dispensing": "yes", "name": "Zdrowie", "ref:csioz": "1041416"}}, {"type": "node", "id": 2557706738, "lat": 53.8004052, "lon": 21.5733868, "tags": {"addr:city": "Miko\u0142ajki", "addr:city:simc": "0977723", "addr:housenumber": "5", "addr:postcode": "11-730", "addr:street": "Plac Wolno\u015bci", "amenity": "pharmacy", "dispensing": "yes", "name": "S\u0142oneczna", "opening_hours": "Mo-Fr 07:30-19:00; Sa 09:00-16:00; Su 10:00-15:00", "ref:csioz": "1173375"}}, {"type": "node", "id": 3237819737, "lat": 53.8083895, "lon": 21.9476416, "tags": {"addr:city": "Orzysz", "addr:housenumber": "6", "addr:street": "Ogrodowa", "amenity": "pharmacy", "dispensing": "yes", "healthcare": "pharmacy", "name": "\u015aw. Brunona", "ref:csioz": "1041680"}}, {"type": "node", "id": 3237821946, "lat": 53.8086494, "lon": 21.9468064, "tags": {"addr:city": "Orzysz", "addr:housenumber": "1", "addr:street": "Ogrodowa", "amenity": "pharmacy", "dispensing": "yes", "healthcare": "pharmacy", "ref:csioz": "1041695"}}, {"type": "node", "id": 4307084195, "lat": 53.9792564, "lon": 22.0361064, "tags": {"addr:city": "Wydminy", "addr:housenumber": "1", "addr:postcode": "11-510", "addr:street": "Dworcowa", "amenity": "pharmacy", "check_date": "2023-01-13", "check_date:opening_hours": "2021-05-03", "dispensing": "yes", "healthcare": "pharmacy", "name": "Vita", "name:pl": "Vita", "opening_hours": "Mo-Fr 08:00-18:00; Sa 08:00-13:00", "payment:cash": "yes", "payment:credit_cards": "yes", "payment:mastercard": "yes", "payment:visa": "yes", "phone": "+48 87 564 09 38", "ref:csioz": "1196834", "wheelchair": "yes"}}, {"type": "node", "id": 5066834880, "lat": 53.8014216, "lon": 21.5720042, "tags": {"addr:city": "Miko\u0142ajki", "addr:city:simc": "0977723", "addr:housenumber": "3a", "addr:postcode": "11-730", "addr:street": "3 Maja", "amenity": "pharmacy", "dispensing": "yes", "name": "Apteka mgr farm. Lucyna Kaniak", "ref:csioz": "1041590"}}, {"type": "node", "id": 5677756735, "lat": 53.6280409, "lon": 21.807367, "tags": {"addr:city": "Pisz", "addr:housenumber": "2", "addr:street": "Rybacka", "amenity": "pharmacy", "dispensing": "yes", "healthcare": "pharmacy", "name": "Gemini", "ref:csioz": "1204618"}}, {"type": "node", "id": 9013936928, "lat": 53.8020264, "lon": 21.5733227, "tags": {"addr:city": "Miko\u0142ajki", "addr:city:simc": "0977723", "addr:housenumber": "15", "addr:postcode": "11-730", "addr:street": "Plac Handlowy", "amenity": "pharmacy", "dispensing": "yes", "name": "Centrum", "ref:csioz": "1041609"}}, {"type": "node", "id": 9599194123, "lat": 53.6287882, "lon": 21.8076274, "tags": {"addr:city": "Pisz", "addr:housenumber": "12", "addr:street": "Plac Ignacego Daszy\u0144skiego", "amenity": "pharmacy", "brand": "Dr. Max", "brand:wikidata": "Q56317371", "brand:wikipedia": "fr:Dr.Max", "dispensing": "yes", "healthcare": "pharmacy", "name": "Dr. Max", "ref:csioz": "1214153"}}, {"type": "node", "id": 9599194125, "lat": 53.6291366, "lon": 21.808792, "tags": {"addr:city": "Pisz", "addr:housenumber": "2", "addr:street": "Wojska Polskiego", "amenity": "pharmacy", "check_date": "2023-08-25", "dispensing": "yes", "name": "Cef@Rm 36,6", "opening_hours": "Mo-Fr 07:30-20:00; Sa 08:00-18:00; PH,Su 08:00-16:00", "payment:mastercard": "yes", "payment:visa": "yes", "ref:csioz": "1041783", "wheelchair": "limited"}}, {"type": "node", "id": 9599194126, "lat": 53.6266355, "lon": 21.8013322, "tags": {"addr:city": "Pisz", "addr:housenumber": "2D", "addr:street": "Jana Matejki", "amenity": "pharmacy", "dispensing": "yes", "ref:csioz": "1041752"}}, {"type": "node", "id": 9599194128, "lat": 53.681994, "lon": 22.1036961, "tags": {"addr:city": "Dryga\u0142y", "addr:housenumber": "18", "addr:street": "Henryka Sienkiewicza", "amenity": "pharmacy", "dispensing": "yes", "name": "Punkt Apteczny", "ref:csioz": "1016395"}}]}