{"version": 0.6, "generator": "Overpass API 0.7.62.8 e802775f", "osm3s": {"timestamp_osm_base": "2025-10-06T07:51:29Z", "copyright": "The data included in this document is from www.openstreetmap.org. The data is made available under ODbL."}, "elements": [{"type": "node", "id": 1508791401, "lat": 43.5830227, "lon": 19.5246777, "tags": {"amenity": "pharmacy", "dispensing": "yes"}}, {"type": "node", "id": 2764679489, "lat": 43.5612066, "lon": 19.5397285, "tags": {"amenity": "pharmacy", "healthcare": "pharmacy"}}, {"type": "node", "id": 3909345941, "lat": 43.6168666, "lon": 19.36615, "tags": {"addr:city": "Rudo", "addr:housenumber": "21", "addr:postcode": "73260", "addr:street": "\u0110enerala Dragoljuba Dra\u017ee Mihailovi\u0107a", "amenity": "pharmacy", "healthcare": "pharmacy", "name": "Crvena Apoteka"}}, {"type": "node", "id": 5753960256, "lat": 43.5609565, "lon": 19.539001, "tags": {"addr:city": "Priboj", "addr:postcode": "31330", "addr:street": "\u041d\u0435\u043c\u0430\u045a\u0438\u043d\u0430", "amenity": "pharmacy", "brand": "\u041a\u0440\u0448\u0435\u043d\u043a\u043e\u0432\u0438\u045b", "brand:wikidata": "Q132782214", "dispensing": "yes", "healthcare": "pharmacy", "int_name": "Krsenkovic", "name": "\u041a\u0440\u0448\u0435\u043d\u043a\u043e\u0432\u0438\u045b", "name:sr": "\u041a\u0440\u0448\u0435\u043d\u043a\u043e\u0432\u0438\u045b", "name:sr-Latn": "Kr\u0161enkovi\u0107"}}, {"type": "node", "id": 5838723958, "lat": 43.750871, "lon": 19.7187828, "tags": {"amenity": "pharmacy", "brand": "\u041a\u0440\u0448\u0435\u043d\u043a\u043e\u0432\u0438\u045b", "brand:wikidata": "Q132782214", "healthcare": "pharmacy", "int_name": "Krsenkovic", "name": "\u041a\u0440\u0448\u0435\u043d\u043a\u043e\u0432\u0438\u045b", "name:sr": "\u041a\u0440\u0448\u0435\u043d\u043a\u043e\u0432\u0438\u045b", "name:sr-Latn": "Kr\u0161enkovi\u0107"}}, {"type": "node", "id": 6949738575, "lat": 43.5828107, "lon": 19.5253078, "tags": {"amenity": "pharmacy", "dispensing": "yes", "healthcare": "pharmacy"}}, {"type": "node", "id": 6949751298, "lat": 43.5835908, "lon": 19.5191552, "tags": {"amenity": "pharmacy", "dispensing": "yes", "healthcare": "pharmacy"}}, {"type": "node", "id": 8816678053, "lat": 43.7858443, "lon": 19.2936224}, {"type": "node", "id": 8816678054, "lat": 43.7858213, "lon": 19.2937213}, {"type": "node", "id": 8816678055, "lat": 43.785788, "lon": 19.2935972}, {"type": "node", "id": 8816678056, "lat": 43.7857649, "lon": 19.293696}, {"type": "node", "id": 11182133263, "lat": 43.7890267, "lon": 19.5018753, "tags": {"amenity": "pharmacy", "healthcare": "pharmacy"}}, {"type": "node", "id": 11873731663, "lat": 43.726693, "lon": 19.6997719, "tags": {"amenity": "pharmacy", "brand": "Lilly", "healthcare": "pharmacy", "name": "Lilly", "opening_hours": "Mo-Su 08:00-21:00"}}, {"type": "node", "id": 11968828049, "lat": 43.7249469, "lon": 19.6975847, "tags": {"amenity": "pharmacy", "healthcare": "pharmacy", "int_name": "Apoteka", "name": "\u0410\u043f\u043e\u0442\u0435\u043a\u0430", "name:sr": "\u0410\u043f\u043e\u0442\u0435\u043a\u0430"}}, {"type": "node", "id": 12324427058, "lat": 43.7252756, "lon": 19.6974831, "tags": {"addr:floor": "G", "amenity": "pharmacy", "brand": "\u041a\u0440\u0448\u0435\u043d\u043a\u043e\u0432\u0438\u045b", "brand:wikidata": "Q132782214", "check_date": "2024-11-08", "healthcare": "pharmacy", "int_name": "Krsenkovic", "level": "0", "name": "\u041a\u0440\u0448\u0435\u043d\u043a\u043e\u0432\u0438\u045b", "name:sr": "\u041a\u0440\u0448\u0435\u043d\u043a\u043e\u0432\u0438\u045b", "name:sr-Latn": "Kr\u0161enkovi\u0107", "opening_hours": "08:00-22:00", "payment:cash": "yes", "payment:credit_cards": "yes", "payment:debit_cards": "yes", "wheelchair": "limited"}}, {"type": "node", "id": 12478165072, "lat": 43.7254511, "lon": 19.6990268, "tags": {"amenity": "pharmacy", "brand": "\u041a\u0440\u0448\u0435\u043d\u043a\u043e\u0432\u0438\u045b", "brand:wikidata": "Q132782214", "healthcare": "pharmacy", "int_name": "Krsenkovic", "name": "\u041a\u0440\u0448\u0435\u043d\u043a\u043e\u0432\u0438\u045b", "name:sr": "\u041a\u0440\u0448\u0435\u043d\u043a\u043e\u0432\u0438\u045b", "name:sr-Latn": "Kr\u0161enkovi\u0107"}}, {"type": "way", "id": 952572924, "nodes": [8816678055, 8816678053, 8816678054, 8816678056, 8816678055], "tags": {"amenity": "pharmacy", "building": "yes", "healthcare": "pharmacy"}}]}