{"version": 0.6, "generator": "Overpass API 0.7.62.8 e802775f", "osm3s": {"timestamp_osm_base": "2025-10-06T08:59:45Z", "copyright": "The data included in this document is from www.openstreetmap.org. The data is made available under ODbL."}, "elements": [{"type": "node", "id": 3587568917, "lat": 55.6028167, "lon": 22.6897285, "tags": {"addr:city": "Kra\u017eiai", "addr:contact": "yes", "addr:housenumber": "35", "addr:street": "S. Dariaus ir S. Gir\u0117no g.", "amenity": "pharmacy", "name": "Gintarin\u0117 vaistin\u0117"}}, {"type": "node", "id": 3831794283, "lat": 55.7425181, "lon": 22.3714554, "tags": {"addr:city": "Varniai", "addr:contact": "yes", "addr:housenumber": "1", "addr:street": "S. Daukanto g.", "amenity": "pharmacy", "name": "Vaistn\u0117"}}, {"type": "node", "id": 4076997265, "lat": 55.7240453, "lon": 21.9312878, "tags": {"addr:city": "Rietavas", "addr:contact": "yes", "addr:housenumber": "17A", "addr:street": "Plung\u0117s g.", "amenity": "pharmacy", "brand": "Camelia", "brand:wikidata": "Q15867413", "healthcare": "pharmacy", "name": "Camelia"}}, {"type": "node", "id": 5015577833, "lat": 55.5567027, "lon": 21.9865702, "tags": {"amenity": "pharmacy", "name": "Vaistin\u0117"}}, {"type": "node", "id": 5018807627, "lat": 55.5642157, "lon": 22.4552825, "tags": {"addr:city": "Kaltin\u0117nai", "addr:contact": "yes", "addr:housenumber": "25", "addr:street": "Did\u017eioji g.", "amenity": "pharmacy", "name": "Vaistin\u0117"}}, {"type": "node", "id": 6299215550, "lat": 55.8922434, "lon": 22.5222543, "tags": {"amenity": "pharmacy", "name": "Luok\u0117s vaistin\u0117", "operator": "Camelia", "phone": "+370 444 43167"}}, {"type": "node", "id": 7755809452, "lat": 55.741653, "lon": 22.3726809, "tags": {"addr:city": "Varniai", "addr:contact": "yes", "addr:housenumber": "2", "addr:postcode": "88321", "addr:street": "Dariaus ir Gir\u0117no g.", "amenity": "pharmacy", "contact:facebook": "https://www.facebook.com/BENUvaistine", "contact:instagram": "https://www.instagram.com/benu_vaistine/", "email": "benu.7171@benu.lt", "name": "Benu", "opening_hours": "Mo-Fr 08:00-18:00; Sa-Su 09:00-14:00", "operator": "BENU Vaistin\u0117 UAB", "phone": "+370 620 89105", "website": "https://www.benu.lt"}}, {"type": "node", "id": 8989172211, "lat": 55.7233719, "lon": 21.9313685, "tags": {"amenity": "pharmacy", "brand": "Gintarin\u0117 vaistin\u0117", "brand:wikidata": "Q15857801", "brand:wikipedia": "lt:Gintarin\u0117 vaistin\u0117", "dispensing": "yes", "healthcare": "pharmacy", "name": "Gintarin\u0117 vaistin\u0117"}}]}