{"version": 0.6, "generator": "Overpass API 0.7.62.8 e802775f", "osm3s": {"timestamp_osm_base": "2025-10-06T08:53:43Z", "copyright": "The data included in this document is from www.openstreetmap.org. The data is made available under ODbL."}, "elements": [{"type": "node", "id": 903284811, "lat": 44.1998679, "lon": 26.59092, "tags": {"amenity": "pharmacy"}}, {"type": "node", "id": 1820309741, "lat": 44.0450808, "lon": 26.6159267, "tags": {"amenity": "pharmacy"}}, {"type": "node", "id": 2290847491, "lat": 44.0871007, "lon": 26.6351099, "tags": {"amenity": "pharmacy", "healthcare": "pharmacy"}}, {"type": "node", "id": 2357152461, "lat": 44.1092579, "lon": 26.5855128, "tags": {"amenity": "pharmacy", "name": "Farmacia Kalmus"}}, {"type": "node", "id": 2359393813, "lat": 44.0960972, "lon": 26.6397001, "tags": {"amenity": "pharmacy", "name": "Farmacia Kalmus"}}, {"type": "node", "id": 2815557906, "lat": 44.2351565, "lon": 26.4648048, "tags": {"addr:city": "Bude\u0219ti", "addr:housenumber": "23", "addr:postcode": "915100", "addr:street": "Strada Independen\u021bei", "amenity": "pharmacy", "dispensing": "no", "healthcare": "pharmacy", "name": "Farmacia Vio Budesti", "opening_hours": "Mo-Su 08:00-21:00", "operator": "Farmvio SRL"}}, {"type": "node", "id": 4052384229, "lat": 44.439406, "lon": 26.8529724, "tags": {"amenity": "pharmacy", "healthcare": "pharmacy", "name": "Ecofarm"}}, {"type": "node", "id": 4259364835, "lat": 44.0870862, "lon": 26.636817, "tags": {"amenity": "pharmacy", "brand": "Catena", "brand:wikidata": "Q24035728", "brand:wikipedia": "ro:Farmacia Catena", "healthcare": "pharmacy", "name": "Catena", "opening_hours": "Mo-Fr 07:00-21:00; Sa 07:00-19:00; Su 07:00-16:00"}}, {"type": "node", "id": 4259364836, "lat": 44.0882817, "lon": 26.6384894, "tags": {"amenity": "pharmacy", "name": "Ozone"}}, {"type": "node", "id": 4437376898, "lat": 44.1700193, "lon": 26.6078186, "tags": {"addr:postcode": "917175", "amenity": "pharmacy", "name": "Sofia Farm", "opening_hours": "08:00-16:00", "operator": "Radu Alina Camelia"}}, {"type": "node", "id": 7811804085, "lat": 44.440488, "lon": 26.8515617, "tags": {"amenity": "pharmacy", "brand": "Catena", "brand:wikidata": "Q24035728", "healthcare": "pharmacy", "name": "Catena"}}, {"type": "node", "id": 7811804086, "lat": 44.4419235, "lon": 26.8523151, "tags": {"amenity": "pharmacy", "brand": "Help Net", "brand:wikidata": "Q12729923", "healthcare": "pharmacy", "name": "Help Net"}}, {"type": "node", "id": 7897460897, "lat": 44.0853962, "lon": 26.6434881, "tags": {"amenity": "pharmacy", "dispensing": "yes", "healthcare": "pharmacy"}}, {"type": "node", "id": 10209520129, "lat": 44.3539776, "lon": 26.3639142, "tags": {"addr:city": "Pl\u0103t\u0103re\u0219ti", "addr:street": "Calea Bucure\u0219ti", "amenity": "pharmacy", "healthcare": "pharmacy", "name": "Farmacia Vio"}}]}