{"version": 0.6, "generator": "Overpass API 0.7.62.8 e802775f", "osm3s": {"timestamp_osm_base": "2025-10-06T09:01:48Z", "copyright": "The data included in this document is from www.openstreetmap.org. The data is made available under ODbL."}, "elements": [{"type": "node", "id": 3291910347, "lat": 37.4051644, "lon": 29.1370732, "tags": {"amenity": "pharmacy", "healthcare": "pharmacy", "name": "Keysan Eczanesi", "phone": "+90 258 622 5666"}}, {"type": "node", "id": 3708682987, "lat": 37.5811232, "lon": 29.0608272, "tags": {"amenity": "pharmacy", "healthcare": "pharmacy", "name": "Tavas Eczaneler"}}, {"type": "node", "id": 4294500324, "lat": 37.5715096, "lon": 29.0692441, "tags": {"amenity": "pharmacy", "healthcare": "pharmacy", "name": "\u0130ylik\u00e7i Eczanesi", "phone": "+90 258 613 1360"}}, {"type": "node", "id": 6161990648, "lat": 37.4283757, "lon": 29.3365161, "tags": {"amenity": "pharmacy", "dispensing": "yes", "healthcare": "pharmacy"}}, {"type": "node", "id": 11594159070, "lat": 37.3300902, "lon": 29.0210863, "tags": {"amenity": "pharmacy", "name": "Kardelen Eczanesi", "phone": "+90 258 633 6465"}}, {"type": "node", "id": 11594159071, "lat": 37.4409365, "lon": 28.845873, "tags": {"amenity": "pharmacy", "name": "P\u0131nar Eczanesi", "phone": "+90 258 671 3126"}}, {"type": "node", "id": 11594159072, "lat": 37.567738, "lon": 29.0717125, "tags": {"amenity": "pharmacy", "healthcare": "pharmacy", "name": "Kaan Eczanesi", "phone": "+90 258 613 1708"}}, {"type": "node", "id": 11594159073, "lat": 37.5696054, "lon": 29.0712421, "tags": {"amenity": "pharmacy", "healthcare": "pharmacy", "name": "Emin Eczanesi", "phone": "+90 258 613 3930"}}, {"type": "node", "id": 11594159074, "lat": 37.5714996, "lon": 29.0689758, "tags": {"amenity": "pharmacy", "healthcare": "pharmacy", "name": "Yeni Eczanesi", "phone": "+90 258 613 1120"}}, {"type": "node", "id": 11594159075, "lat": 37.5723975, "lon": 29.0702454, "tags": {"amenity": "pharmacy", "healthcare": "pharmacy", "name": "\u00c7avu\u015fo\u011flu Eczanesi", "phone": "+90 258 613 1417"}}, {"type": "node", "id": 11594159076, "lat": 37.6121537, "lon": 29.0156178, "tags": {"amenity": "pharmacy", "name": "Ba\u015fak Eczanesi", "phone": "+90 258 626 2063"}}, {"type": "node", "id": 11594159077, "lat": 37.6132597, "lon": 29.014761, "tags": {"amenity": "pharmacy", "name": "Ayd\u0131nl\u0131k Eczanesi", "phone": "+90 258 626 2977"}}, {"type": "node", "id": 11594160069, "lat": 37.4892554, "lon": 29.1399406, "tags": {"amenity": "pharmacy", "name": "Derin Eczanesi", "phone": "+90 258 619 2022"}}, {"type": "node", "id": 11594160070, "lat": 37.4539603, "lon": 28.9927295, "tags": {"amenity": "pharmacy", "name": "Perinur Eczanesi", "phone": "+90 258 641 1202"}}, {"type": "node", "id": 11594160072, "lat": 37.5726571, "lon": 29.0706275, "tags": {"amenity": "pharmacy", "healthcare": "pharmacy", "name": "Park Eczanesi", "phone": "+90 258 613 1093"}}, {"type": "node", "id": 11594160073, "lat": 37.5731972, "lon": 29.071704, "tags": {"amenity": "pharmacy", "name": "Derman Eczanesi", "phone": "+90 258 622 5075"}}, {"type": "node", "id": 11594160169, "lat": 37.4403953, "lon": 28.8481959, "tags": {"amenity": "pharmacy", "name": "Altay Eczanesi", "phone": "+90 258 671 3424"}}, {"type": "node", "id": 11594160170, "lat": 37.5715703, "lon": 29.0694075, "tags": {"amenity": "pharmacy", "healthcare": "pharmacy", "name": "Sa\u011flam Eczanesi", "phone": "+90 258 613 1080"}}, {"type": "node", "id": 11594160269, "lat": 37.4400085, "lon": 28.8474975, "tags": {"amenity": "pharmacy", "name": "\u00d6zdel Eczanesi", "phone": "+90 258 671 3788"}}, {"type": "node", "id": 11594160270, "lat": 37.5712996, "lon": 29.0694504, "tags": {"amenity": "pharmacy", "name": "Deniz Eczanesi", "phone": "+90 258 613 0702"}}, {"type": "node", "id": 11594160369, "lat": 37.4415628, "lon": 28.845934, "tags": {"addr:housenumber": "22/D", "addr:street": "Cami Caddesi", "amenity": "pharmacy", "name": "Elif Eczanesi", "phone": "+90 549 100 0810"}}, {"type": "node", "id": 11594160469, "lat": 37.441705, "lon": 28.8458605, "tags": {"amenity": "pharmacy", "name": "Peri Eczanesi", "phone": "+90 258 671 2861"}}, {"type": "node", "id": 11594160470, "lat": 37.5693435, "lon": 29.0714532, "tags": {"amenity": "pharmacy", "healthcare": "pharmacy", "name": "\u00d6zg\u00fcn Eczanesi", "phone": "+90 258 613 1549"}}, {"type": "node", "id": 11594160471, "lat": 37.5728305, "lon": 29.071416, "tags": {"amenity": "pharmacy", "healthcare": "pharmacy", "name": "Tavas Eczanesi", "phone": "+90 258 613 1923"}}, {"type": "node", "id": 11594160472, "lat": 37.6109382, "lon": 28.9583529, "tags": {"amenity": "pharmacy", "name": "Karahisar Eczanesi", "phone": "+90 258 627 5031"}}, {"type": "node", "id": 11594160669, "lat": 37.5675355, "lon": 29.0721159, "tags": {"amenity": "pharmacy", "healthcare": "pharmacy", "name": "Mehmet Eczanesi", "phone": "+90 258 613 0699"}}, {"type": "node", "id": 11594160670, "lat": 37.5716888, "lon": 29.0692338, "tags": {"amenity": "pharmacy", "healthcare": "pharmacy", "name": "\u015eeng\u00fcl Akal\u0131n Eczanesi", "phone": "+90 258 613 4241"}}, {"type": "node", "id": 11621630469, "lat": 37.5754925, "lon": 29.2706098, "tags": {"amenity": "pharmacy", "healthcare": "pharmacy", "name": "G\u00f6zde Eczanesi", "phone": "+90 258 591 2515"}}, {"type": "node", "id": 11621630569, "lat": 37.5801361, "lon": 29.2630494, "tags": {"amenity": "pharmacy", "name": "K\u0131z\u0131lhisar Eczanesi", "phone": "+90 258 591 3045"}}, {"type": "node", "id": 11621630669, "lat": 37.5806931, "lon": 29.2641656, "tags": {"amenity": "pharmacy", "name": "Bilim Eczanesi", "phone": "+90 258 591 3787"}}, {"type": "node", "id": 11621630769, "lat": 37.5811191, "lon": 29.2633338, "tags": {"amenity": "pharmacy", "healthcare": "pharmacy", "name": "Sedef Eczanesi", "phone": "+90 258 591 2769"}}]}