{"version": 0.6, "generator": "Overpass API 0.7.62.8 e802775f", "osm3s": {"timestamp_osm_base": "2025-10-06T08:36:15Z", "copyright": "The data included in this document is from www.openstreetmap.org. The data is made available under ODbL."}, "elements": [{"type": "node", "id": 253732513, "lat": 46.2200152, "lon": 24.0141218, "tags": {"amenity": "pharmacy", "name": "Kalmus"}}, {"type": "node", "id": 582696989, "lat": 45.8085949, "lon": 24.1496919, "tags": {"amenity": "pharmacy", "healthcare": "pharmacy", "is_in:city": "Sibiu", "is_in:country": "Romania", "is_in:country_code": "RO", "is_in:county": "Sibiu", "name": "Cleopatra"}}, {"type": "node", "id": 599291009, "lat": 45.804198, "lon": 24.1336762, "tags": {"amenity": "pharmacy", "healthcare": "pharmacy", "is_in:city": "Sibiu", "is_in:country": "Romania", "is_in:country_code": "RO", "is_in:county": "Sibiu"}}, {"type": "node", "id": 2101787448, "lat": 46.1775146, "lon": 23.9255768, "tags": {"amenity": "pharmacy", "dispensing": "no", "name": "Farmacia Coleus"}}, {"type": "node", "id": 2101883994, "lat": 46.1760905, "lon": 23.9097146, "tags": {"amenity": "pharmacy", "healthcare": "pharmacy"}}, {"type": "node", "id": 2370316948, "lat": 46.176654, "lon": 23.921787, "tags": {"amenity": "pharmacy", "name": "Farmacia Hypocrate"}}, {"type": "node", "id": 3362890443, "lat": 46.176945, "lon": 23.914734, "tags": {"addr:city": "Blaj", "addr:postcode": "515400", "addr:street": "Strada Eroilor", "amenity": "pharmacy", "brand": "Farmacia Dona", "brand:wikidata": "Q12726919", "healthcare": "pharmacy", "name": "Farmacia Dona"}}, {"type": "node", "id": 3373647815, "lat": 46.179845, "lon": 23.913198, "tags": {"addr:city": "Blaj", "addr:full": "STRADA EROILOR, BL. 41, AP. 6", "addr:housenumber": "41", "addr:street": "Strada Eroilor", "amenity": "pharmacy", "name": "Farma Elixirum", "source": "data.gov.ro", "start_date": "EN5044"}}, {"type": "node", "id": 3373647817, "lat": 46.1807187, "lon": 23.9279839, "tags": {"addr:city": "Blaj", "addr:housenumber": "A5", "addr:street": "Strada Simion B\u0103rnu\u021biu", "amenity": "pharmacy", "name": "Farmacia Coleus", "source": "data.gov.ro", "start_date": "EN10740"}}, {"type": "node", "id": 3373647819, "lat": 46.176796, "lon": 23.9182859, "tags": {"addr:city": "Blaj", "addr:housenumber": "40", "addr:street": "Bulevardul Republicii", "amenity": "pharmacy", "healthcare": "pharmacy", "name": "Farmacia Humanitas", "source": "data.gov.ro", "start_date": "EN1861"}}, {"type": "node", "id": 3657621051, "lat": 46.1681567, "lon": 24.3405653, "tags": {"amenity": "pharmacy", "drive_through": "no", "name": "Farmacia Remedia"}}, {"type": "node", "id": 3657649628, "lat": 46.1686262, "lon": 24.3399563, "tags": {"amenity": "pharmacy", "name": "Catena"}}, {"type": "node", "id": 3657649629, "lat": 46.1685514, "lon": 24.3394905, "tags": {"amenity": "pharmacy", "healthcare": "pharmacy", "name": "Farmacia Damian"}}, {"type": "node", "id": 3946131489, "lat": 45.8955586, "lon": 24.4542112, "tags": {"amenity": "pharmacy", "name": "Farmacia Raluconsfarm"}}, {"type": "node", "id": 4864844140, "lat": 46.2273387, "lon": 24.1131783, "tags": {"amenity": "pharmacy", "name": "Farmacia Remedia"}}, {"type": "node", "id": 5045457663, "lat": 45.9226997, "lon": 24.1600835, "tags": {"amenity": "pharmacy", "name": "Farmacia Uman\u0103"}}, {"type": "node", "id": 5271531420, "lat": 45.9741943, "lon": 24.2751401, "tags": {"amenity": "pharmacy", "healthcare": "pharmacy", "name": "Farmacia Alejandro"}}, {"type": "node", "id": 5328726621, "lat": 46.0989055, "lon": 23.9239965, "tags": {"amenity": "pharmacy", "healthcare": "pharmacy", "name": "Farmacia Remedia"}}, {"type": "node", "id": 6054062202, "lat": 45.806195, "lon": 24.1479041, "tags": {"amenity": "pharmacy", "healthcare": "pharmacy"}}, {"type": "node", "id": 7728806685, "lat": 46.1898829, "lon": 23.8419533, "tags": {"amenity": "pharmacy"}}, {"type": "node", "id": 8821748405, "lat": 45.8799798, "lon": 24.0558461, "tags": {"amenity": "pharmacy", "dispensing": "yes", "healthcare": "pharmacy", "name": "Montana Farm"}}, {"type": "node", "id": 8828875484, "lat": 46.0916012, "lon": 24.395909, "tags": {"amenity": "pharmacy", "dispensing": "yes", "healthcare": "pharmacy", "name": "Farmacie"}}, {"type": "node", "id": 9966335636, "lat": 46.1440879, "lon": 24.3231747, "tags": {"amenity": "pharmacy", "brand": "Dr. Max", "brand:wikidata": "Q56317371", "healthcare": "pharmacy", "name": "Dr. Max"}}, {"type": "node", "id": 10657587501, "lat": 45.8333069, "lon": 24.0552116, "tags": {"amenity": "pharmacy", "healthcare": "pharmacy", "name": "Fito Farmacie"}}, {"type": "node", "id": 13096181273, "lat": 45.822487, "lon": 24.1473127, "tags": {"amenity": "pharmacy", "brand": "Dr. Max", "brand:wikidata": "Q56317371", "healthcare": "pharmacy", "name": "Dr. Max"}}]}