{"version": 0.6, "generator": "Overpass API 0.7.62.8 e802775f", "osm3s": {"timestamp_osm_base": "2025-10-06T08:31:13Z", "copyright": "The data included in this document is from www.openstreetmap.org. The data is made available under ODbL."}, "elements": [{"type": "node", "id": 702211817, "lat": 46.7463774, "lon": 23.4883912, "tags": {"amenity": "pharmacy", "healthcare": "pharmacy", "name": "Farmacie"}}, {"type": "node", "id": 710702045, "lat": 46.7330177, "lon": 23.4832896, "tags": {"amenity": "pharmacy", "healthcare": "pharmacy", "name": "Farmacia Tei"}}, {"type": "node", "id": 2089915293, "lat": 46.7551828, "lon": 23.386823, "tags": {"amenity": "pharmacy", "healthcare": "pharmacy", "name": "Farmacie"}}, {"type": "node", "id": 2466675778, "lat": 46.736722, "lon": 23.4885077, "tags": {"addr:housenumber": "274", "addr:street": "Strada Florilor", "addr:unit": "1", "amenity": "pharmacy", "email": "ducfarm.floresti@gmail.com", "healthcare": "pharmacy", "name": "Ducfarm", "opening_hours": "Mo-Fr 08:30-21:00; Sa 09:00-19:00; Su 10:00-14:00", "phone": "+4364566515"}}, {"type": "node", "id": 3325125764, "lat": 46.7288303, "lon": 23.1102254, "tags": {"amenity": "pharmacy", "name": "Farmacie"}}, {"type": "node", "id": 3491902630, "lat": 46.8317137, "lon": 22.9906271}, {"type": "node", "id": 3491902647, "lat": 46.8317368, "lon": 22.990498}, {"type": "node", "id": 3491902700, "lat": 46.8318254, "lon": 22.9906698}, {"type": "node", "id": 3491902718, "lat": 46.8318485, "lon": 22.9905407}, {"type": "node", "id": 3881853285, "lat": 46.7357934, "lon": 23.4759741, "tags": {"amenity": "pharmacy", "brand": "Farmacia Dona", "brand:wikidata": "Q12726919", "healthcare": "pharmacy", "name": "Farmacia Dona"}}, {"type": "node", "id": 4212261389, "lat": 46.6757429, "lon": 23.4565851, "tags": {"amenity": "pharmacy", "healthcare": "pharmacy", "opening_hours": "Mo-Fr 08:00-16:00; PH off"}}, {"type": "node", "id": 6899911377, "lat": 46.7503297, "lon": 23.5338538, "tags": {"amenity": "pharmacy", "brand": "Dr. Max", "brand:wikidata": "Q56317371", "brand:wikipedia": "ro:Sensiblu", "dispensing": "yes", "healthcare": "pharmacy", "name": "Dr. Max"}}, {"type": "node", "id": 7056549987, "lat": 46.6742935, "lon": 23.4561168, "tags": {"addr:city": "S\u0103v\u0103disla", "amenity": "pharmacy", "healthcare": "pharmacy", "name": "Alipharm"}}, {"type": "node", "id": 7498785070, "lat": 46.7442003, "lon": 23.48379, "tags": {"addr:housenumber": "164", "addr:street": "Strada Avram Iancu", "amenity": "pharmacy", "email": "floresti1@elmafarm.ro", "healthcare": "pharmacy", "name": "Elmafarm", "opening_hours": "Mo-Fr 08:00-22:00; Sa 08:00-22:00; Su 08:00-20:00", "phone": "+40753126977"}}, {"type": "node", "id": 9075588680, "lat": 46.7369827, "lon": 23.4893133, "tags": {"amenity": "pharmacy", "brand": "Dr. Max", "brand:wikidata": "Q56317371", "dispensing": "yes", "healthcare": "pharmacy", "name": "Dr. Max"}}, {"type": "node", "id": 9137414217, "lat": 46.7366903, "lon": 23.4842228, "tags": {"amenity": "pharmacy", "healthcare": "pharmacy"}}, {"type": "node", "id": 9137848119, "lat": 46.7375901, "lon": 23.4842606, "tags": {"amenity": "pharmacy", "healthcare": "pharmacy", "name": "Farmacia Remedium"}}, {"type": "node", "id": 9137848317, "lat": 46.7372921, "lon": 23.4842069, "tags": {"amenity": "pharmacy", "healthcare": "pharmacy", "name": "Napofarm"}}, {"type": "node", "id": 9137848322, "lat": 46.7388739, "lon": 23.4842756, "tags": {"amenity": "pharmacy", "healthcare": "pharmacy", "name": "Bebepharm"}}, {"type": "node", "id": 9387796953, "lat": 46.7444016, "lon": 23.485646, "tags": {"amenity": "pharmacy", "dispensing": "yes", "healthcare": "pharmacy", "name": "Napofarm"}}, {"type": "node", "id": 9425776153, "lat": 46.7360657, "lon": 23.4865663, "tags": {"amenity": "pharmacy", "dispensing": "yes", "healthcare": "pharmacy", "name": "Napofarm"}}, {"type": "node", "id": 9451993044, "lat": 46.7490766, "lon": 23.5191269, "tags": {"amenity": "pharmacy", "dispensing": "yes", "healthcare": "pharmacy", "name": "Bebepharm"}}, {"type": "node", "id": 9768715365, "lat": 46.8642635, "lon": 23.0283059, "tags": {"addr:city": "Huedin", "amenity": "pharmacy", "check_date:opening_hours": "2025-09-05", "dispensing": "yes", "healthcare": "pharmacy", "name": "MP Plant Farmacia", "name:ro": "MP Plant Farmacia", "opening_hours": "Mo-Fr 08:00-20:00; Sa 09:00-17:00"}}, {"type": "node", "id": 9768715366, "lat": 46.8644249, "lon": 23.0276166, "tags": {"addr:city": "Huedin", "amenity": "pharmacy", "brand": "Catena", "brand:wikidata": "Q24035728", "check_date:opening_hours": "2025-09-02", "dispensing": "yes", "drive_through": "no", "healthcare": "pharmacy", "name": "Catena", "opening_hours": "Mo-Fr 08:00-20:00; Sa 08:00-15:00; Su 09:00-14:00"}}, {"type": "node", "id": 11805478652, "lat": 46.6808361, "lon": 23.028515, "tags": {"amenity": "pharmacy", "healthcare": "pharmacy"}}, {"type": "node", "id": 12253817198, "lat": 46.739893, "lon": 23.5078613, "tags": {"addr:city": "Flore\u0219ti", "addr:housenumber": "218", "addr:postcode": "407280", "addr:street": "Strada T\u0103u\u021biului", "amenity": "pharmacy", "brand": "Bebepharm", "drive_through": "no", "healthcare": "pharmacy", "name": "Bebepharm", "opening_hours": "Mo-Fr 09:00-21:00"}}, {"type": "node", "id": 12469888533, "lat": 46.7411368, "lon": 23.5048182, "tags": {"addr:city": "Flore\u0219ti", "addr:housenumber": "89", "addr:street": "Strada T\u0103u\u021biului", "amenity": "pharmacy", "brand": "Dr. Max", "brand:wikidata": "Q56317371", "drive_through": "no", "healthcare": "pharmacy", "name": "Dr. Max", "opening_hours": "Mo-Fr 09:00-20:00; Sat 09:00-14:00"}}, {"type": "node", "id": 12469888534, "lat": 46.739529, "lon": 23.4966164, "tags": {"addr:city": "Flore\u0219ti", "addr:housenumber": "150", "addr:street": "Strada Sub Cetate", "amenity": "pharmacy", "brand": "Dr. Max", "brand:wikidata": "Q56317371", "drive_through": "no", "healthcare": "pharmacy", "name": "Dr. Max", "opening_hours": "Mo-Fr 09:00-17:00"}}, {"type": "way", "id": 342161450, "nodes": [3491902718, 3491902647, 3491902630, 3491902700, 3491902718], "tags": {"amenity": "pharmacy", "building": "yes"}}]}